name,name_kana,name_romaji,nickname,latitude,longitude
字秋里,,,,44.445705,143.133474
字朝日,,,,44.357259,143.046545
字宇津,,,,44.426635,142.955084
字興部,,,,44.475852,143.115095
字沙留,,,,44.430463,143.198521
字住吉,,,,44.368445,143.191834
字富丘,,,,44.393414,143.24795
字豊野,,,,44.405451,143.13524
字豊畑,,,,44.342891,143.10489
字北興,,,,44.442534,143.078885
