name,name_kana,name_romaji,nickname,latitude,longitude
青葉一丁目,アオバ 1,AOBA 1,,40.50908,141.511275
青葉二丁目,アオバ 2,AOBA 2,,40.511007,141.51784
青葉三丁目,アオバ 3,AOBA 3,,40.507635,141.515931
旭ケ丘一丁目,アサヒガオカ 1,ASAHIGAOKA 1,,40.496482,141.535641
旭ケ丘二丁目,アサヒガオカ 2,ASAHIGAOKA 2,,40.496332,141.532402
旭ケ丘三丁目,アサヒガオカ 3,ASAHIGAOKA 3,,40.498963,141.534139
旭ケ丘四丁目,アサヒガオカ 4,ASAHIGAOKA 4,,40.496584,141.538586
旭ケ丘五丁目,アサヒガオカ 5,ASAHIGAOKA 5,,40.494378,141.5352
石堂一丁目,イシドウ 1,ISHIDO 1,,40.529139,141.477685
石堂二丁目,イシドウ 2,ISHIDO 2,,40.526463,141.472647
石堂三丁目,イシドウ 3,ISHIDO 3,,40.526296,141.479826
石堂四丁目,イシドウ 4,ISHIDO 4,,40.532341,141.481095
一番町一丁目,イチバンチョウ 1,ICHIBANCHO 1,,40.509067,141.433602
一番町二丁目,イチバンチョウ 2,ICHIBANCHO 2,,40.508442,141.434811
一番町三丁目,イチバンチョウ 3,ICHIBANCHO 3,,40.505924,141.431302
内丸一丁目,ウチマル 1,UCHIMARU 1,,40.513936,141.488175
内丸二丁目,ウチマル 2,UCHIMARU 2,,40.515208,141.491234
内丸三丁目,ウチマル 3,UCHIMARU 3,,40.513421,141.491824
売市一丁目,ウルイチ 1,URUICHI 1,,40.50966,141.478146
売市二丁目,ウルイチ 2,URUICHI 2,,40.509425,141.474693
売市三丁目,ウルイチ 3,URUICHI 3,,40.51076,141.471247
売市四丁目,ウルイチ 4,URUICHI 4,,40.513431,141.472473
大字荒町,,,,40.506828,141.485008
大字石手洗,,,,40.483099,141.501669
大字石堂,,,,40.525523,141.481596
大字市川町,,,,40.574129,141.437356
大字稲荷町,,,,40.507756,141.484143
大字岩泉町,,,,40.508721,141.494161
大字売市,,,,40.512618,141.485597
大字上野,,,,40.477282,141.410008
大字大久保,,,,40.499513,141.566402
大字鍛冶町,,,,40.505296,141.493553
大字徒士町,,,,40.508579,141.485192
大字金浜,,,,40.47765,141.619241
大字上徒士町,,,,40.505432,141.483988
大字上組町,,,,40.504251,141.482955
大字櫛引,,,,40.476592,141.433429
大字窪町,,,,40.512211,141.493549
大字是川,,,,40.448153,141.493503
大字坂牛,,,,40.473949,141.451289
大字鮫町,,,,40.515266,141.589569
大字沢里,,,,40.492888,141.473394
大字十一日町,,,,40.510502,141.494939
大字十三日町,,,,40.508738,141.48895
大字十八日町,,,,40.511663,141.494346
大字十六日町,,,,40.50807,141.489796
大字常海町,,,,40.512896,141.493234
大字常番町,,,,40.504654,141.484613
大字尻内町,,,,40.520882,141.413693
大字白銀町,,,,40.517452,141.539606
大字新荒町,,,,40.506236,141.483091
大字大工町,,,,40.507113,141.491886
大字鷹匠小路,,,,40.507753,141.492497
大字田向,,,,40.493911,141.505439
大字田面木,,,,40.493453,141.450117
大字朔日町,,,,40.509746,141.492856
大字堤町,,,,40.509598,141.486728
大字寺横町,,,,40.5079,141.491418
大字十日市,,,,40.477757,141.513213
大字鳥屋部町,,,,40.506856,141.490114
大字豊崎町,,,,40.513441,141.38083
大字中居林,,,,40.493098,141.501462
大字長苗代,,,,40.51778,141.45388
大字長横町,,,,40.508078,141.493424
大字新井田,,,,40.500313,141.536933
大字廿三日町,,,,40.50766,141.487028
大字廿六日町,,,,40.506937,141.487618
大字糠塚,,,,40.490896,141.48738
大字沼館,,,,40.53284,141.49405
大字根城,,,,40.504602,141.455576
大字馬場町,,,,40.510893,141.488371
大字番町,,,,40.510627,141.490297
大字堀端町,,,,40.512096,141.490885
大字町組町,,,,40.505807,141.485628
大字松館,,,,40.465693,141.537162
大字三日町,,,,40.509685,141.490712
大字湊町,,,,40.519168,141.527277
大字美保野,,,,40.482335,141.583163
大字妙,,,,40.482584,141.545949
大字六日町,,,,40.508985,141.491412
大字本鍛冶町,,,,40.506222,141.488076
大字本徒士町,,,,40.509039,141.486054
大字山伏小路,,,,40.505124,141.492498
大字八幡,,,,40.489784,141.435827
大字八日町,,,,40.51067,141.492534
大字類家,,,,40.509477,141.496642
卸センター一丁目,オロシセンター 1,OROSHISENTA 1,,40.523513,141.45259
卸センター二丁目,オロシセンター 2,OROSHISENTA 2,,40.522195,141.453732
柏崎一丁目,カシワザキ 1,KASHIWAZAKI 1,,40.513972,141.495853
柏崎二丁目,カシワザキ 2,KASHIWAZAKI 2,,40.5113,141.498727
柏崎三丁目,カシワザキ 3,KASHIWAZAKI 3,,40.513398,141.501216
柏崎四丁目,カシワザキ 4,KASHIWAZAKI 4,,40.51519,141.499933
柏崎五丁目,カシワザキ 5,KASHIWAZAKI 5,,40.516985,141.503632
柏崎六丁目,カシワザキ 6,KASHIWAZAKI 6,,40.514318,141.50508
河原木,カワラギ,KAWARAGI,,40.532384,141.471124
桔梗野工業団地一丁目,キキョウノコウギョウダンチ 1,KIKYONOKOGYODANCHI 1,,40.572478,141.463683
桔梗野工業団地二丁目,キキョウノコウギョウダンチ 2,KIKYONOKOGYODANCHI 2,,40.564952,141.45489
桔梗野工業団地三丁目,キキョウノコウギョウダンチ 3,KIKYONOKOGYODANCHI 3,,40.573149,141.46072
北インター工業団地一丁目,キタインターコウギョウダンチ 1,KITAINTAKOGYODANCHI 1,,40.544793,141.432731
北インター工業団地二丁目,キタインターコウギョウダンチ 2,KITAINTAKOGYODANCHI 2,,40.544408,141.428924
北インター工業団地三丁目,キタインターコウギョウダンチ 3,KITAINTAKOGYODANCHI 3,,40.547148,141.425356
北インター工業団地四丁目,キタインターコウギョウダンチ 4,KITAINTAKOGYODANCHI 4,,40.556931,141.426763
北インター工業団地五丁目,キタインターコウギョウダンチ 5,KITAINTAKOGYODANCHI 5,,40.554098,141.429778
北インター工業団地六丁目,キタインターコウギョウダンチ 6,KITAINTAKOGYODANCHI 6,,40.552315,141.433967
北白山台一丁目,キタハクサンダイ 1,KITAHAKUSANDAI 1,,40.492472,141.46626
北白山台二丁目,キタハクサンダイ 2,KITAHAKUSANDAI 2,,40.493691,141.46135
北白山台三丁目,キタハクサンダイ 3,KITAHAKUSANDAI 3,,40.48872,141.465361
北白山台四丁目,キタハクサンダイ 4,KITAHAKUSANDAI 4,,40.490058,141.461899
北白山台五丁目,キタハクサンダイ 5,KITAHAKUSANDAI 5,,40.484967,141.462847
北白山台六丁目,キタハクサンダイ 6,KITAHAKUSANDAI 6,,40.485191,141.458727
江陽一丁目,コウヨウ 1,KOYO 1,,40.519124,141.502739
江陽二丁目,コウヨウ 2,KOYO 2,,40.522241,141.502438
江陽三丁目,コウヨウ 3,KOYO 3,,40.528463,141.506054
江陽四丁目,コウヨウ 4,KOYO 4,,40.527566,141.514818
江陽五丁目,コウヨウ 5,KOYO 5,,40.52243,141.509757
小中野一丁目,コナカノ 1,KONAKANO 1,,40.518078,141.507042
小中野二丁目,コナカノ 2,KONAKANO 2,,40.515387,141.508787
小中野三丁目,コナカノ 3,KONAKANO 3,,40.516681,141.512394
小中野四丁目,コナカノ 4,KONAKANO 4,,40.519534,141.510162
小中野五丁目,コナカノ 5,KONAKANO 5,,40.521559,141.514836
小中野六丁目,コナカノ 6,KONAKANO 6,,40.518318,141.51706
小中野七丁目,コナカノ 7,KONAKANO 7,,40.520252,141.520547
小中野八丁目,コナカノ 8,KONAKANO 8,,40.524403,141.518911
是川一丁目,コレカワ 1,KOREKAWA 1,,40.466065,141.499431
是川二丁目,コレカワ 2,KOREKAWA 2,,40.467446,141.496319
是川三丁目,コレカワ 3,KOREKAWA 3,,40.470154,141.499121
是川四丁目,コレカワ 4,KOREKAWA 4,,40.468869,141.501888
是川五丁目,コレカワ 5,KOREKAWA 5,,40.466631,141.502981
桜ケ丘一丁目,サクラガオカ 1,SAKURAGAOKA 1,,40.49999,141.542479
桜ケ丘二丁目,サクラガオカ 2,SAKURAGAOKA 2,,40.495882,141.546146
桜ケ丘三丁目,サクラガオカ 3,SAKURAGAOKA 3,,40.496561,141.5481
桜ケ丘四丁目,サクラガオカ 4,SAKURAGAOKA 4,,40.496884,141.551741
下長一丁目,シモナガ 1,SHIMONAGA 1,,40.529073,141.469484
下長二丁目,シモナガ 2,SHIMONAGA 2,,40.532816,141.475188
下長六丁目,シモナガ 6,SHIMONAGA 6,,40.534705,141.482623
下長七丁目,シモナガ 7,SHIMONAGA 7,,40.534152,141.486265
下長八丁目,シモナガ 8,SHIMONAGA 8,,40.536417,141.485904
白銀一丁目,シロガネ 1,SHIROGANE 1,,40.522835,141.541258
白銀二丁目,シロガネ 2,SHIROGANE 2,,40.523387,141.544615
白銀三丁目,シロガネ 3,SHIROGANE 3,,40.521337,141.545147
白銀四丁目,シロガネ 4,SHIROGANE 4,,40.52257,141.548658
白銀五丁目,シロガネ 5,SHIROGANE 5,,40.524405,141.549587
白銀台一丁目,シロガネダイ 1,SHIROGANEDAI 1,,40.515537,141.554637
白銀台二丁目,シロガネダイ 2,SHIROGANEDAI 2,,40.51604,141.557694
白銀台三丁目,シロガネダイ 3,SHIROGANEDAI 3,,40.513958,141.558458
白銀台四丁目,シロガネダイ 4,SHIROGANEDAI 4,,40.515101,141.561216
白銀台五丁目,シロガネダイ 5,SHIROGANEDAI 5,,40.516801,141.560582
白銀台六丁目,シロガネダイ 6,SHIROGANEDAI 6,,40.515917,141.562931
白銀台七丁目,シロガネダイ 7,SHIROGANEDAI 7,,40.513848,141.562224
城下一丁目,シロシタ 1,SHIROSHITA 1,,40.517563,141.493183
城下二丁目,シロシタ 2,SHIROSHITA 2,,40.519081,141.48382
城下三丁目,シロシタ 3,SHIROSHITA 3,,40.521528,141.484834
城下四丁目,シロシタ 4,SHIROSHITA 4,,40.520697,141.493797
新湊一丁目,シンミナト 1,SHIMMINATO 1,,40.527716,141.525035
新湊二丁目,シンミナト 2,SHIMMINATO 2,,40.525703,141.528603
新湊三丁目,シンミナト 3,SHIMMINATO 3,,40.528891,141.526084
諏訪一丁目,スワ 1,SUWA 1,,40.517029,141.519496
諏訪二丁目,スワ 2,SUWA 2,,40.511864,141.517646
諏訪三丁目,スワ 3,SUWA 3,,40.509353,141.515336
高州一丁目,タカス 1,TAKASU 1,,40.537664,141.480597
多賀台一丁目,タガダイ 1,TAGADAI 1,,40.583834,141.441062
多賀台二丁目,タガダイ 2,TAGADAI 2,,40.585516,141.440265
多賀台三丁目,タガダイ 3,TAGADAI 3,,40.587715,141.441681
多賀台四丁目,タガダイ 4,TAGADAI 4,,40.588989,141.441297
築港街一丁目,チッコウガイ 1,CHIKKOGAI 1,,40.526071,141.542588
築港街二丁目,チッコウガイ 2,CHIKKOGAI 2,,40.527887,141.546618
築港街第一ふ頭,,,,40.529392,141.544348
長者一丁目,チョウジャ 1,CHOJA 1,,40.502999,141.490415
長者二丁目,チョウジャ 2,CHOJA 2,,40.499154,141.491233
長者三丁目,チョウジャ 3,CHOJA 3,,40.500951,141.485029
長者四丁目,チョウジャ 4,CHOJA 4,,40.498935,141.483303
豊洲,トヨス,TOYOSU,,40.537111,141.513555
長苗代一丁目,ナガナワシロ 1,NAGANAWASHIRO 1,,40.519587,141.469109
長苗代二丁目,ナガナワシロ 2,NAGANAWASHIRO 2,,40.524674,141.468833
長苗代三丁目,ナガナワシロ 3,NAGANAWASHIRO 3,,40.52285,141.473863
長苗代四丁目,ナガナワシロ 4,NAGANAWASHIRO 4,,40.520295,141.47356
長根一丁目,ナガネ 1,NAGANE 1,,40.511332,141.47938
長根二丁目,ナガネ 2,NAGANE 2,,40.514304,141.476152
南郷大字泥障作,,,,40.42681,141.451682
南郷大字泉清水,,,,40.37518,141.39068
南郷大字市野沢,,,,40.401711,141.445821
南郷大字大森,,,,40.379951,141.425959
南郷大字頃巻沢,,,,40.434192,141.473165
南郷大字島守,,,,40.394751,141.495641
南郷大字中野,,,,40.403681,141.410179
新井田西一丁目,ニイダニシ 1,NIIDANISHI 1,,40.504213,141.520155
新井田西二丁目,ニイダニシ 2,NIIDANISHI 2,,40.500901,141.520182
新井田西三丁目,ニイダニシ 3,NIIDANISHI 3,,40.497284,141.516589
新井田西四丁目,ニイダニシ 4,NIIDANISHI 4,,40.500129,141.51555
西白山台一丁目,ニシハクサンダイ 1,NISHIHAKUSANDAI 1,,40.482253,141.454038
西白山台二丁目,ニシハクサンダイ 2,NISHIHAKUSANDAI 2,,40.481661,141.449937
西白山台三丁目,ニシハクサンダイ 3,NISHIHAKUSANDAI 3,,40.479313,141.457507
西白山台四丁目,ニシハクサンダイ 4,NISHIHAKUSANDAI 4,,40.477479,141.454886
西白山台五丁目,ニシハクサンダイ 5,NISHIHAKUSANDAI 5,,40.473832,141.458578
西白山台六丁目,ニシハクサンダイ 6,NISHIHAKUSANDAI 6,,40.476076,141.452349
沼館一丁目,ヌマダテ 1,NUMADATE 1,,40.524376,141.494512
沼館二丁目,ヌマダテ 2,NUMADATE 2,,40.526045,141.486907
沼館三丁目,ヌマダテ 3,NUMADATE 3,,40.530851,141.489674
沼館四丁目,ヌマダテ 4,NUMADATE 4,,40.529141,141.497283
根城一丁目,ネジョウ 1,NEJO 1,,40.504449,141.480164
根城二丁目,ネジョウ 2,NEJO 2,,40.500634,141.479576
根城三丁目,ネジョウ 3,NEJO 3,,40.504128,141.475305
根城四丁目,ネジョウ 4,NEJO 4,,40.506615,141.47582
根城五丁目,ネジョウ 5,NEJO 5,,40.507045,141.469001
根城六丁目,ネジョウ 6,NEJO 6,,40.504324,141.469333
根城七丁目,ネジョウ 7,NEJO 7,,40.501567,141.467757
根城八丁目,ネジョウ 8,NEJO 8,,40.505332,141.463674
根城九丁目,ネジョウ 9,NEJO 9,,40.510166,141.467433
八太郎一丁目,ハッタロウ 1,HATTARO 1,,40.537777,141.492251
八太郎二丁目,ハッタロウ 2,HATTARO 2,,40.538063,141.489404
八太郎五丁目,ハッタロウ 5,HATTARO 5,,40.542213,141.493829
八太郎六丁目,ハッタロウ 6,HATTARO 6,,40.542103,141.498681
東白山台一丁目,ヒガシハクサンダイ 1,HIGASHIHAKUSANDAI 1,,40.488818,141.468962
東白山台二丁目,ヒガシハクサンダイ 2,HIGASHIHAKUSANDAI 2,,40.486521,141.472167
東白山台三丁目,ヒガシハクサンダイ 3,HIGASHIHAKUSANDAI 3,,40.484073,141.464663
東白山台四丁目,ヒガシハクサンダイ 4,HIGASHIHAKUSANDAI 4,,40.480529,141.470417
吹上一丁目,フキアゲ 1,FUKIAGE 1,,40.505183,141.497324
吹上二丁目,フキアゲ 2,FUKIAGE 2,,40.500064,141.499993
吹上三丁目,フキアゲ 3,FUKIAGE 3,,40.50115,141.495133
吹上四丁目,フキアゲ 4,FUKIAGE 4,,40.497364,141.494355
吹上五丁目,フキアゲ 5,FUKIAGE 5,,40.496852,141.499725
吹上六丁目,フキアゲ 6,FUKIAGE 6,,40.494857,141.495556
松ケ丘,マツガオカ,MATSUGAOKA,,40.552432,141.448722
岬台一丁目,ミサキダイ 1,MISAKIDAI 1,,40.517285,141.564063
岬台二丁目,ミサキダイ 2,MISAKIDAI 2,,40.516694,141.567015
岬台三丁目,ミサキダイ 3,MISAKIDAI 3,,40.516628,141.56943
岬台四丁目,ミサキダイ 4,MISAKIDAI 4,,40.519032,141.565116
湊高台一丁目,ミナトタカダイ 1,MINATOTAKADAI 1,,40.507047,141.5337
湊高台二丁目,ミナトタカダイ 2,MINATOTAKADAI 2,,40.504302,141.538829
湊高台三丁目,ミナトタカダイ 3,MINATOTAKADAI 3,,40.506661,141.544157
湊高台四丁目,ミナトタカダイ 4,MINATOTAKADAI 4,,40.508249,141.539895
湊高台五丁目,ミナトタカダイ 5,MINATOTAKADAI 5,,40.50981,141.535715
湊高台六丁目,ミナトタカダイ 6,MINATOTAKADAI 6,,40.511575,141.538344
湊高台七丁目,ミナトタカダイ 7,MINATOTAKADAI 7,,40.507028,141.54806
湊高台八丁目,ミナトタカダイ 8,MINATOTAKADAI 8,,40.502509,141.546514
南白山台一丁目,ミナミハクサンダイ 1,MINAMIHAKUSANDAI 1,,40.477987,141.463947
南白山台二丁目,ミナミハクサンダイ 2,MINAMIHAKUSANDAI 2,,40.479229,141.460909
南白山台三丁目,ミナミハクサンダイ 3,MINAMIHAKUSANDAI 3,,40.474339,141.464888
南類家一丁目,ミナミルイケ 1,MINAMIRUIKE 1,,40.503756,141.504564
南類家二丁目,ミナミルイケ 2,MINAMIRUIKE 2,,40.501112,141.506529
南類家三丁目,ミナミルイケ 3,MINAMIRUIKE 3,,40.503065,141.50977
南類家四丁目,ミナミルイケ 4,MINAMIRUIKE 4,,40.500374,141.510984
南類家五丁目,ミナミルイケ 5,MINAMIRUIKE 5,,40.499161,141.509463
類家一丁目,ルイケ 1,RUIKE 1,,40.508948,141.499877
類家二丁目,ルイケ 2,RUIKE 2,,40.504633,141.500986
類家三丁目,ルイケ 3,RUIKE 3,,40.508455,141.503988
類家四丁目,ルイケ 4,RUIKE 4,,40.506621,141.508043
類家五丁目,ルイケ 5,RUIKE 5,,40.505183,141.513979
八太郎三丁目,ハッタロウ 3,HATTARO 3,,40.540532,141.488991
八太郎四丁目,ハッタロウ 4,HATTARO 4,,40.541492,141.486865
高州二丁目,タカス 2,TAKASU 2,,40.538762,141.483554
日計五丁目,ヒバカリ 5,HIBAKARI 5,,40.5418,141.483745
下長五丁目,シモナガ 5,SHIMONAGA 5,,40.5377,141.478595
日計四丁目,ヒバカリ 4,HIBAKARI 4,,40.541627,141.48042
日計三丁目,ヒバカリ 3,HIBAKARI 3,,40.54309,141.47655
日計二丁目,ヒバカリ 2,HIBAKARI 2,,40.54211,141.472918
下長四丁目,シモナガ 4,SHIMONAGA 4,,40.536563,141.476813
下長三丁目,シモナガ 3,SHIMONAGA 3,,40.537443,141.471737
小田二丁目,コダ 2,KODA 2,,40.538602,141.467057
日計一丁目,ヒバカリ 1,HIBAKARI 1,,40.540783,141.476162
小田一丁目,コダ 1,KODA 1,,40.539906,141.470573
長根四丁目,ナガネ 4,NAGANE 4,,40.51746,141.479986
長根三丁目,ナガネ 3,NAGANE 3,,40.515776,141.478947
田向一丁目,タムカイ 1,TAMUKAI 1,,40.4976,141.507422
田向二丁目,タムカイ 2,TAMUKAI 2,,40.495176,141.509413
田向三丁目,タムカイ 3,TAMUKAI 3,,40.493101,141.511606
田向四丁目,タムカイ 4,TAMUKAI 4,,40.489803,141.507986
田向五丁目,タムカイ 5,TAMUKAI 5,,40.489433,141.513102
