name,name_kana,name_romaji,nickname,latitude,longitude
大字泉山,,,,40.385128,141.292375
大字梅内,,,,40.366095,141.273918
大字貝守,,,,40.391156,141.110684
大字川守田,,,,40.387603,141.24194
大字川守田町,,,,40.386225,141.262149
大字久慈町,,,,40.387931,141.264705
大字在府小路町,,,,40.379983,141.259794
大字蛇沼,,,,40.403887,141.17682
大字同心町,,,,40.37318,141.248112
大字斗内,,,,40.344011,141.206209
大字豊川,,,,40.360399,141.2356
大字袴田,,,,40.388612,141.20892
大字馬喰町,,,,40.376418,141.255849
大字二日町,,,,40.380224,141.25834
大字六日町,,,,40.38436,141.259536
大字目時,,,,40.353146,141.277495
大字八日町,,,,40.377214,141.255152
