name,name_kana,name_romaji,nickname,latitude,longitude
大字藍内,,,,40.534219,140.371043
大字青樹町,,,,40.580138,140.438951
大字青女子,,,,40.686575,140.447138
大字青山一丁目, 1, 1,,40.619194,140.482472
大字青山二丁目, 2, 2,,40.62243,140.482918
大字青山三丁目, 3, 3,,40.622794,140.479093
大字青山四丁目, 4, 4,,40.625637,140.483436
大字青山五丁目, 5, 5,,40.625941,140.479582
大字茜町一丁目, 1, 1,,40.600633,140.449221
大字茜町二丁目, 2, 2,,40.599482,140.447689
大字茜町三丁目, 3, 3,,40.599364,140.444227
大字悪戸,,,,40.573534,140.4233
大字旭ケ丘一丁目, 1, 1,,40.584406,140.462264
大字旭ケ丘二丁目, 2, 2,,40.580005,140.458904
大字愛宕,,,,40.627813,140.40647
大字新町,,,,40.606339,140.45665
大字石川,,,,40.546298,140.534742
大字石渡,,,,40.634744,140.44875
大字石渡一丁目, 1, 1,,40.628838,140.451411
大字石渡二丁目, 2, 2,,40.627761,140.455289
大字石渡三丁目, 3, 3,,40.62774,140.458406
大字石渡四丁目, 4, 4,,40.630512,140.457787
大字石渡五丁目, 5, 5,,40.630156,140.453542
大字泉野一丁目, 1, 1,,40.5758,140.491949
大字泉野二丁目, 2, 2,,40.573207,140.491777
大字泉野三丁目, 3, 3,,40.57493,140.494913
大字泉野四丁目, 4, 4,,40.576033,140.497548
大字泉野五丁目, 5, 5,,40.572258,140.494816
大字一野渡,,,,40.514191,140.455063
大字一番町,,,,40.60318,140.470478
大字一町田,,,,40.609382,140.430263
大字稲田一丁目, 1, 1,,40.602757,140.486699
大字稲田二丁目, 2, 2,,40.603696,140.488878
大字岩賀一丁目, 1, 1,,40.643421,140.480403
大字岩賀二丁目, 2, 2,,40.644384,140.476236
大字岩賀三丁目, 3, 3,,40.64299,140.475377
大字植田町,,,,40.603268,140.47838
大字駅前一丁目, 1, 1,,40.601438,140.484061
大字駅前二丁目, 2, 2,,40.601738,140.481029
大字駅前三丁目, 3, 3,,40.598769,140.479191
大字駅前町,,,,40.598229,140.482069
大字狼森,,,,40.55924,140.471577
大字扇町一丁目, 1, 1,,40.587206,140.505204
大字扇町二丁目, 2, 2,,40.58706,140.501854
大字扇町三丁目, 3, 3,,40.586024,140.4997
大字大浦町,,,,40.610272,140.469189
大字大川,,,,40.671776,140.457384
大字大久保,,,,40.631684,140.494369
大字大沢,,,,40.542855,140.510783
大字大清水,,,,40.577902,140.496609
大字大清水一丁目, 1, 1,,40.58271,140.493792
大字大清水二丁目, 2, 2,,40.580587,140.496726
大字大清水三丁目, 3, 3,,40.580651,140.49402
大字大清水四丁目, 4, 4,,40.578403,140.492349
大字大助,,,,40.569697,140.34416
大字大富町,,,,40.589318,140.479611
大字大原一丁目, 1, 1,,40.578473,140.454847
大字大原二丁目, 2, 2,,40.577151,140.450167
大字大原三丁目, 3, 3,,40.57264,140.446939
大字大開一丁目, 1, 1,,40.578224,140.448265
大字大開二丁目, 2, 2,,40.57534,140.446009
大字大開三丁目, 3, 3,,40.578829,140.445919
大字大開四丁目, 4, 4,,40.580306,140.444848
大字大町一丁目, 1, 1,,40.596367,140.483661
大字大町二丁目, 2, 2,,40.595151,140.481066
大字大町三丁目, 3, 3,,40.596887,140.479547
大字大森,,,,40.712243,140.366028
大字大和沢,,,,40.537195,140.471041
大字徒町,,,,40.603057,140.473044
大字徒町川端町,,,,40.604732,140.474047
大字桶屋町,,,,40.598923,140.469286
大字小友,,,,40.714666,140.413985
大字鬼沢,,,,40.687613,140.390823
大字表町,,,,40.597621,140.485691
大字親方町,,,,40.602454,140.469709
大字折笠,,,,40.64557,140.4024
大字貝沢,,,,40.701748,140.376667
大字学園町,,,,40.577956,140.482845
大字覚仙町,,,,40.600551,140.462305
大字鍛冶町,,,,40.601158,140.470159
大字春日町,,,,40.614763,140.467144
大字堅田,,,,40.629776,140.488065
大字堅田一丁目, 1, 1,,40.614037,140.489087
大字堅田二丁目, 2, 2,,40.616696,140.491109
大字堅田三丁目, 3, 3,,40.61056,140.489142
大字堅田四丁目, 4, 4,,40.614425,140.491997
大字堅田五丁目, 5, 5,,40.614251,140.493873
大字門外,,,,40.585227,140.511871
大字門外一丁目, 1, 1,,40.581787,140.499951
大字門外二丁目, 2, 2,,40.580644,140.505877
大字門外三丁目, 3, 3,,40.579746,140.512725
大字門外四丁目, 4, 4,,40.576899,140.503777
大字兼平,,,,40.603402,140.40283
大字上瓦ケ町,,,,40.599969,140.476645
大字上鞘師町,,,,40.604796,140.471061
大字上白銀町,,,,40.603441,140.461805
大字紙漉沢,,,,40.583795,140.380123
大字紙漉町,,,,40.594891,140.470553
大字亀甲町,,,,40.611755,140.470569
大字萱町,,,,40.604132,140.477605
大字川合,,,,40.57937,140.521555
大字川先一丁目, 1, 1,,40.589682,140.493298
大字川先二丁目, 2, 2,,40.587274,140.494211
大字川先三丁目, 3, 3,,40.586438,140.49143
大字川先四丁目, 4, 4,,40.590749,140.489948
大字河原町,,,,40.608054,140.450535
大字寒沢町,,,,40.590437,140.467358
大字神田一丁目, 1, 1,,40.618251,140.488804
大字神田二丁目, 2, 2,,40.619378,140.486244
大字神田三丁目, 3, 3,,40.624182,140.486273
大字神田四丁目, 4, 4,,40.623888,140.4891
大字神田五丁目, 5, 5,,40.622941,140.491738
大字桔梗野一丁目, 1, 1,,40.591632,140.465675
大字桔梗野二丁目, 2, 2,,40.592344,140.462376
大字桔梗野三丁目, 3, 3,,40.590031,140.461689
大字桔梗野四丁目, 4, 4,,40.587932,140.462285
大字桔梗野五丁目, 5, 5,,40.587578,140.465174
大字北川端町,,,,40.600006,140.471981
大字北瓦ケ町,,,,40.601537,140.476722
大字北新寺町,,,,40.597567,140.466415
大字北園一丁目, 1, 1,,40.581393,140.479857
大字北園二丁目, 2, 2,,40.582108,140.482359
大字北柳町,,,,40.604094,140.475614
大字北横町,,,,40.608186,140.478113
大字清富町,,,,40.585192,140.464885
大字清原一丁目, 1, 1,,40.581597,140.486003
大字清原二丁目, 2, 2,,40.579111,140.486101
大字清原三丁目, 3, 3,,40.580074,140.488952
大字清原四丁目, 4, 4,,40.57945,140.490447
大字金属町,,,,40.579989,140.44185
大字葛原,,,,40.628532,140.374073
大字国吉,,,,40.596258,140.35118
大字熊嶋,,,,40.615873,140.440606
大字蔵主町,,,,40.60916,140.470215
大字黒滝,,,,40.579362,140.402117
大字黒土,,,,40.59552,140.338317
大字楮町,,,,40.593688,140.482451
大字高野,,,,40.586916,140.359445
大字小金崎,,,,40.542552,140.549801
大字小金崎一丁目, 1, 1,,40.543399,140.553305
大字小栗山,,,,40.544327,140.485381
大字小沢,,,,40.558766,140.440057
大字五十石町,,,,40.609268,140.460765
大字五所,,,,40.580701,140.396098
大字五代,,,,40.610324,140.414047
大字小人町,,,,40.613067,140.471884
大字駒越,,,,40.606805,140.440924
大字駒越町,,,,40.60795,140.452928
大字紺屋町,,,,40.612824,140.461795
大字在府町,,,,40.598339,140.462332
大字境関,,,,40.616821,140.503921
大字境関一丁目, 1, 1,,40.611626,140.50527
大字坂市,,,,40.572778,140.365356
大字栄町一丁目, 1, 1,,40.614953,140.464343
大字栄町二丁目, 2, 2,,40.616348,140.46575
大字栄町三丁目, 3, 3,,40.617988,140.470041
大字栄町四丁目, 4, 4,,40.618453,140.467628
大字坂元,,,,40.541081,140.425912
大字坂本町,,,,40.602973,140.476212
大字相良町,,,,40.599717,140.466234
大字桜ケ丘一丁目, 1, 1,,40.576433,140.451352
大字桜ケ丘二丁目, 2, 2,,40.572826,140.448962
大字桜ケ丘三丁目, 3, 3,,40.572474,140.451292
大字桜ケ丘四丁目, 4, 4,,40.576198,140.453251
大字桜ケ丘五丁目, 5, 5,,40.575567,140.455017
大字桜庭,,,,40.591894,140.331894
大字桜林町,,,,40.593576,140.468948
大字笹舘,,,,40.737964,140.389733
大字笹森町,,,,40.608863,140.472649
大字沢田,,,,40.563371,140.32646
大字三世寺,,,,40.66052,140.455014
大字山王町,,,,40.609567,140.475191
大字小比内,,,,40.584314,140.502864
大字小比内一丁目, 1, 1,,40.592055,140.495179
大字小比内二丁目, 2, 2,,40.591846,140.498048
大字小比内三丁目, 3, 3,,40.587638,140.498216
大字小比内四丁目, 4, 4,,40.588307,140.495799
大字小比内五丁目, 5, 5,,40.584297,140.496574
大字塩分町,,,,40.602433,140.463197
大字茂森新町一丁目, 1, 1,,40.595754,140.456478
大字茂森新町二丁目, 2, 2,,40.596444,140.455068
大字茂森新町三丁目, 3, 3,,40.595804,140.450088
大字茂森新町四丁目, 4, 4,,40.592518,140.450808
大字茂森町,,,,40.599742,140.460253
大字品川町,,,,40.593798,140.478289
大字清水一丁目, 1, 1,,40.58597,140.455388
大字清水二丁目, 2, 2,,40.58307,140.455115
大字清水三丁目, 3, 3,,40.581021,140.453491
大字清水富田,,,,40.588596,140.441524
大字清水森,,,,40.566978,140.501604
大字下鞘師町,,,,40.605493,140.47096
大字下白銀町,,,,40.6074,140.465241
大字下湯口,,,,40.579989,140.417715
大字自由ケ丘一丁目, 1, 1,,40.582494,140.446838
大字自由ケ丘二丁目, 2, 2,,40.58419,140.445227
大字自由ケ丘三丁目, 3, 3,,40.584757,140.441966
大字自由ケ丘四丁目, 4, 4,,40.588154,140.448611
大字自由ケ丘五丁目, 5, 5,,40.581742,140.436982
大字樹木一丁目, 1, 1,,40.59188,140.45811
大字樹木二丁目, 2, 2,,40.592449,140.454261
大字樹木三丁目, 3, 3,,40.589451,140.452761
大字樹木四丁目, 4, 4,,40.58852,140.456369
大字樹木五丁目, 5, 5,,40.588608,140.459583
大字城西一丁目, 1, 1,,40.605512,140.452441
大字城西二丁目, 2, 2,,40.606458,140.449786
大字城西三丁目, 3, 3,,40.603737,140.448241
大字城西四丁目, 4, 4,,40.603474,140.450399
大字城西五丁目, 5, 5,,40.603564,140.454227
大字城東一丁目, 1, 1,,40.597573,140.488109
大字城東二丁目, 2, 2,,40.597905,140.490941
大字城東三丁目, 3, 3,,40.595769,140.48952
大字城東四丁目, 4, 4,,40.594512,140.489956
大字城東五丁目, 5, 5,,40.592167,140.491188
大字城東北一丁目, 1, 1,,40.604204,140.491343
大字城東北二丁目, 2, 2,,40.605112,140.493182
大字城東北三丁目, 3, 3,,40.606136,140.495561
大字城東北四丁目, 4, 4,,40.606824,140.498148
大字城東中央一丁目, 1, 1,,40.600134,140.488206
大字城東中央二丁目, 2, 2,,40.600652,140.490182
大字城東中央三丁目, 3, 3,,40.601147,140.492923
大字城東中央四丁目, 4, 4,,40.601577,140.496145
大字城東中央五丁目, 5, 5,,40.601874,140.498842
大字城南一丁目, 1, 1,,40.579469,140.470567
大字城南二丁目, 2, 2,,40.580554,140.46748
大字城南三丁目, 3, 3,,40.578132,140.468448
大字城南四丁目, 4, 4,,40.578457,140.466031
大字城南五丁目, 5, 5,,40.579096,140.463175
大字新鍛冶町,,,,40.600466,140.47103
大字新寺町,,,,40.595486,140.463844
大字新寺町新割町,,,,40.5968,140.46386
大字新法師,,,,40.613497,140.370666
大字末広一丁目, 1, 1,,40.607058,140.500543
大字末広二丁目, 2, 2,,40.602471,140.501357
大字末広三丁目, 3, 3,,40.602617,140.503839
大字末広四丁目, 4, 4,,40.606313,140.503283
大字末広五丁目, 5, 5,,40.609755,140.503723
大字昴,,,,40.587884,140.40816
大字住吉町,,,,40.597758,140.473682
大字清野袋,,,,40.636904,140.485082
大字清野袋一丁目, 1, 1,,40.630442,140.477982
大字清野袋二丁目, 2, 2,,40.631191,140.474189
大字清野袋三丁目, 3, 3,,40.635134,140.478251
大字清野袋四丁目, 4, 4,,40.636173,140.473949
大字清野袋五丁目, 5, 5,,40.639387,140.480287
大字相馬,,,,40.552804,140.363645
大字代官町,,,,40.601489,140.47873
大字高岡,,,,40.625712,140.354997
大字高崎一丁目, 1, 1,,40.606554,140.490341
大字高崎二丁目, 2, 2,,40.608089,140.493583
大字鷹匠町,,,,40.605559,140.458062
大字高杉,,,,40.670898,140.429903
大字高田,,,,40.595023,140.509661
大字高田一丁目, 1, 1,,40.598621,140.500602
大字高田二丁目, 2, 2,,40.598827,140.503958
大字高田三丁目, 3, 3,,40.599004,140.506321
大字高田四丁目, 4, 4,,40.599219,140.508384
大字高田五丁目, 5, 5,,40.595607,140.506515
大字高屋,,,,40.619261,140.427497
大字田代町,,,,40.602064,140.474297
大字龍ノ口,,,,40.598231,140.423348
大字館後,,,,40.601061,140.348409
大字館野一丁目, 1, 1,,40.575804,140.464257
大字館野二丁目, 2, 2,,40.576241,140.46104
大字種市,,,,40.707044,140.430737
大字田町一丁目, 1, 1,,40.611296,140.480563
大字田町二丁目, 2, 2,,40.611866,140.478504
大字田町三丁目, 3, 3,,40.613775,140.478433
大字田町四丁目, 4, 4,,40.613937,140.480507
大字田町五丁目, 5, 5,,40.613549,140.482528
大字田茂木町,,,,40.610988,140.476663
大字俵元一丁目, 1, 1,,40.606683,140.48505
大字俵元二丁目, 2, 2,,40.608436,140.487277
大字千年一丁目, 1, 1,,40.568213,140.4777
大字千年二丁目, 2, 2,,40.564126,140.476199
大字千年三丁目, 3, 3,,40.564999,140.479869
大字千年四丁目, 4, 4,,40.562474,140.476799
大字茶畑町,,,,40.60722,140.481141
大字津賀野,,,,40.642494,140.488459
大字土堂,,,,40.62386,140.443653
大字鉄砲町,,,,40.603863,140.470842
大字田園一丁目, 1, 1,,40.607241,140.50517
大字田園二丁目, 2, 2,,40.602731,140.505841
大字田園三丁目, 3, 3,,40.602785,140.508139
大字田園四丁目, 4, 4,,40.606095,140.507561
大字田園五丁目, 5, 5,,40.609108,140.505944
大字藤内町,,,,40.634918,140.455283
大字銅屋町,,,,40.596724,140.469354
大字常盤坂一丁目, 1, 1,,40.592933,140.444727
大字常盤坂二丁目, 2, 2,,40.59568,140.44582
大字常盤坂三丁目, 3, 3,,40.595786,140.441721
大字常盤坂四丁目, 4, 4,,40.592024,140.440596
大字常盤野,,,,40.632251,140.249074
大字徳田町,,,,40.60416,140.474707
大字十腰内,,,,40.72778,140.308954
大字独狐,,,,40.645559,140.44588
大字十面沢,,,,40.726123,140.352139
大字土手町,,,,40.599234,140.474855
大字外崎一丁目, 1, 1,,40.598242,140.493506
大字外崎二丁目, 2, 2,,40.598539,140.496427
大字外崎三丁目, 3, 3,,40.59817,140.49851
大字外崎四丁目, 4, 4,,40.596452,140.495151
大字外崎五丁目, 5, 5,,40.594964,140.495368
大字外瀬一丁目, 1, 1,,40.625365,140.46557
大字外瀬二丁目, 2, 2,,40.627299,140.465839
大字富栄,,,,40.643848,140.425699
大字富田一丁目, 1, 1,,40.596294,140.474609
大字富田二丁目, 2, 2,,40.594225,140.473376
大字富田三丁目, 3, 3,,40.592077,140.474421
大字富田町,,,,40.587352,140.478618
大字富野町,,,,40.588683,140.475923
大字豊田一丁目, 1, 1,,40.594255,140.497284
大字豊田二丁目, 2, 2,,40.591832,140.502821
大字豊田三丁目, 3, 3,,40.595259,140.502101
大字豊原一丁目, 1, 1,,40.583402,140.477416
大字豊原二丁目, 2, 2,,40.580989,140.477145
大字取上一丁目, 1, 1,,40.589068,140.486344
大字取上二丁目, 2, 2,,40.586517,140.483877
大字取上三丁目, 3, 3,,40.584623,140.484782
大字取上四丁目, 4, 4,,40.586269,140.488306
大字取上五丁目, 5, 5,,40.583665,140.488313
大字鳥井野,,,,40.597431,140.414605
大字撫牛子,,,,40.625545,140.501047
大字撫牛子一丁目, 1, 1,,40.620537,140.496037
大字撫牛子二丁目, 2, 2,,40.622534,140.493903
大字撫牛子三丁目, 3, 3,,40.623875,140.497191
大字撫牛子四丁目, 4, 4,,40.628537,140.498294
大字撫牛子五丁目, 5, 5,,40.620939,140.499672
大字中瓦ケ町,,,,40.600905,140.475807
大字長坂町,,,,40.609155,140.471572
大字中崎,,,,40.649696,140.460776
大字中野,,,,40.592117,140.321307
大字中野一丁目, 1, 1,,40.583815,140.472537
大字中野二丁目, 2, 2,,40.581417,140.473359
大字中野三丁目, 3, 3,,40.578612,140.474197
大字中野四丁目, 4, 4,,40.575532,140.476833
大字中野五丁目, 5, 5,,40.574166,140.474732
大字中畑,,,,40.593055,140.313152
大字中別所,,,,40.658164,140.391312
大字楢木,,,,40.68551,140.42632
大字南塘町,,,,40.597944,140.467424
大字新岡,,,,40.638266,140.382642
大字新里,,,,40.594916,140.519261
大字西ケ丘町,,,,40.586981,140.468239
大字西川岸町,,,,40.601485,140.474046
大字西茂森一丁目, 1, 1,,40.599632,140.454884
大字西茂森二丁目, 2, 2,,40.597472,140.454381
大字西城北一丁目, 1, 1,,40.615235,140.470364
大字西城北二丁目, 2, 2,,40.618214,140.471695
大字西大工町,,,,40.608721,140.455348
大字乳井,,,,40.54896,140.569235
大字如来瀬,,,,40.59559,140.385598
大字糠坪,,,,40.679446,140.435647
大字祢宜町,,,,40.612095,140.476214
大字野田一丁目, 1, 1,,40.608171,140.481163
大字野田二丁目, 2, 2,,40.608242,140.479406
大字馬喰町,,,,40.613545,140.468534
大字八幡町一丁目, 1, 1,,40.616369,140.47904
大字八幡町二丁目, 2, 2,,40.616676,140.48132
大字八幡町三丁目, 3, 3,,40.616026,140.483867
大字鼻和,,,,40.63265,140.417988
大字浜の町北一丁目, 1, 1,,40.624466,140.46187
大字浜の町北二丁目, 2, 2,,40.627626,140.462334
大字浜の町西一丁目, 1, 1,,40.617321,140.458409
大字浜の町西二丁目, 2, 2,,40.619778,140.458126
大字浜の町西三丁目, 3, 3,,40.623124,140.456286
大字浜の町東一丁目, 1, 1,,40.618002,140.461739
大字浜の町東二丁目, 2, 2,,40.621579,140.460052
大字浜の町東三丁目, 3, 3,,40.624163,140.458272
大字浜の町東四丁目, 4, 4,,40.619486,140.46382
大字浜の町東五丁目, 5, 5,,40.622248,140.463714
大字原ケ平,,,,40.565815,140.463728
大字原ケ平一丁目, 1, 1,,40.568758,140.475119
大字原ケ平二丁目, 2, 2,,40.566246,140.47468
大字原ケ平三丁目, 3, 3,,40.564392,140.474043
大字原ケ平四丁目, 4, 4,,40.567419,140.471355
大字原ケ平五丁目, 5, 5,,40.565205,140.471337
大字番館,,,,40.574926,140.313155
大字東城北一丁目, 1, 1,,40.61414,140.473376
大字東城北二丁目, 2, 2,,40.616183,140.473669
大字東城北三丁目, 3, 3,,40.618223,140.473116
大字東長町,,,,40.606724,140.472968
大字東和徳町,,,,40.606533,140.483192
大字樋の口一丁目, 1, 1,,40.605516,140.445908
大字樋の口二丁目, 2, 2,,40.603433,140.445586
大字樋の口町,,,,40.6015,140.441883
大字百沢,,,,40.645339,140.361421
大字百石町,,,,40.604572,140.472537
大字百石町小路,,,,40.605734,140.472342
大字平岡町,,,,40.610076,140.454252
大字平山,,,,40.581495,140.33458
大字広野一丁目, 1, 1,,40.569122,140.486773
大字広野二丁目, 2, 2,,40.571312,140.488382
大字福田,,,,40.609388,140.510008
大字福田一丁目, 1, 1,,40.60982,140.507911
大字福田二丁目, 2, 2,,40.607433,140.507826
大字福田三丁目, 3, 3,,40.607491,140.509951
大字福村,,,,40.606561,140.520445
大字福村一丁目, 1, 1,,40.607078,140.512555
大字袋町,,,,40.609851,140.459226
大字藤沢,,,,40.568942,140.366601
大字藤代,,,,40.618024,140.450533
大字藤代一丁目, 1, 1,,40.613434,140.450557
大字藤代二丁目, 2, 2,,40.613483,140.452562
大字藤代三丁目, 3, 3,,40.618186,140.454159
大字藤代四丁目, 4, 4,,40.618201,140.455874
大字藤代五丁目, 5, 5,,40.620986,140.454861
大字藤野一丁目, 1, 1,,40.62199,140.46675
大字藤野二丁目, 2, 2,,40.625619,140.469142
大字富士見台一丁目, 1, 1,,40.572879,140.473379
大字富士見台二丁目, 2, 2,,40.568974,140.472729
大字富士見町,,,,40.591296,140.470437
大字船水,,,,40.636959,140.465935
大字船水一丁目, 1, 1,,40.629697,140.466184
大字船水二丁目, 2, 2,,40.630077,140.462698
大字船水三丁目, 3, 3,,40.633167,140.461616
大字文京町,,,,40.587623,140.472039
大字細越,,,,40.637492,140.405593
大字堀越,,,,40.569374,140.525362
大字本町,,,,40.600759,140.466413
大字前坂,,,,40.658234,140.440897
大字蒔苗,,,,40.632947,140.436537
大字町田,,,,40.645382,140.47048
大字町田一丁目, 1, 1,,40.635781,140.459136
大字町田二丁目, 2, 2,,40.636526,140.456713
大字町田三丁目, 3, 3,,40.639345,140.459378
大字松ケ枝一丁目, 1, 1,,40.603542,140.484969
大字松ケ枝二丁目, 2, 2,,40.604599,140.48455
大字松ケ枝三丁目, 3, 3,,40.604938,140.487573
大字松ケ枝四丁目, 4, 4,,40.606088,140.486491
大字松ケ枝五丁目, 5, 5,,40.607159,140.488643
大字松木平,,,,40.544721,140.494698
大字真土,,,,40.603368,140.433018
大字松原西一丁目, 1, 1,,40.571964,140.477903
大字松原西二丁目, 2, 2,,40.569537,140.479099
大字松原西三丁目, 3, 3,,40.567368,140.481914
大字松原東一丁目, 1, 1,,40.577143,140.478828
大字松原東二丁目, 2, 2,,40.574023,140.481143
大字松原東三丁目, 3, 3,,40.571072,140.481158
大字松原東四丁目, 4, 4,,40.569938,140.48288
大字松原東五丁目, 5, 5,,40.573066,140.485269
大字松森町,,,,40.59244,140.481003
大字馬屋町,,,,40.605741,140.460646
大字水木在家,,,,40.558753,140.389372
大字三岳町,,,,40.578749,140.477759
大字緑ケ丘一丁目, 1, 1,,40.585791,140.459068
大字緑ケ丘二丁目, 2, 2,,40.583221,140.458483
大字緑ケ丘三丁目, 3, 3,,40.580586,140.456563
大字緑町,,,,40.602221,140.476895
大字南大町一丁目, 1, 1,,40.592904,140.486006
大字南大町二丁目, 2, 2,,40.591842,140.48407
大字南川端町,,,,40.597595,140.470841
大字南瓦ケ町,,,,40.600453,140.475143
大字南城西一丁目, 1, 1,,40.602334,140.454188
大字南城西二丁目, 2, 2,,40.601119,140.454736
大字南富田町,,,,40.586238,140.479241
大字南袋町,,,,40.602403,140.458565
大字南柳町,,,,40.603209,140.475087
大字南横町,,,,40.604238,140.476494
大字稔町,,,,40.583038,140.467613
大字宮川一丁目, 1, 1,,40.611134,140.483502
大字宮川二丁目, 2, 2,,40.61316,140.484982
大字宮川三丁目, 3, 3,,40.615012,140.486358
大字宮地,,,,40.617355,140.393844
大字宮園一丁目, 1, 1,,40.613819,140.476296
大字宮園二丁目, 2, 2,,40.61592,140.476572
大字宮園三丁目, 3, 3,,40.617937,140.475876
大字宮園四丁目, 4, 4,,40.619495,140.478675
大字宮園五丁目, 5, 5,,40.619922,140.475078
大字宮舘,,,,40.650804,140.421103
大字御幸町,,,,40.592731,140.477179
大字三和,,,,40.727923,140.397311
大字向外瀬,,,,40.630184,140.482103
大字向外瀬一丁目, 1, 1,,40.620716,140.47184
大字向外瀬二丁目, 2, 2,,40.622791,140.474285
大字向外瀬三丁目, 3, 3,,40.622932,140.476716
大字向外瀬四丁目, 4, 4,,40.625555,140.474933
大字向外瀬五丁目, 5, 5,,40.626143,140.476737
大字元大工町,,,,40.601844,140.466716
大字元寺町,,,,40.605126,140.469772
大字元寺町小路,,,,40.606265,140.471319
大字元長町,,,,40.602134,140.467992
大字元薬師堂,,,,40.631968,140.444519
大字百田,,,,40.642428,140.494339
大字森町,,,,40.601507,140.462639
大字薬師堂,,,,40.552965,140.582338
大字八代町,,,,40.632606,140.455498
大字安原一丁目, 1, 1,,40.576862,140.488594
大字安原二丁目, 2, 2,,40.57657,140.485897
大字安原三丁目, 3, 3,,40.574609,140.48772
大字萢中,,,,40.624157,140.471126
大字山崎一丁目, 1, 1,,40.575144,140.47203
大字山崎二丁目, 2, 2,,40.575986,140.468465
大字山崎三丁目, 3, 3,,40.57383,140.465274
大字山崎四丁目, 4, 4,,40.574136,140.468668
大字山崎五丁目, 5, 5,,40.572661,140.46949
大字山下町,,,,40.602482,140.475116
大字山道町,,,,40.599207,140.473603
大字弥生,,,,40.659689,140.373225
大字八幡,,,,40.620786,140.413192
大字湯口,,,,40.581624,140.410668
大字横町,,,,40.624595,140.434885
大字吉川,,,,40.585494,140.345052
大字賀田,,,,40.617318,140.422222
大字賀田一丁目, 1, 1,,40.616712,140.418729
大字賀田二丁目, 2, 2,,40.614647,140.419393
大字吉野町,,,,40.597532,140.472286
大字米ケ袋,,,,40.579841,140.325636
大字和泉一丁目, 1, 1,,40.610136,140.49231
大字和泉二丁目, 2, 2,,40.611674,140.495486
大字若党町,,,,40.612904,140.467032
大字若葉一丁目, 1, 1,,40.585948,140.45169
大字若葉二丁目, 2, 2,,40.582554,140.450582
大字早稲田一丁目, 1, 1,,40.60526,140.511598
大字早稲田二丁目, 2, 2,,40.60281,140.511549
大字早稲田三丁目, 3, 3,,40.599421,140.511495
大字早稲田四丁目, 4, 4,,40.602392,140.515421
大字和田町,,,,40.612374,140.456613
大字和徳町,,,,40.608579,140.47664
大字清水森,,,清水野,40.566589,140.498425
大字松木平,,,松元,40.553748,140.496942
大字小栗山,,,長田,40.560368,140.494772
大字松木平,,,松山下,40.557235,140.498439
大字松木平,,,富永,40.55844,140.500276
大字清水森,,,沢田,40.560387,140.500383
大字門外,,,川面,40.576,140.499587
大字清水森,,,村元,40.572317,140.50292
大字清水森,,,沼田,40.568166,140.50407
大字小比内,,,狐森,40.584231,140.503376
大字清水森,,,堀川田,40.566499,140.503841
大字大沢,,,西田,40.554787,140.503011
大字大沢,,,西前田,40.557293,140.511117
大字小比内,,,福田萢,40.594068,140.505979
大字清水森,,,前田,40.569826,140.510094
大字門外,,,下松元,40.587573,140.507719
大字松木平,,,鎧田,40.562783,140.507799
大字大沢,,,曲り谷,40.55899,140.50755
大字大沢,,,寺ケ沢,40.551203,140.508783
大字新里,,,西里見,40.592326,140.509507
大字門外,,,富岡,40.585307,140.507671
大字松木平,,,宮元,40.567603,140.516362
大字清水森,,,野田,40.57276,140.509069
大字高田,,,苺原,40.594911,140.509331
大字堀越,,,宮本,40.574758,140.51203
大字大沢,,,蟹甲,40.560651,140.511109
大字松木平,,,元木,40.565913,140.511294
大字新里,,,西平岡,40.595819,140.511998
大字門外,,,村井,40.586531,140.514086
大字福田,,,巻屋,40.595991,140.510251
大字松木平,,,西ノ神,40.564675,140.513204
大字新里,,,中里見,40.59227,140.512853
大字堀越,,,川合,40.576147,140.519104
大字大沢,,,東前田,40.557033,140.512947
大字大沢,,,西下田面,40.561194,140.514925
大字大沢,,,下村元,40.55477,140.514314
大字大沢,,,稲元川原,40.556247,140.516067
大字門外,,,栄田,40.583223,140.51594
大字新里,,,中平岡,40.597934,140.515844
大字堀越,,,鎧田,40.570715,140.516664
大字大沢,,,東下田面,40.559197,140.516879
大字新里,,,東里見,40.590145,140.518859
大字川合,,,浅田,40.582772,140.519654
大字堀越,,,柳元,40.566345,140.521557
大字大沢,,,梨子平,40.547874,140.514044
大字大沢,,,稲元,40.55749,140.516936
大字新里,,,東平岡,40.59485,140.518166
大字大沢,,,手代森,40.551649,140.520483
大字大沢,,,荒田,40.556593,140.52038
大字大沢,,,苦り沢,40.556297,140.522478
大字新里,,,上樋田,40.588907,140.522619
大字新里,,,中樋田,40.595015,140.523021
大字川合,,,下川原,40.581266,140.523087
大字石川,,,野崎,40.554951,140.528638
大字川合,,,岡本,40.573314,140.525974
大字石川,,,長者森,40.553434,140.52637
大字堀越,,,柳田,40.570431,140.52437
大字石川,,,外坪,40.564039,140.527174
大字石川,,,中坪,40.558519,140.532395
大字石川,,,小山田,40.55362,140.530789
大字石川,,,中川原,40.558927,140.534182
大字石川,,,西舘下,40.551642,140.536505
大字石川,,,川原田,40.559326,140.535604
大字石川,,,岸田,40.557396,140.530764
大字石川,,,家岸,40.552104,140.539487
大字石川,,,寺山,40.548703,140.535945
大字石川,,,大仏下,40.550365,140.542844
大字石川,,,村元,40.554486,140.542652
大字石川,,,大仏,40.548417,140.541788
大字石川,,,春仕内,40.553882,140.546256
大字石川,,,石川,40.55322,140.541606
大字石川,,,留岡,40.549761,140.5482
大字小金崎,,,村元,40.543955,140.548625
大字小金崎,,,川原田,40.545331,140.548244
大字小金崎,,,大仏新田,40.547397,140.550009
大字石川,,,平岡,40.549219,140.551837
大字小金崎,,,桜ノ木,40.538514,140.551768
大字石川,,,大上寺,40.555616,140.555076
大字乳井,,,石田,40.552748,140.556348
大字八幡舘,,,角田,40.550356,140.557498
大字乳井,,,岩ノ上,40.548082,140.562046
大字乳井,,,長橋,40.552112,140.562742
大字薬師堂,,,岡本,40.560175,140.566328
大字乳井,,,岩ノ下,40.549775,140.562048
大字乳井,,,大清水,40.553555,140.562417
大字乳井,,,岡本,40.556893,140.56679
大字乳井,,,乳井,40.552672,140.566621
大字乳井,,,柳田,40.554894,140.566304
大字薬師堂,,,舘ノ平,40.556909,140.569222
大字乳井,,,沢田,40.547542,140.570298
大字薬師堂,,,熊本,40.559309,140.571408
大字薬師堂,,,日照田,40.563061,140.57316
大字清水森,,,下川原,40.569464,140.494065
大字石川,,,柳田,40.565609,140.529769
大字堀越,,,柏田,40.570848,140.520362
大字大沢,,,牛沢川添,40.554602,140.504267
大字大沢,,,村中,40.553273,140.513042
大字大沢,,,八幡長根,40.555303,140.506309
大字大沢,,,大久保,40.552084,140.505458
大字松木平,,,鷲ノ巣,40.552527,140.501209
大字大沢,,,上村元,40.552603,140.515523
大字大沢,,,下山ケ田,40.550618,140.513373
大字大沢,,,鷲上沢,40.548276,140.512345
大字大沢,,,大萢,40.546773,140.517249
大字大沢,,,南ケ沢,40.549431,140.5245
大字大沢,,,戸谷,40.548806,140.520859
大字大沢,,,山下,40.549936,140.518934
大字石川,,,西ノ沢,40.544576,140.532513
大字石川,,,平山,40.549716,140.540787
大字石川,,,泉田,40.554465,140.550641
大字石川,,,庄司川添,40.55053,140.550154
大字石川,,,和田,40.553448,140.552831
大字八幡舘,,,泉田,40.550557,140.555718
大字小金崎,,,留岡,40.54485,140.551828
大字乳井,,,平山,40.552398,140.568517
大字薬師堂,,,沢田口,40.558,140.569636
大字薬師堂,,,沢田,40.555842,140.57106
大字薬師堂,,,犹舘,40.556015,140.572395
大字薬師堂,,,留長根,40.557129,140.572136
大字薬師堂,,,鳥屋,40.554242,140.57348
大字乳井,,,舘ノ沢,40.552046,140.570631
大字乳井,,,和山,40.553851,140.569315
大字乳井,,,茶臼舘,40.549944,140.564512
大字松木平,,,平山,40.566337,140.517627
大字乳井,,,外ノ沢,40.5453,140.56609
大字乳井,,,古堂,40.545108,140.563403
大字石川,,,境沢,40.551419,140.52774
大字石川,,,泉ケ平,40.55232,140.530265
大字石川,,,桔梗長根,40.55118,140.528708
大字石川,,,平野,40.54821,140.535151
大字乳井,,,大杉ノ下,40.551308,140.567206
大字石川,,,新舘下,40.555502,140.531425
大字如来瀬,,,山田,40.591756,140.394053
大字如来瀬,,,玉川,40.591313,140.395536
大字如来瀬,,,種本,40.595677,140.40569
大字鳥井野,,,川村,40.592571,140.410002
大字鳥井野,,,長田,40.59894,140.411469
大字悪戸,,,中野,40.582043,140.42567
大字鳥井野,,,宮本,40.597656,140.41812
大字下湯口,,,青柳,40.592154,140.422795
大字悪戸,,,芦野,40.570446,140.428837
大字下湯口,,,村元,40.584241,140.421532
大字龍ノ口,,,村元,40.599699,140.425159
大字悪戸,,,前萢,40.560383,140.428514
大字悪戸,,,鳴瀬,40.59618,140.435359
大字悪戸,,,青柳,40.593703,140.42542
大字悪戸,,,村元,40.588787,140.427915
大字坂元,,,山下,40.550938,140.430397
大字小沢,,,御笠見,40.562283,140.434148
大字小沢,,,広野,40.564476,140.438063
大字小沢,,,蟹沢,40.566055,140.432625
大字小沢,,,苺原,40.555435,140.433517
大字小沢,,,前沢,40.55963,140.442415
大字小沢,,,大開,40.576408,140.441775
大字清水富田,,,寺沢,40.588798,140.441971
大字一野渡,,,西平山,40.540085,140.453081
大字一野渡,,,野尻,40.546541,140.452158
大字大和沢,,,沢田,40.552377,140.460346
大字一野渡,,,岡本,40.546239,140.460809
大字原ケ平,,,山中,40.566823,140.462771
大字大和沢,,,上岸田,40.547171,140.46524
大字大和沢,,,里見,40.549857,140.464923
大字原ケ平,,,奥野,40.559725,140.467453
大字狼森,,,西元,40.559692,140.468837
大字狼森,,,天王,40.559407,140.472446
大字原ケ平,,,山元,40.567079,140.469624
大字大和沢,,,下岸田,40.554741,140.475594
大字小栗山,,,沢部,40.558626,140.483126
大字小栗山,,,鷲ノ巣,40.553228,140.484167
大字小栗山,,,小松ケ沢,40.55572,140.486519
大字小栗山,,,川合,40.564366,140.488136
大字小栗山,,,稲苅沢,40.549546,140.48961
大字小栗山,,,福岡,40.563112,140.493048
大字如来瀬,,,四海渕,40.591404,140.374455
大字紙漉沢,,,堰根,40.591134,140.371754
大字如来瀬,,,大久保平,40.598859,140.374263
大字紙漉沢,,,地形,40.58983,140.386079
大字五所,,,里見,40.590973,140.401896
大字如来瀬,,,才野神,40.596262,140.388024
大字如来瀬,,,広野,40.594669,140.392172
大字如来瀬,,,大森前,40.594812,140.396775
大字兼平,,,石山添,40.600706,140.386006
大字兼平,,,山下林添,40.599679,140.400611
大字龍ノ口,,,桜田,40.598897,140.42143
大字如来瀬,,,桐の木沢,40.596642,140.39436
大字兼平,,,山下,40.602338,140.404701
大字龍ノ口,,,左り田,40.597945,140.422663
大字坂元,,,山元,40.542285,140.431767
大字坂元,,,前沢,40.553457,140.434387
大字小沢,,,沢田,40.55967,140.438662
大字小沢,,,山下,40.554912,140.432326
大字小沢,,,鶴子沢,40.547002,140.446588
大字大和沢,,,中岸田,40.550754,140.469203
大字小沢,,,井沢,40.556988,140.450145
大字小沢,,,山崎,40.573246,140.456068
大字一野渡,,,東平山,40.542433,140.461037
大字小沢,,,大原,40.577617,140.458818
大字大和沢,,,鷲ノ巣,40.554084,140.472431
大字清水富田,,,清水流,40.58439,140.465067
大字小栗山,,,芹沢,40.557245,140.49064
大字小栗山,,,山下,40.55848,140.48965
大字大久保,,,宮本,40.629556,140.496416
大字津賀野,,,岡本,40.639736,140.496275
大字境関,,,西田,40.615052,140.497022
大字大久保,,,若松,40.635093,140.495582
大字境関,,,鶴田,40.616353,140.499044
大字境関,,,亥ノ宮,40.614443,140.503488
大字境関,,,富田,40.6191,140.503376
大字撫牛子,,,橋本,40.626346,140.503422
大字境関,,,富岳,40.618008,140.50764
大字境関,,,川部,40.614335,140.510426
大字福田,,,花岡,40.609394,140.509774
大字福村,,,下川原,40.612168,140.513315
大字福村,,,早稲田,40.602934,140.517229
大字福村,,,新舘添,40.605418,140.517164
大字福村,,,堀合,40.607933,140.520223
大字新里,,,下樋田,40.600507,140.521764
大字福村,,,林元,40.606092,140.514507
大字福村,,,福富,40.608716,140.516503
大字福村,,,俵元,40.611212,140.516197
大字福田,,,福岡,40.608511,140.508435
大字撫牛子,,,宮本,40.617848,140.496514
大字境関,,,豊川,40.612015,140.508062
大字百沢,,,裾野,40.61558,140.303565
大字百沢,,,東岩木山,40.623867,140.331284
大字百沢,,,小松野,40.614691,140.335769
大字百沢,,,寺沢,40.620564,140.35177
大字百沢,,,温湯,40.611361,140.347064
大字百沢,,,岸田,40.61427,140.343437
大字百沢,,,高田,40.617698,140.342797
大字百沢,,,三本柳,40.609067,140.351053
大字百沢,,,田川,40.61852,140.349081
大字百沢,,,鶴田,40.618642,140.352459
大字高岡,,,神馬野,40.62225,140.358662
大字高岡,,,獅子沢,40.626333,140.358881
大字葛原,,,茂上,40.628333,140.373969
大字新法師,,,泉,40.610616,140.364974
大字新岡,,,薬師,40.634921,140.379636
大字新法師,,,向野,40.612825,140.376292
大字新法師,,,稔,40.620105,140.374203
大字葛原,,,大柳,40.628391,140.386302
大字宮地,,,富田,40.621793,140.387289
大字五代,,,従弟沢,40.60677,140.381912
大字新岡,,,片付,40.641962,140.380463
大字宮地,,,宮本,40.61357,140.387916
大字新岡,,,外の沢,40.643664,140.386426
大字新岡,,,山本,40.635001,140.393902
大字折笠,,,三原,40.644135,140.39711
大字新岡,,,萩流,40.631944,140.396418
大字五代,,,山本,40.611355,140.401772
大字宮地,,,川添,40.615725,140.401057
大字宮地,,,沢田,40.61908,140.400349
大字折笠,,,法立堂,40.643791,140.407394
大字細越,,,宮本,40.638236,140.404535
大字兼平,,,林元,40.606055,140.406542
大字細越,,,竹原,40.633353,140.407468
大字八幡,,,須崎,40.618334,140.409106
大字愛宕,,,山下,40.62956,140.405845
大字折笠,,,狐沢,40.64605,140.406427
大字兼平,,,富田,40.602053,140.410774
大字五代,,,沼田,40.611193,140.407523
大字八幡,,,長沢,40.620994,140.407641
大字五代,,,早稲田,40.615458,140.411841
大字細越,,,早稲田,40.640581,140.412344
大字愛宕,,,三嶋,40.627483,140.410789
大字八幡,,,古喜田,40.622883,140.410808
大字兼平,,,猿沢,40.60738,140.415124
大字五代,,,白山堂,40.61061,140.412147
大字鼻和,,,西田,40.632558,140.415505
大字八幡,,,岸野田,40.620181,140.415812
大字八幡,,,北原,40.621232,140.416252
大字五代,,,前田,40.614022,140.415526
大字八幡,,,安田,40.618852,140.417083
大字五代,,,田屋敷,40.609307,140.417326
大字一町田,,,浅井,40.606412,140.418505
大字宮舘,,,宮川,40.649132,140.421714
大字鼻和,,,岩井,40.63019,140.422503
大字一町田,,,沢田,40.603792,140.41848
大字鼻和,,,平岡,40.635624,140.418958
大字八幡,,,平塚,40.623777,140.423208
大字宮舘,,,比内沢,40.647183,140.424185
大字富栄,,,平岡,40.637471,140.419891
大字一町田,,,石田,40.606258,140.422695
大字一町田,,,村元,40.612414,140.425472
大字高屋,,,本宮,40.619409,140.427262
大字高屋,,,福田,40.615257,140.422404
大字富栄,,,笹崎,40.637894,140.424714
大字富栄,,,野田,40.63439,140.425321
大字富栄,,,鳥羽,40.641585,140.43349
大字一町田,,,早稲田,40.610531,140.430081
大字高屋,,,安田,40.620098,140.432243
大字富栄,,,浅井名,40.644785,140.424804
大字真土,,,東川,40.601769,140.428758
大字蒔苗,,,野田,40.632464,140.43114
大字真土,,,勝剣林,40.605732,140.428501
大字蒔苗,,,樋田,40.627807,140.43317
大字蒔苗,,,堤田,40.634883,140.433272
大字真土,,,苅田,40.602509,140.433767
大字横町,,,松本,40.626409,140.436734
大字真土,,,前田,40.606541,140.435247
大字一町田,,,富岡,40.609411,140.434395
大字蒔苗,,,福岡,40.635337,140.438982
大字熊嶋,,,亀田,40.611249,140.438458
大字熊嶋,,,里見,40.617171,140.438007
大字前坂,,,赤井,40.659991,140.439454
大字真土,,,大川,40.603573,140.4392
大字蒔苗,,,独狐森,40.636655,140.437518
大字駒越,,,高田,40.606042,140.438803
大字土堂,,,早川,40.624102,140.442461
大字熊嶋,,,豊田,40.616327,140.441413
大字前坂,,,船山,40.655316,140.440549
大字独狐,,,島田,40.638598,140.441203
大字独狐,,,松ケ沢,40.647122,140.441445
大字土堂,,,長瀬,40.622556,140.445504
大字独狐,,,石田,40.652584,140.445171
大字独狐,,,独狐森,40.641341,140.442399
大字駒越,,,村元,40.609578,140.446887
大字藤代,,,平田,40.618162,140.44986
大字三世寺,,,色吉,40.659767,140.451878
大字独狐,,,笹元,40.643725,140.446484
大字町田,,,松本,40.636486,140.447748
大字石渡,,,大保,40.634253,140.448281
大字町田,,,沖田,40.638277,140.45006
大字三世寺,,,月見野,40.656167,140.453055
大字中崎,,,野脇,40.649847,140.455851
大字石渡,,,田浦,40.632028,140.452013
大字中崎,,,平野,40.647993,140.456977
大字町田,,,清水,40.640511,140.455719
大字中崎,,,苅田,40.648046,140.460638
大字船水,,,勝浦,40.637172,140.463632
大字三世寺,,,鳴瀬,40.660117,140.459986
大字中崎,,,川原田,40.653019,140.462463
大字町田,,,筒井,40.640961,140.466043
大字船水,,,松尾,40.632555,140.466123
大字船水,,,横船,40.633542,140.468496
大字萢中,,,岩井,40.623607,140.469777
大字清野袋,,,川田,40.639787,140.473107
大字向外瀬,,,豊田,40.630112,140.482623
大字津賀野,,,瀬ノ上,40.644416,140.483566
大字津賀野,,,浅田,40.641929,140.488663
大字清野袋,,,岡部,40.637583,140.483648
大字清野袋,,,増田,40.645314,140.479769
大字堅田,,,神田,40.629383,140.488259
大字大久保,,,西田,40.629527,140.491604
大字津賀野,,,宮崎,40.64206,140.493139
大字大久保,,,沼田,40.633463,140.493341
大字百田,,,宮崎,40.64403,140.493907
大字百沢,,,笹平,40.616781,140.342423
大字百沢,,,旦の越,40.612521,140.351125
大字兼平,,,長ヶ沢,40.599586,140.39506
大字兼平,,,林元林添,40.604619,140.397988
大字宮地,,,諏訪林,40.620718,140.39233
大字葛原,,,土筆山,40.629046,140.379434
大字新岡,,,石田,40.641129,140.376943
大字弥生,,,弥生平,40.649568,140.376909
大字折笠,,,宮川,40.643826,140.414811
大字富栄,,,西田,40.640776,140.415414
大字細越,,,大口沢,40.636105,140.403826
大字宮地,,,菖蒲沢,40.625447,140.39895
大字賀田,,,大浦,40.617662,140.420704
大字前坂,,,箱崎,40.656875,140.43586
大字独狐,,,山辺,40.650586,140.436445
大字富栄,,,山辺,40.6496,140.433666
大字蒔苗,,,油伝,40.628576,140.427732
大字蒔苗,,,鳥羽,40.638489,140.435341
大字横町,,,豊田,40.622237,140.428697
大字駒越,,,平田,40.609713,140.44616
大字大川,,,見乗,40.663027,140.457553
大字町田,,,山吹,40.642279,140.463911
大字町田,,,舘田,40.640373,140.461994
大字町田,,,三千苅,40.636362,140.452713
大字向外瀬,,,岩木,40.623004,140.473018
大字百田,,,岡本,40.642097,140.49462
大字如来瀬,,,堤沢,40.596912,140.384594
大字薬師堂,,,北熊沢,40.560481,140.575414
大字大沢,,,簾垂柳,40.554917,140.51986
大字大沢,,,狐長根,40.550919,140.499512
