name,name_kana,name_romaji,nickname,latitude,longitude
大字五日市,,,,40.007751,141.225631
大字一方井,,,,40.014401,141.177735
大字江刈内,,,,39.956128,141.25456
大字川口,,,,39.902676,141.308582
大字久保,,,,40.01222,141.190864
大字黒石,,,,39.989898,141.157244
大字黒内,,,,39.998088,141.136885
大字子抱,,,,39.937353,141.187691
大字大坊,,,,39.970763,141.335063
大字土川,,,,39.948375,141.158802
大字沼宮内,,,,40.006453,141.268085
大字葉木田,,,,39.997124,141.146872
大字坊,,,,39.969574,141.179046
大字御堂,,,,40.042704,141.231537
