name,name_kana,name_romaji,nickname,latitude,longitude
相去町,アイサリチョウ,AISARICHO,,39.249061,141.091612
青柳町一丁目,アオヤギチョウ 1,AOYAGICHO 1,,39.284155,141.120827
青柳町二丁目,アオヤギチョウ 2,AOYAGICHO 2,,39.284916,141.117315
有田町,アリタチョウ,ARITACHO,,39.293604,141.105415
飯豊,イイトヨ,IITOYO,,39.352831,141.090196
稲瀬町,イナセチョウ,INASECHO,,39.255782,141.142235
上野町一丁目,ウエノチョウ 1,UENOCHO 1,,39.29783,141.12578
上野町二丁目,ウエノチョウ 2,UENOCHO 2,,39.300507,141.123775
上野町三丁目,ウエノチョウ 3,UENOCHO 3,,39.305894,141.123611
上野町四丁目,ウエノチョウ 4,UENOCHO 4,,39.303836,141.126941
上野町五丁目,ウエノチョウ 5,UENOCHO 5,,39.301019,141.130003
大堤北一丁目,オオツツミキタ 1,OTSUTSUMI KITA 1,,39.264588,141.101166
大堤北二丁目,オオツツミキタ 2,OTSUTSUMI KITA 2,,39.264458,141.104812
大堤西一丁目,オオツツミニシ 1,OTSUTSUMI NISHI 1,,39.264701,141.097629
大堤西二丁目,オオツツミニシ 2,OTSUTSUMI NISHI 2,,39.262805,141.09726
大堤東一丁目,オオツツミヒガシ 1,OTSUTSUMI HIGASHI 1,,39.26423,141.108172
大堤東二丁目,オオツツミヒガシ 2,OTSUTSUMI HIGASHI 2,,39.263699,141.110687
大堤東三丁目,オオツツミヒガシ 3,OTSUTSUMI HIGASHI 3,,39.260653,141.107319
大堤南一丁目,オオツツミミナミ 1,OTSUTSUMI MINAMI 1,,39.262294,141.100858
大堤南二丁目,オオツツミミナミ 2,OTSUTSUMI MINAMI 2,,39.262248,141.10454
大堤南三丁目,オオツツミミナミ 3,OTSUTSUMI MINAMI 3,,39.260257,141.104738
大通り一丁目,オオドオリ 1,ODORI 1,,39.28174,141.120863
大通り二丁目,オオドオリ 2,ODORI 2,,39.282741,141.116544
大通り三丁目,オオドオリ 3,ODORI 3,,39.284387,141.112403
大通り四丁目,オオドオリ 4,ODORI 4,,39.286766,141.106638
大曲町,オオマガリチョウ,OMAGARICHO,,39.286055,141.111621
鬼柳町,オニヤナギチョウ,ONIYANAGICHO,,39.275565,141.090714
鍛冶町一丁目,カジマチ 1,KAJIMACHI 1,,39.289215,141.107977
鍛冶町二丁目,カジマチ 2,KAJIMACHI 2,,39.289787,141.105623
鍛冶町三丁目,カジマチ 3,KAJIMACHI 3,,39.290662,141.103277
上江釣子,カミエヅリコ,KAMIEZURIKO,,39.297809,141.07699
上鬼柳,カミオニヤナギ,KAMIONIYANAGI,,39.27312,141.071865
川岸一丁目,カワギシ 1,KAWAGISHI 1,,39.278364,141.123062
川岸二丁目,カワギシ 2,KAWAGISHI 2,,39.28572,141.124313
川岸三丁目,カワギシ 3,KAWAGISHI 3,,39.283712,141.127475
川岸四丁目,カワギシ 4,KAWAGISHI 4,,39.286845,141.128163
北鬼柳,キタオニヤナギ,KITAONIYANAGI,,39.295352,141.094661
北工業団地,キタコウギョウダンチ,KITAKOGYODANCHI,,39.334108,141.126288
口内町,クチナイチョウ,KUCHINAICHO,,39.29135,141.203865
九年橋一丁目,クネンバシ 1,KUNEMBASHI 1,,39.279271,141.114253
九年橋二丁目,クネンバシ 2,KUNEMBASHI 2,,39.282857,141.113198
九年橋三丁目,クネンバシ 3,KUNEMBASHI 3,,39.282573,141.109651
黒岩,クロイワ,KUROIWA,,39.306351,141.164658
黒沢尻一丁目,クロサワジリ 1,KUROSAWAJIRI 1,,39.289932,141.130528
黒沢尻二丁目,クロサワジリ 2,KUROSAWAJIRI 2,,39.29393,141.130761
黒沢尻三丁目,クロサワジリ 3,KUROSAWAJIRI 3,,39.29617,141.131974
黒沢尻四丁目,クロサワジリ 4,KUROSAWAJIRI 4,,39.296601,141.136504
小鳥崎,コトリザキ,KOTORIZAKI,,39.297763,141.142048
幸町,サイワイチョウ,SAIWAICHO,,39.286301,141.121785
さくら通り一丁目,サクラドオリ 1,SAKURADORI 1,,39.296258,141.116029
さくら通り二丁目,サクラドオリ 2,SAKURADORI 2,,39.298372,141.109382
さくら通り三丁目,サクラドオリ 3,SAKURADORI 3,,39.297275,141.116317
さくら通り四丁目,サクラドオリ 4,SAKURADORI 4,,39.299776,141.111921
さくら通り五丁目,サクラドオリ 5,SAKURADORI 5,,39.302638,141.109916
里分,サトブン,SATOBUN,,39.290735,141.136483
更木,サラキ,SARAKI,,39.341508,141.155707
下江釣子,シモエヅリコ,SHIMOEZURIKO,,39.293745,141.058002
下鬼柳,シモオニヤナギ,SHIMONIYANAGI,,39.275211,141.111405
新穀町一丁目,シンコクチョウ 1,SHINKOKUCHO 1,,39.289124,141.112788
新穀町二丁目,シンコクチョウ 2,SHINKOKUCHO 2,,39.289984,141.110576
諏訪町一丁目,スワチョウ 1,SUWACHO 1,,39.286243,141.11941
諏訪町二丁目,スワチョウ 2,SUWACHO 2,,39.286887,141.117457
立花,タチバナ,TACHIBANA,,39.280629,141.146025
堤ケ丘一丁目,ツツミガオカ 1,TSUTSUMIGAOKA 1,,39.308011,141.115813
堤ケ丘二丁目,ツツミガオカ 2,TSUTSUMIGAOKA 2,,39.312566,141.115587
常盤台一丁目,トキワダイ 1,TOKIWADAI 1,,39.300061,141.119736
常盤台二丁目,トキワダイ 2,TOKIWADAI 2,,39.300385,141.115365
常盤台三丁目,トキワダイ 3,TOKIWADAI 3,,39.303645,141.113605
常盤台四丁目,トキワダイ 4,TOKIWADAI 4,,39.308555,141.112535
中野町一丁目,ナカノチョウ 1,NAKANOCHO 1,,39.289499,141.12476
中野町二丁目,ナカノチョウ 2,NAKANOCHO 2,,39.292798,141.124548
中野町三丁目,ナカノチョウ 3,NAKANOCHO 3,,39.295536,141.125808
滑田,ナメシダ,NAMESHIDA,,39.313954,141.066916
成田,ナリタ,NARITA,,39.346666,141.126254
新平,ニツペイ,NITSUPEI,,39.323825,141.061317
鳩岡崎,ハトオカザキ,HATOKAZAKI,,39.31067,141.085489
花園町一丁目,ハナゾノチョウ 1,HANAZONOCHO 1,,39.288396,141.121072
花園町二丁目,ハナゾノチョウ 2,HANAZONOCHO 2,,39.28905,141.119089
花園町三丁目,ハナゾノチョウ 3,HANAZONOCHO 3,,39.29039,141.1211
平沢,ヒラサワ,HIRASAWA,,39.323407,141.169696
臥牛,フシウシ,FUSHIUSHI,,39.353311,141.175943
藤沢,フジサワ,FUJISAWA,,39.323472,141.085261
二子町,フタゴチョウ,FUTAGOCHO,,39.317735,141.139753
本石町一丁目,ホンゴクチョウ 1,HONGOKUCHO 1,,39.290441,141.114886
本石町二丁目,ホンゴクチョウ 2,HONGOKUCHO 2,,39.292403,141.115329
本通り一丁目,ホンドオリ 1,HONDORI 1,,39.286213,141.114715
本通り二丁目,ホンドオリ 2,HONDORI 2,,39.288761,141.116559
本通り三丁目,ホンドオリ 3,HONDORI 3,,39.29208,141.119145
本通り四丁目,ホンドオリ 4,HONDORI 4,,39.294136,141.120737
孫屋敷,マゴヤシキ,MAGOYASHIKI,,39.291514,141.127457
町分,マチブン,MACHIBUN,,39.30172,141.105736
村崎野,ムラサキノ,MURASAKINO,,39.329203,141.102551
柳原町一丁目,ヤナギハラチョウ 1,YANAGIHARACHO 1,,39.293003,141.111885
柳原町二丁目,ヤナギハラチョウ 2,YANAGIHARACHO 2,,39.293357,141.109199
柳原町三丁目,ヤナギハラチョウ 3,YANAGIHARACHO 3,,39.294915,141.116038
柳原町四丁目,ヤナギハラチョウ 4,YANAGIHARACHO 4,,39.295541,141.112845
柳原町五丁目,ヤナギハラチョウ 5,YANAGIHARACHO 5,,39.295986,141.10863
湯沢,ユザワ,YUZAWA,,39.317702,141.171635
芳町,ヨシチョウ,YOSHICHO,,39.287508,141.111003
流通センター,リュウツウセンター,RYUTSUSENTA,,39.317062,141.095614
和賀町岩崎,ワガチョウイワサキ,WAGACHO IWASAKI,,39.26295,141.037038
和賀町岩崎新田,ワガチョウイワサキシンデン,WAGACHO IWASAKISHINDEN,,39.257546,141.005171
和賀町岩沢,ワガチョウイワサワ,WAGACHO IWASAWA,,39.299776,140.937111
和賀町後藤,ワガチョウゴトウ,WAGACHO GOTO,,39.333517,141.020408
和賀町煤孫,ワガチョウススマゴ,WAGACHO SUSUMAGO,,39.273326,140.991219
和賀町仙人,ワガチョウセンニン,WAGACHO SENNIN,,39.307632,140.902514
和賀町竪川目,ワガチョウタテカワメ,WAGACHO TATEKAWAME,,39.304657,140.997489
和賀町長沼,ワガチョウナガヌマ,WAGACHO NAGANUMA,,39.298566,141.021554
和賀町藤根,ワガチョウフジネ,WAGACHO FUJINE,,39.314478,141.031423
和賀町山口,ワガチョウヤマグチ,WAGACHO YAMAGUCHI,,39.293623,140.97997
和賀町横川目,ワガチョウヨコカワメ,WAGACHO YOKOKAWAME,,39.31813,140.978399
若宮町一丁目,ワカミヤチョウ 1,WAKAMIYACHO 1,,39.278215,141.118114
若宮町二丁目,ワカミヤチョウ 2,WAKAMIYACHO 2,,39.280902,141.116398
和賀町仙人,ワガチョウセンニン,WAGACHO SENNIN,二地割,39.304287,140.902384
和賀町仙人,ワガチョウセンニン,WAGACHO SENNIN,四地割,39.31041,140.907152
和賀町仙人,ワガチョウセンニン,WAGACHO SENNIN,三地割,39.309441,140.90698
和賀町仙人,ワガチョウセンニン,WAGACHO SENNIN,一地割,39.308807,140.904714
和賀町仙人,ワガチョウセンニン,WAGACHO SENNIN,八地割,39.311639,140.913207
和賀町仙人,ワガチョウセンニン,WAGACHO SENNIN,七地割,39.308842,140.910763
和賀町仙人,ワガチョウセンニン,WAGACHO SENNIN,五地割,39.307796,140.914964
和賀町仙人,ワガチョウセンニン,WAGACHO SENNIN,九地割,39.310799,140.921301
和賀町仙人,ワガチョウセンニン,WAGACHO SENNIN,六地割,39.306862,140.917383
和賀町岩沢,ワガチョウイワサワ,WAGACHO IWASAWA,八地割,39.303068,140.928239
和賀町岩沢,ワガチョウイワサワ,WAGACHO IWASAWA,九地割,39.302425,140.939544
和賀町岩沢,ワガチョウイワサワ,WAGACHO IWASAWA,十地割,39.300244,140.937673
和賀町横川目,ワガチョウヨコカワメ,WAGACHO YOKOKAWAME,三地割,39.30588,140.944045
和賀町岩沢,ワガチョウイワサワ,WAGACHO IWASAWA,十四地割,39.301562,140.949125
和賀町横川目,ワガチョウヨコカワメ,WAGACHO YOKOKAWAME,四地割,39.307737,140.958064
和賀町岩沢,ワガチョウイワサワ,WAGACHO IWASAWA,十三地割,39.298919,140.951716
和賀町山口,ワガチョウヤマグチ,WAGACHO YAMAGUCHI,十八地割,39.298765,140.958304
和賀町山口,ワガチョウヤマグチ,WAGACHO YAMAGUCHI,十六地割,39.303306,140.956427
和賀町横川目,ワガチョウヨコカワメ,WAGACHO YOKOKAWAME,十七地割,39.328144,140.968923
和賀町岩崎新田,ワガチョウイワサキシンデン,WAGACHO IWASAKISHINDEN,一地割,39.240602,140.95614
和賀町横川目,ワガチョウヨコカワメ,WAGACHO YOKOKAWAME,六地割,39.309576,140.964909
和賀町横川目,ワガチョウヨコカワメ,WAGACHO YOKOKAWAME,八地割,39.306459,140.96421
和賀町山口,ワガチョウヤマグチ,WAGACHO YAMAGUCHI,十七地割,39.301904,140.96622
和賀町横川目,ワガチョウヨコカワメ,WAGACHO YOKOKAWAME,七地割,39.313751,140.971656
和賀町横川目,ワガチョウヨコカワメ,WAGACHO YOKOKAWAME,十八地割,39.335681,140.973582
和賀町山口,ワガチョウヤマグチ,WAGACHO YAMAGUCHI,十九地割,39.300451,140.966058
和賀町横川目,ワガチョウヨコカワメ,WAGACHO YOKOKAWAME,五地割,39.312566,140.965788
和賀町横川目,ワガチョウヨコカワメ,WAGACHO YOKOKAWAME,十五地割,39.322743,140.971827
和賀町岩崎新田,ワガチョウイワサキシンデン,WAGACHO IWASAKISHINDEN,二地割,39.24646,140.985429
和賀町山口,ワガチョウヤマグチ,WAGACHO YAMAGUCHI,二十二地割,39.298891,140.969582
和賀町横川目,ワガチョウヨコカワメ,WAGACHO YOKOKAWAME,二十二地割,39.342875,140.973951
和賀町横川目,ワガチョウヨコカワメ,WAGACHO YOKOKAWAME,十二地割,39.308176,140.97352
和賀町横川目,ワガチョウヨコカワメ,WAGACHO YOKOKAWAME,十六地割,39.323573,140.976373
和賀町山口,ワガチョウヤマグチ,WAGACHO YAMAGUCHI,三十八地割,39.29308,140.972359
和賀町横川目,ワガチョウヨコカワメ,WAGACHO YOKOKAWAME,十三地割,39.314516,140.975659
和賀町岩崎,ワガチョウイワサキ,WAGACHO IWASAKI,一地割,39.241403,140.989335
和賀町山口,ワガチョウヤマグチ,WAGACHO YAMAGUCHI,二十一地割,39.301138,140.972695
和賀町山口,ワガチョウヤマグチ,WAGACHO YAMAGUCHI,二十三地割,39.296673,140.973669
和賀町山口,ワガチョウヤマグチ,WAGACHO YAMAGUCHI,二十地割,39.30179,140.973104
和賀町横川目,ワガチョウヨコカワメ,WAGACHO YOKOKAWAME,二十三地割,39.357209,140.974219
和賀町山口,ワガチョウヤマグチ,WAGACHO YAMAGUCHI,二十六地割,39.300934,140.974815
和賀町横川目,ワガチョウヨコカワメ,WAGACHO YOKOKAWAME,二十地割,39.337526,140.974856
和賀町横川目,ワガチョウヨコカワメ,WAGACHO YOKOKAWAME,十一地割,39.30818,140.97747
和賀町山口,ワガチョウヤマグチ,WAGACHO YAMAGUCHI,三十七地割,39.29842,140.976954
和賀町山口,ワガチョウヤマグチ,WAGACHO YAMAGUCHI,二十七地割,39.299771,140.979455
和賀町横川目,ワガチョウヨコカワメ,WAGACHO YOKOKAWAME,二十一地割,39.337833,140.978113
和賀町横川目,ワガチョウヨコカワメ,WAGACHO YOKOKAWAME,九地割,39.303413,140.976513
和賀町煤孫,ワガチョウススマゴ,WAGACHO SUSUMAGO,一地割,39.267861,140.97931
和賀町横川目,ワガチョウヨコカワメ,WAGACHO YOKOKAWAME,十地割,39.307511,140.98115
和賀町煤孫,ワガチョウススマゴ,WAGACHO SUSUMAGO,二地割,39.277543,140.992129
和賀町横川目,ワガチョウヨコカワメ,WAGACHO YOKOKAWAME,十九地割,39.325161,140.979965
和賀町山口,ワガチョウヤマグチ,WAGACHO YAMAGUCHI,四十六地割,39.288406,140.982365
和賀町山口,ワガチョウヤマグチ,WAGACHO YAMAGUCHI,四十地割,39.291174,140.979232
和賀町横川目,ワガチョウヨコカワメ,WAGACHO YOKOKAWAME,十四地割,39.319125,140.978749
和賀町山口,ワガチョウヤマグチ,WAGACHO YAMAGUCHI,四十二地割,39.296966,140.978848
和賀町山口,ワガチョウヤマグチ,WAGACHO YAMAGUCHI,三十六地割,39.298298,140.980102
和賀町横川目,ワガチョウヨコカワメ,WAGACHO YOKOKAWAME,二十四地割,39.350788,140.982755
和賀町山口,ワガチョウヤマグチ,WAGACHO YAMAGUCHI,四十一地割,39.296247,140.980822
和賀町山口,ワガチョウヤマグチ,WAGACHO YAMAGUCHI,四十三地割,39.298366,140.981927
和賀町横川目,ワガチョウヨコカワメ,WAGACHO YOKOKAWAME,三十六地割,39.307336,140.986841
和賀町横川目,ワガチョウヨコカワメ,WAGACHO YOKOKAWAME,二十六地割,39.339583,140.982767
和賀町山口,ワガチョウヤマグチ,WAGACHO YAMAGUCHI,二十八地割,39.301275,140.981408
和賀町横川目,ワガチョウヨコカワメ,WAGACHO YOKOKAWAME,三十五地割,39.310012,140.987293
和賀町横川目,ワガチョウヨコカワメ,WAGACHO YOKOKAWAME,二十七地割,39.334045,140.982698
和賀町横川目,ワガチョウヨコカワメ,WAGACHO YOKOKAWAME,三十四地割,39.316097,140.983653
和賀町山口,ワガチョウヤマグチ,WAGACHO YAMAGUCHI,三十四地割,39.299555,140.982447
和賀町横川目,ワガチョウヨコカワメ,WAGACHO YOKOKAWAME,二十八地割,39.331824,140.984178
和賀町山口,ワガチョウヤマグチ,WAGACHO YAMAGUCHI,四十四地割,39.296055,140.984045
和賀町横川目,ワガチョウヨコカワメ,WAGACHO YOKOKAWAME,二十九地割,39.327019,140.98745
和賀町山口,ワガチョウヤマグチ,WAGACHO YAMAGUCHI,三十三地割,39.301194,140.982865
和賀町横川目,ワガチョウヨコカワメ,WAGACHO YOKOKAWAME,二十五地割,39.348815,140.983066
和賀町横川目,ワガチョウヨコカワメ,WAGACHO YOKOKAWAME,三十地割,39.323151,140.98388
和賀町煤孫,ワガチョウススマゴ,WAGACHO SUSUMAGO,望野,39.270009,140.991381
和賀町山口,ワガチョウヤマグチ,WAGACHO YAMAGUCHI,四十五地割,39.29423,140.986836
和賀町岩崎新田,ワガチョウイワサキシンデン,WAGACHO IWASAKISHINDEN,神楽,39.252008,140.991272
和賀町横川目,ワガチョウヨコカワメ,WAGACHO YOKOKAWAME,三十三地割,39.316255,140.986192
和賀町後藤,ワガチョウゴトウ,WAGACHO GOTO,一地割,39.334613,140.994846
和賀町竪川目,ワガチョウタテカワメ,WAGACHO TATEKAWAME,四地割,39.305147,140.993601
和賀町煤孫,ワガチョウススマゴ,WAGACHO SUSUMAGO,十二地割,39.290679,140.990014
和賀町横川目,ワガチョウヨコカワメ,WAGACHO YOKOKAWAME,三十一地割,39.318882,140.997996
和賀町山口,ワガチョウヤマグチ,WAGACHO YAMAGUCHI,四十七地割,39.293298,140.989296
和賀町横川目,ワガチョウヨコカワメ,WAGACHO YOKOKAWAME,三十二地割,39.313911,140.98775
和賀町山口,ワガチョウヤマグチ,WAGACHO YAMAGUCHI,四十八地割,39.294892,140.990303
和賀町岩崎新田,ワガチョウイワサキシンデン,WAGACHO IWASAKISHINDEN,五地割,39.251256,140.999185
和賀町横川目,ワガチョウヨコカワメ,WAGACHO YOKOKAWAME,三十七地割,39.310626,140.995794
和賀町竪川目,ワガチョウタテカワメ,WAGACHO TATEKAWAME,二地割,39.306672,140.997137
和賀町煤孫,ワガチョウススマゴ,WAGACHO SUSUMAGO,四地割,39.266178,140.997093
和賀町岩崎新田,ワガチョウイワサキシンデン,WAGACHO IWASAKISHINDEN,六地割,39.25134,141.006775
和賀町煤孫,ワガチョウススマゴ,WAGACHO SUSUMAGO,十三地割,39.291793,140.996279
和賀町岩崎,ワガチョウイワサキ,WAGACHO IWASAKI,二地割,39.247874,141.007192
和賀町煤孫,ワガチョウススマゴ,WAGACHO SUSUMAGO,十一地割,39.28951,140.998005
和賀町煤孫,ワガチョウススマゴ,WAGACHO SUSUMAGO,十地割,39.287178,141.000243
和賀町竪川目,ワガチョウタテカワメ,WAGACHO TATEKAWAME,三地割,39.30201,140.995842
和賀町竪川目,ワガチョウタテカワメ,WAGACHO TATEKAWAME,一地割,39.310291,141.002167
和賀町竪川目,ワガチョウタテカワメ,WAGACHO TATEKAWAME,五地割,39.296944,140.996531
和賀町煤孫,ワガチョウススマゴ,WAGACHO SUSUMAGO,三地割,39.278639,140.999372
和賀町岩崎新田,ワガチョウイワサキシンデン,WAGACHO IWASAKISHINDEN,曙,39.262175,141.003051
和賀町煤孫,ワガチョウススマゴ,WAGACHO SUSUMAGO,十四地割,39.292094,141.002011
和賀町後藤,ワガチョウゴトウ,WAGACHO GOTO,六地割,39.34294,141.00166
和賀町岩崎新田,ワガチョウイワサキシンデン,WAGACHO IWASAKISHINDEN,真栄,39.260286,141.00741
和賀町後藤,ワガチョウゴトウ,WAGACHO GOTO,二地割,39.327991,141.004525
和賀町竪川目,ワガチョウタテカワメ,WAGACHO TATEKAWAME,七地割,39.301367,141.004445
和賀町竪川目,ワガチョウタテカワメ,WAGACHO TATEKAWAME,六地割,39.29617,141.001918
和賀町竪川目,ワガチョウタテカワメ,WAGACHO TATEKAWAME,八地割,39.304723,141.004192
和賀町煤孫,ワガチョウススマゴ,WAGACHO SUSUMAGO,十六地割,39.287236,141.006191
和賀町岩崎新田,ワガチョウイワサキシンデン,WAGACHO IWASAKISHINDEN,豊栄,39.253737,141.004361
和賀町岩崎新田,ワガチョウイワサキシンデン,WAGACHO IWASAKISHINDEN,旭ヶ丘,39.266111,141.00621
和賀町煤孫,ワガチョウススマゴ,WAGACHO SUSUMAGO,十五地割,39.289901,141.007525
和賀町藤根,ワガチョウフジネ,WAGACHO FUJINE,一地割,39.319183,141.011631
和賀町長沼,ワガチョウナガヌマ,WAGACHO NAGANUMA,十二地割,39.29771,141.005707
和賀町煤孫,ワガチョウススマゴ,WAGACHO SUSUMAGO,九地割,39.283884,141.008586
和賀町長沼,ワガチョウナガヌマ,WAGACHO NAGANUMA,二地割,39.301858,141.018805
和賀町岩崎新田,ワガチョウイワサキシンデン,WAGACHO IWASAKISHINDEN,四地割,39.270113,141.008182
和賀町煤孫,ワガチョウススマゴ,WAGACHO SUSUMAGO,十八地割,39.289779,141.010977
和賀町煤孫,ワガチョウススマゴ,WAGACHO SUSUMAGO,十七地割,39.286212,141.012396
和賀町長沼,ワガチョウナガヌマ,WAGACHO NAGANUMA,一地割,39.304207,141.014944
和賀町長沼,ワガチョウナガヌマ,WAGACHO NAGANUMA,三地割,39.298262,141.012955
和賀町岩崎新田,ワガチョウイワサキシンデン,WAGACHO IWASAKISHINDEN,大和,39.26693,141.014988
和賀町長沼,ワガチョウナガヌマ,WAGACHO NAGANUMA,十一地割,39.29669,141.011711
和賀町岩崎,ワガチョウイワサキ,WAGACHO IWASAKI,三地割,39.253147,141.019372
和賀町後藤,ワガチョウゴトウ,WAGACHO GOTO,七地割,39.34142,141.018211
和賀町煤孫,ワガチョウススマゴ,WAGACHO SUSUMAGO,八地割,39.283163,141.017243
和賀町煤孫,ワガチョウススマゴ,WAGACHO SUSUMAGO,六地割,39.28051,141.018938
和賀町煤孫,ワガチョウススマゴ,WAGACHO SUSUMAGO,五地割,39.281286,141.014517
和賀町藤根,ワガチョウフジネ,WAGACHO FUJINE,二地割,39.316805,141.02325
和賀町煤孫,ワガチョウススマゴ,WAGACHO SUSUMAGO,十九地割,39.288147,141.018094
和賀町長沼,ワガチョウナガヌマ,WAGACHO NAGANUMA,四地割,39.297293,141.019765
和賀町煤孫,ワガチョウススマゴ,WAGACHO SUSUMAGO,二十地割,39.285254,141.0193
和賀町後藤,ワガチョウゴトウ,WAGACHO GOTO,三地割,39.326131,141.018939
和賀町岩崎新田,ワガチョウイワサキシンデン,WAGACHO IWASAKISHINDEN,大東,39.271672,141.027853
和賀町煤孫,ワガチョウススマゴ,WAGACHO SUSUMAGO,七地割,39.283445,141.025007
和賀町長沼,ワガチョウナガヌマ,WAGACHO NAGANUMA,五地割,39.300775,141.026487
和賀町藤根,ワガチョウフジネ,WAGACHO FUJINE,五地割,39.313804,141.022596
和賀町藤根,ワガチョウフジネ,WAGACHO FUJINE,六地割,39.318723,141.028435
和賀町岩崎,ワガチョウイワサキ,WAGACHO IWASAKI,四地割,39.259788,141.030808
和賀町煤孫,ワガチョウススマゴ,WAGACHO SUSUMAGO,二十一地割,39.286118,141.023168
和賀町藤根,ワガチョウフジネ,WAGACHO FUJINE,四地割,39.310119,141.025382
和賀町岩崎,ワガチョウイワサキ,WAGACHO IWASAKI,二十一地割,39.286705,141.026011
和賀町岩崎新田,ワガチョウイワサキシンデン,WAGACHO IWASAKISHINDEN,七地割,39.266656,141.030027
和賀町長沼,ワガチョウナガヌマ,WAGACHO NAGANUMA,十四地割,39.288635,141.02448
和賀町長沼,ワガチョウナガヌマ,WAGACHO NAGANUMA,七地割,39.295636,141.031132
和賀町藤根,ワガチョウフジネ,WAGACHO FUJINE,十七地割,39.303785,141.031467
和賀町藤根,ワガチョウフジネ,WAGACHO FUJINE,十四地割,39.313232,141.029638
和賀町藤根,ワガチョウフジネ,WAGACHO FUJINE,十五地割,39.310025,141.027726
和賀町藤根,ワガチョウフジネ,WAGACHO FUJINE,十六地割,39.306576,141.032035
和賀町岩崎,ワガチョウイワサキ,WAGACHO IWASAKI,二十二地割,39.284641,141.029943
和賀町長沼,ワガチョウナガヌマ,WAGACHO NAGANUMA,九地割,39.294399,141.029369
和賀町後藤,ワガチョウゴトウ,WAGACHO GOTO,九地割,39.336786,141.031935
和賀町後藤,ワガチョウゴトウ,WAGACHO GOTO,八地割,39.334091,141.030116
和賀町長沼,ワガチョウナガヌマ,WAGACHO NAGANUMA,六地割,39.298193,141.032474
和賀町岩崎,ワガチョウイワサキ,WAGACHO IWASAKI,二十地割,39.282746,141.032562
和賀町岩崎,ワガチョウイワサキ,WAGACHO IWASAKI,五地割,39.267201,141.037991
和賀町岩崎新田,ワガチョウイワサキシンデン,WAGACHO IWASAKISHINDEN,十地割,39.275711,141.034659
和賀町岩崎,ワガチョウイワサキ,WAGACHO IWASAKI,七地割,39.256721,141.032585
和賀町岩崎,ワガチョウイワサキ,WAGACHO IWASAKI,十五地割,39.273648,141.040687
和賀町岩崎,ワガチョウイワサキ,WAGACHO IWASAKI,十九地割,39.281884,141.034353
和賀町藤根,ワガチョウフジネ,WAGACHO FUJINE,十三地割,39.318811,141.036051
和賀町藤根,ワガチョウフジネ,WAGACHO FUJINE,八地割,39.326808,141.038139
相去町,アイサリチョウ,AISARICHO,日香下,39.254443,141.035446
和賀町藤根,ワガチョウフジネ,WAGACHO FUJINE,十八地割,39.303024,141.037306
和賀町岩崎,ワガチョウイワサキ,WAGACHO IWASAKI,六地割,39.262851,141.035963
和賀町後藤,ワガチョウゴトウ,WAGACHO GOTO,十地割,39.333645,141.037929
和賀町岩崎,ワガチョウイワサキ,WAGACHO IWASAKI,二十三地割,39.28378,141.035144
和賀町岩崎,ワガチョウイワサキ,WAGACHO IWASAKI,二十四地割,39.286441,141.034903
和賀町藤根,ワガチョウフジネ,WAGACHO FUJINE,二十地割,39.31051,141.037546
和賀町岩崎,ワガチョウイワサキ,WAGACHO IWASAKI,二十五地割,39.282656,141.042333
和賀町藤根,ワガチョウフジネ,WAGACHO FUJINE,十二地割,39.319323,141.040907
和賀町長沼,ワガチョウナガヌマ,WAGACHO NAGANUMA,八地割,39.294562,141.037502
和賀町後藤,ワガチョウゴトウ,WAGACHO GOTO,十一地割,39.333994,141.041939
下江釣子,シモエヅリコ,SHIMOEZURIKO,十地割,39.29437,141.041204
下江釣子,シモエヅリコ,SHIMOEZURIKO,十一地割,39.298093,141.040229
和賀町藤根,ワガチョウフジネ,WAGACHO FUJINE,二十一地割,39.312217,141.043116
相去町,アイサリチョウ,AISARICHO,旭,39.251097,141.038043
和賀町藤根,ワガチョウフジネ,WAGACHO FUJINE,九地割,39.323954,141.041271
相去町,アイサリチョウ,AISARICHO,内野,39.256829,141.040493
相去町,アイサリチョウ,AISARICHO,上三十人町,39.261077,141.047918
下江釣子,シモエヅリコ,SHIMOEZURIKO,九地割,39.291839,141.044039
和賀町岩崎,ワガチョウイワサキ,WAGACHO IWASAKI,十八地割,39.281673,141.041584
和賀町岩崎,ワガチョウイワサキ,WAGACHO IWASAKI,十四地割,39.271368,141.042905
和賀町藤根,ワガチョウフジネ,WAGACHO FUJINE,十九地割,39.306762,141.041628
和賀町藤根,ワガチョウフジネ,WAGACHO FUJINE,二十六地割,39.307666,141.0462
和賀町後藤,ワガチョウゴトウ,WAGACHO GOTO,十二地割,39.330994,141.046429
下江釣子,シモエヅリコ,SHIMOEZURIKO,十二地割,39.296443,141.046995
和賀町岩崎,ワガチョウイワサキ,WAGACHO IWASAKI,八地割,39.268867,141.043402
和賀町藤根,ワガチョウフジネ,WAGACHO FUJINE,二十二地割,39.312434,141.04791
下江釣子,シモエヅリコ,SHIMOEZURIKO,十三地割,39.299504,141.046865
和賀町藤根,ワガチョウフジネ,WAGACHO FUJINE,二十九地割,39.300603,141.048041
和賀町藤根,ワガチョウフジネ,WAGACHO FUJINE,十地割,39.321688,141.048315
和賀町岩崎,ワガチョウイワサキ,WAGACHO IWASAKI,十六地割,39.276632,141.046505
下江釣子,シモエヅリコ,SHIMOEZURIKO,八地割,39.291892,141.045589
和賀町藤根,ワガチョウフジネ,WAGACHO FUJINE,十一地割,39.31795,141.050915
和賀町藤根,ワガチョウフジネ,WAGACHO FUJINE,二十八地割,39.302851,141.048745
和賀町藤根,ワガチョウフジネ,WAGACHO FUJINE,二十七地割,39.305054,141.049308
和賀町岩崎,ワガチョウイワサキ,WAGACHO IWASAKI,二十六地割,39.284689,141.04823
和賀町藤根,ワガチョウフジネ,WAGACHO FUJINE,二十五地割,39.308643,141.049186
下江釣子,シモエヅリコ,SHIMOEZURIKO,七地割,39.292806,141.047967
和賀町岩崎,ワガチョウイワサキ,WAGACHO IWASAKI,十七地割,39.279316,141.048976
下江釣子,シモエヅリコ,SHIMOEZURIKO,十四地割,39.296824,141.050789
和賀町岩崎,ワガチョウイワサキ,WAGACHO IWASAKI,二十七地割,39.284916,141.054076
和賀町岩崎,ワガチョウイワサキ,WAGACHO IWASAKI,二十八地割,39.281847,141.05031
滑田,ナメシダ,NAMESHIDA,三地割,39.321536,141.051995
和賀町岩崎,ワガチョウイワサキ,WAGACHO IWASAKI,十二地割,39.278302,141.052738
和賀町後藤,ワガチョウゴトウ,WAGACHO GOTO,十三地割,39.328265,141.054314
和賀町藤根,ワガチョウフジネ,WAGACHO FUJINE,二十三地割,39.311245,141.054991
和賀町藤根,ワガチョウフジネ,WAGACHO FUJINE,二十四地割,39.307879,141.053763
和賀町岩崎,ワガチョウイワサキ,WAGACHO IWASAKI,二十九地割,39.280565,141.052812
新平,ニツペイ,NITSUPEI,一地割,39.325525,141.051009
下江釣子,シモエヅリコ,SHIMOEZURIKO,六地割,39.292534,141.056992
滑田,ナメシダ,NAMESHIDA,五地割,39.31527,141.05721
下江釣子,シモエヅリコ,SHIMOEZURIKO,十五地割,39.295809,141.059101
滑田,ナメシダ,NAMESHIDA,七地割,39.310058,141.05629
上江釣子,カミエヅリコ,KAMIEZURIKO,一地割,39.299596,141.057777
藤沢,フジサワ,FUJISAWA,二地割,39.33792,141.059075
下江釣子,シモエヅリコ,SHIMOEZURIKO,五地割,39.29429,141.056141
相去町,アイサリチョウ,AISARICHO,上成沢,39.263407,141.06253
和賀町岩崎,ワガチョウイワサキ,WAGACHO IWASAKI,十一地割,39.280757,141.060081
滑田,ナメシダ,NAMESHIDA,四地割,39.317043,141.059227
滑田,ナメシダ,NAMESHIDA,六地割,39.314729,141.060055
滑田,ナメシダ,NAMESHIDA,一地割,39.318884,141.061972
相去町,アイサリチョウ,AISARICHO,下三十人町,39.267477,141.061743
下江釣子,シモエヅリコ,SHIMOEZURIKO,四地割,39.292591,141.060197
上江釣子,カミエヅリコ,KAMIEZURIKO,三地割,39.303224,141.060509
和賀町岩崎,ワガチョウイワサキ,WAGACHO IWASAKI,三十地割,39.281795,141.060994
滑田,ナメシダ,NAMESHIDA,九地割,39.305522,141.061807
滑田,ナメシダ,NAMESHIDA,十三地割,39.31099,141.060113
滑田,ナメシダ,NAMESHIDA,八地割,39.307904,141.062592
上江釣子,カミエヅリコ,KAMIEZURIKO,四地割,39.301883,141.061512
上江釣子,カミエヅリコ,KAMIEZURIKO,二地割,39.301033,141.059619
和賀町岩崎,ワガチョウイワサキ,WAGACHO IWASAKI,三十一地割,39.284028,141.062119
相去町,アイサリチョウ,AISARICHO,大清水,39.255839,141.061902
滑田,ナメシダ,NAMESHIDA,二地割,39.318898,141.061042
新平,ニツペイ,NITSUPEI,二地割,39.321098,141.065289
相去町,アイサリチョウ,AISARICHO,上寒田清水,39.253664,141.060328
村崎野,ムラサキノ,MURASAKINO,一地割,39.343599,141.063574
藤沢,フジサワ,FUJISAWA,一地割,39.333591,141.060411
村崎野,ムラサキノ,MURASAKINO,二地割,39.3401,141.063164
上江釣子,カミエヅリコ,KAMIEZURIKO,五地割,39.299424,141.064693
新平,ニツペイ,NITSUPEI,三地割,39.326382,141.064951
滑田,ナメシダ,NAMESHIDA,十四地割,39.315747,141.064481
上江釣子,カミエヅリコ,KAMIEZURIKO,六地割,39.300861,141.066818
相去町,アイサリチョウ,AISARICHO,上大谷地,39.255229,141.067701
相去町,アイサリチョウ,AISARICHO,下成沢,39.265295,141.070989
下江釣子,シモエヅリコ,SHIMOEZURIKO,十六地割,39.296326,141.068801
相去町,アイサリチョウ,AISARICHO,下寒田清水,39.251119,141.064194
下江釣子,シモエヅリコ,SHIMOEZURIKO,三地割,39.29443,141.065577
和賀町岩崎,ワガチョウイワサキ,WAGACHO IWASAKI,三十三地割,39.282491,141.064303
相去町,アイサリチョウ,AISARICHO,中成沢,39.264847,141.071304
和賀町岩崎,ワガチョウイワサキ,WAGACHO IWASAKI,三十二地割,39.284201,141.065308
滑田,ナメシダ,NAMESHIDA,十二地割,39.31074,141.066926
藤沢,フジサワ,FUJISAWA,三地割,39.329285,141.065171
上鬼柳,カミオニヤナギ,KAMIONIYANAGI,十三地割,39.286938,141.065891
滑田,ナメシダ,NAMESHIDA,十地割,39.30464,141.067578
鬼柳町,オニヤナギチョウ,ONIYANAGICHO,膝口,39.280292,141.067924
新平,ニツペイ,NITSUPEI,四地割,39.322397,141.068758
上江釣子,カミエヅリコ,KAMIEZURIKO,七地割,39.300414,141.069565
滑田,ナメシダ,NAMESHIDA,十五地割,39.31712,141.07135
滑田,ナメシダ,NAMESHIDA,十六地割,39.312898,141.068806
村崎野,ムラサキノ,MURASAKINO,四地割,39.347579,141.07315
鬼柳町,オニヤナギチョウ,ONIYANAGICHO,寺田,39.282395,141.070427
鬼柳町,オニヤナギチョウ,ONIYANAGICHO,六軒,39.276424,141.073232
滑田,ナメシダ,NAMESHIDA,十一地割,39.309133,141.071487
滑田,ナメシダ,NAMESHIDA,十七地割,39.31038,141.070309
新平,ニツペイ,NITSUPEI,五地割,39.323408,141.06984
藤沢,フジサワ,FUJISAWA,五地割,39.329938,141.07604
下江釣子,シモエヅリコ,SHIMOEZURIKO,二地割,39.295053,141.069897
上江釣子,カミエヅリコ,KAMIEZURIKO,八地割,39.303697,141.072538
上江釣子,カミエヅリコ,KAMIEZURIKO,十七地割,39.298064,141.0741
上江釣子,カミエヅリコ,KAMIEZURIKO,十八地割,39.295995,141.075076
上江釣子,カミエヅリコ,KAMIEZURIKO,十六地割,39.301286,141.074426
鬼柳町,オニヤナギチョウ,ONIYANAGICHO,中佐野,39.279012,141.075976
鬼柳町,オニヤナギチョウ,ONIYANAGICHO,元年,39.280976,141.075685
相去町,アイサリチョウ,AISARICHO,中大谷地,39.2529,141.078096
滑田,ナメシダ,NAMESHIDA,十八地割,39.31094,141.076615
鬼柳町,オニヤナギチョウ,ONIYANAGICHO,鼠川原,39.284215,141.078762
滑田,ナメシダ,NAMESHIDA,十九地割,39.313644,141.076811
上江釣子,カミエヅリコ,KAMIEZURIKO,九地割,39.302832,141.078164
村崎野,ムラサキノ,MURASAKINO,八地割,39.334341,141.077864
滑田,ナメシダ,NAMESHIDA,二十地割,39.314227,141.077201
相去町,アイサリチョウ,AISARICHO,大谷地,39.254634,141.077285
上江釣子,カミエヅリコ,KAMIEZURIKO,十地割,39.305913,141.076027
相去町,アイサリチョウ,AISARICHO,土井,39.24606,141.078149
飯豊,イイトヨ,IITOYO,十一地割,39.351666,141.07803
藤沢,フジサワ,FUJISAWA,十二地割,39.322711,141.082466
上江釣子,カミエヅリコ,KAMIEZURIKO,二十地割,39.292149,141.082053
相去町,アイサリチョウ,AISARICHO,揚場,39.247246,141.080031
村崎野,ムラサキノ,MURASAKINO,七地割,39.337452,141.08354
相去町,アイサリチョウ,AISARICHO,上土井,39.245474,141.079259
藤沢,フジサワ,FUJISAWA,七地割,39.328024,141.081985
藤沢,フジサワ,FUJISAWA,八地割,39.323331,141.079733
飯豊,イイトヨ,IITOYO,十地割,39.35174,141.081455
相去町,アイサリチョウ,AISARICHO,中平沢,39.241452,141.079882
上江釣子,カミエヅリコ,KAMIEZURIKO,十五地割,39.29742,141.081589
鬼柳町,オニヤナギチョウ,ONIYANAGICHO,柳上,39.275838,141.083013
上江釣子,カミエヅリコ,KAMIEZURIKO,十九地割,39.294862,141.083287
藤沢,フジサワ,FUJISAWA,六地割,39.331418,141.079944
上江釣子,カミエヅリコ,KAMIEZURIKO,十一地割,39.303985,141.080466
上江釣子,カミエヅリコ,KAMIEZURIKO,十三地割,39.301468,141.085046
鳩岡崎,ハトオカザキ,HATOKAZAKI,三地割,39.314046,141.082533
鬼柳町,オニヤナギチョウ,ONIYANAGICHO,新井田,39.27808,141.082692
相去町,アイサリチョウ,AISARICHO,大谷地長根,39.250479,141.081841
飯豊,イイトヨ,IITOYO,十五地割,39.350234,141.081178
村崎野,ムラサキノ,MURASAKINO,五地割,39.341711,141.08743
相去町,アイサリチョウ,AISARICHO,大松沢,39.244069,141.084111
相去町,アイサリチョウ,AISARICHO,葛西檀,39.263766,141.086115
下鬼柳,シモオニヤナギ,SHIMONIYANAGI,十七地割,39.267204,141.088872
鬼柳町,オニヤナギチョウ,ONIYANAGICHO,下川原,39.281368,141.084949
鳩岡崎,ハトオカザキ,HATOKAZAKI,四地割,39.311177,141.081419
相去町,アイサリチョウ,AISARICHO,下大谷地,39.251934,141.084476
藤沢,フジサワ,FUJISAWA,十一地割,39.318775,141.083863
飯豊,イイトヨ,IITOYO,九地割,39.356111,141.084583
村崎野,ムラサキノ,MURASAKINO,九地割,39.33009,141.086929
相去町,アイサリチョウ,AISARICHO,小門岡,39.249468,141.085569
相去町,アイサリチョウ,AISARICHO,滝の沢,39.264694,141.088296
下鬼柳,シモオニヤナギ,SHIMONIYANAGI,四地割,39.282827,141.091036
相去町,アイサリチョウ,AISARICHO,高前檀,39.261872,141.085362
相去町,アイサリチョウ,AISARICHO,中土井,39.247256,141.084455
上江釣子,カミエヅリコ,KAMIEZURIKO,十四地割,39.296689,141.082796
鳩岡崎,ハトオカザキ,HATOKAZAKI,五地割,39.306241,141.085947
相去町,アイサリチョウ,AISARICHO,平林,39.253464,141.094368
鬼柳町,オニヤナギチョウ,ONIYANAGICHO,満屋,39.274308,141.086899
北鬼柳,キタオニヤナギ,KITAONIYANAGI,二十六地割,39.289082,141.088136
飯豊,イイトヨ,IITOYO,十七地割,39.347823,141.088315
飯豊,イイトヨ,IITOYO,十六地割,39.347104,141.088746
上江釣子,カミエヅリコ,KAMIEZURIKO,十二地割,39.302894,141.087289
鳩岡崎,ハトオカザキ,HATOKAZAKI,二地割,39.313466,141.086628
飯豊,イイトヨ,IITOYO,十八地割,39.348334,141.089011
相去町,アイサリチョウ,AISARICHO,和田,39.236349,141.090865
北鬼柳,キタオニヤナギ,KITAONIYANAGI,十四地割,39.296215,141.08729
北鬼柳,キタオニヤナギ,KITAONIYANAGI,二十五地割,39.291172,141.087008
相去町,アイサリチョウ,AISARICHO,山根梨の木,39.244153,141.095892
鬼柳町,オニヤナギチョウ,ONIYANAGICHO,田の神,39.27734,141.089753
相去町,アイサリチョウ,AISARICHO,七里,39.232789,141.088193
飯豊,イイトヨ,IITOYO,十九地割,39.352026,141.091426
村崎野,ムラサキノ,MURASAKINO,十地割,39.337075,141.090228
相去町,アイサリチョウ,AISARICHO,寺後沢,39.24914,141.087915
飯豊,イイトヨ,IITOYO,八地割,39.357201,141.087551
北鬼柳,キタオニヤナギ,KITAONIYANAGI,十九地割,39.29422,141.092899
北鬼柳,キタオニヤナギ,KITAONIYANAGI,二十一地割,39.291822,141.09247
鬼柳町,オニヤナギチョウ,ONIYANAGICHO,反目,39.280434,141.089899
藤沢,フジサワ,FUJISAWA,十四地割,39.315754,141.089571
相去町,アイサリチョウ,AISARICHO,下土井,39.248599,141.090412
北鬼柳,キタオニヤナギ,KITAONIYANAGI,十五地割,39.295161,141.093254
北鬼柳,キタオニヤナギ,KITAONIYANAGI,二十地割,39.292698,141.093331
相去町,アイサリチョウ,AISARICHO,和田尻,39.23645,141.093676
相去町,アイサリチョウ,AISARICHO,和田前,39.234493,141.091268
鬼柳町,オニヤナギチョウ,ONIYANAGICHO,宿,39.271366,141.091397
北鬼柳,キタオニヤナギ,KITAONIYANAGI,十六地割,39.29638,141.091913
相去町,アイサリチョウ,AISARICHO,笹長根,39.230744,141.092968
北鬼柳,キタオニヤナギ,KITAONIYANAGI,十一地割,39.299665,141.094367
藤沢,フジサワ,FUJISAWA,十三地割,39.32351,141.092109
飯豊,イイトヨ,IITOYO,七地割,39.357712,141.091242
北鬼柳,キタオニヤナギ,KITAONIYANAGI,一地割,39.30876,141.092904
鬼柳町,オニヤナギチョウ,ONIYANAGICHO,堰合,39.276191,141.093906
飯豊,イイトヨ,IITOYO,二十一地割,39.343698,141.097756
北鬼柳,キタオニヤナギ,KITAONIYANAGI,九地割,39.301389,141.091937
飯豊,イイトヨ,IITOYO,二十地割,39.347903,141.094015
相去町,アイサリチョウ,AISARICHO,舘,39.248065,141.096268
北鬼柳,キタオニヤナギ,KITAONIYANAGI,二十七地割,39.287345,141.093048
村崎野,ムラサキノ,MURASAKINO,十三地割,39.323532,141.100034
鬼柳町,オニヤナギチョウ,ONIYANAGICHO,卯の木,39.270677,141.095692
北鬼柳,キタオニヤナギ,KITAONIYANAGI,二十二地割,39.290791,141.095844
村崎野,ムラサキノ,MURASAKINO,十二地割,39.333264,141.093749
相去町,アイサリチョウ,AISARICHO,寺前沢,39.249807,141.095519
下鬼柳,シモオニヤナギ,SHIMONIYANAGI,十六地割,39.266345,141.096501
飯豊,イイトヨ,IITOYO,六地割,39.349862,141.097732
北鬼柳,キタオニヤナギ,KITAONIYANAGI,二地割,39.307578,141.09567
北鬼柳,キタオニヤナギ,KITAONIYANAGI,八地割,39.304883,141.095
相去町,アイサリチョウ,AISARICHO,旧舘沢,39.260932,141.097311
相去町,アイサリチョウ,AISARICHO,往還西,39.235568,141.098738
藤沢,フジサワ,FUJISAWA,十五地割,39.310664,141.098922
北鬼柳,キタオニヤナギ,KITAONIYANAGI,二十九地割,39.285529,141.100913
北鬼柳,キタオニヤナギ,KITAONIYANAGI,二十三地割,39.287942,141.097245
村崎野,ムラサキノ,MURASAKINO,十一地割,39.340973,141.099887
鬼柳町,オニヤナギチョウ,ONIYANAGICHO,都鳥,39.277023,141.098466
藤沢,フジサワ,FUJISAWA,十六地割,39.322531,141.096787
北鬼柳,キタオニヤナギ,KITAONIYANAGI,十地割,39.299121,141.097744
北鬼柳,キタオニヤナギ,KITAONIYANAGI,二十八地割,39.286783,141.097172
北鬼柳,キタオニヤナギ,KITAONIYANAGI,三地割,39.30546,141.099269
飯豊,イイトヨ,IITOYO,五地割,39.351653,141.099715
北鬼柳,キタオニヤナギ,KITAONIYANAGI,七地割,39.303784,141.097794
北鬼柳,キタオニヤナギ,KITAONIYANAGI,十七地割,39.295507,141.100115
村崎野,ムラサキノ,MURASAKINO,二十地割,39.342352,141.108105
北鬼柳,キタオニヤナギ,KITAONIYANAGI,十八地割,39.293822,141.101603
下鬼柳,シモオニヤナギ,SHIMONIYANAGI,十五地割,39.26669,141.100587
町分,マチブン,MACHIBUN,十八地割,39.288624,141.100946
北鬼柳,キタオニヤナギ,KITAONIYANAGI,五地割,39.302675,141.101292
北鬼柳,キタオニヤナギ,KITAONIYANAGI,三十三地割,39.286809,141.102914
相去町,アイサリチョウ,AISARICHO,岩の目,39.2356,141.101177
鬼柳町,オニヤナギチョウ,ONIYANAGICHO,笊渕,39.270718,141.102413
相去町,アイサリチョウ,AISARICHO,蒼前森,39.259519,141.102286
相去町,アイサリチョウ,AISARICHO,舘下,39.248082,141.100367
飯豊,イイトヨ,IITOYO,二十二地割,39.348764,141.10183
北鬼柳,キタオニヤナギ,KITAONIYANAGI,六地割,39.299401,141.101654
相去町,アイサリチョウ,AISARICHO,丙午,39.245563,141.104887
相去町,アイサリチョウ,AISARICHO,山田,39.256351,141.105257
鬼柳町,オニヤナギチョウ,ONIYANAGICHO,打越,39.266528,141.108654
鬼柳町,オニヤナギチョウ,ONIYANAGICHO,荒高,39.276311,141.104979
藤沢,フジサワ,FUJISAWA,十七地割,39.313423,141.108856
村崎野,ムラサキノ,MURASAKINO,十八地割,39.331916,141.108461
町分,マチブン,MACHIBUN,七地割,39.2957,141.104507
町分,マチブン,MACHIBUN,三地割,39.29891,141.103694
村崎野,ムラサキノ,MURASAKINO,十九地割,39.338686,141.107897
北鬼柳,キタオニヤナギ,KITAONIYANAGI,四地割,39.307368,141.102964
相去町,アイサリチョウ,AISARICHO,下谷木,39.240311,141.10245
下鬼柳,シモオニヤナギ,SHIMONIYANAGI,十四地割,39.266478,141.102455
村崎野,ムラサキノ,MURASAKINO,十五地割,39.321669,141.113283
相去町,アイサリチョウ,AISARICHO,前塘,39.256566,141.101979
村崎野,ムラサキノ,MURASAKINO,十六地割,39.325804,141.112208
町分,マチブン,MACHIBUN,二地割,39.303177,141.105289
成田,ナリタ,NARITA,二十一地割,39.348943,141.105482
村崎野,ムラサキノ,MURASAKINO,十七地割,39.328014,141.10993
飯豊,イイトヨ,IITOYO,二十三地割,39.346327,141.106913
北鬼柳,キタオニヤナギ,KITAONIYANAGI,三十二地割,39.285668,141.104903
相去町,アイサリチョウ,AISARICHO,荒屋敷,39.253415,141.1067
北鬼柳,キタオニヤナギ,KITAONIYANAGI,三十一地割,39.28352,141.104907
成田,ナリタ,NARITA,二十地割,39.351526,141.104291
町分,マチブン,MACHIBUN,一地割,39.307152,141.106303
藤沢,フジサワ,FUJISAWA,十八地割,39.309454,141.108605
飯豊,イイトヨ,IITOYO,三地割,39.355907,141.105453
鬼柳町,オニヤナギチョウ,ONIYANAGICHO,糠塚,39.270703,141.10836
町分,マチブン,MACHIBUN,四地割,39.299568,141.106219
相去町,アイサリチョウ,AISARICHO,中新田,39.251176,141.106884
成田,ナリタ,NARITA,二十二地割,39.34983,141.109619
村崎野,ムラサキノ,MURASAKINO,十四地割,39.315644,141.114537
鬼柳町,オニヤナギチョウ,ONIYANAGICHO,荒堰,39.274006,141.108307
飯豊,イイトヨ,IITOYO,二十四地割,39.34453,141.106609
村崎野,ムラサキノ,MURASAKINO,二十二地割,39.334237,141.113475
相去町,アイサリチョウ,AISARICHO,朴の木,39.252749,141.108734
相去町,アイサリチョウ,AISARICHO,十二の木,39.254549,141.111024
相去町,アイサリチョウ,AISARICHO,西裏,39.260565,141.111627
成田,ナリタ,NARITA,十九地割,39.355211,141.110123
藤沢,フジサワ,FUJISAWA,十九地割,39.305209,141.116888
藤沢,フジサワ,FUJISAWA,二十地割,39.313052,141.112467
相去町,アイサリチョウ,AISARICHO,松の木,39.259218,141.111834
相去町,アイサリチョウ,AISARICHO,小糠沢,39.256845,141.110839
鬼柳町,オニヤナギチョウ,ONIYANAGICHO,川原小屋,39.270251,141.112387
相去町,アイサリチョウ,AISARICHO,白山道,39.25642,141.112714
鬼柳町,オニヤナギチョウ,ONIYANAGICHO,古川,39.272935,141.113227
成田,ナリタ,NARITA,二十三地割,39.349189,141.116411
稲瀬町,イナセチョウ,INASECHO,押切,39.239644,141.117513
相去町,アイサリチョウ,AISARICHO,熊堂,39.254994,141.112987
相去町,アイサリチョウ,AISARICHO,相去,39.261361,141.114587
鬼柳町,オニヤナギチョウ,ONIYANAGICHO,鷹鳥羽,39.268421,141.11739
相去町,アイサリチョウ,AISARICHO,東裏,39.260791,141.116601
相去町,アイサリチョウ,AISARICHO,西野,39.264348,141.114511
村崎野,ムラサキノ,MURASAKINO,二十三地割,39.331773,141.117974
村崎野,ムラサキノ,MURASAKINO,二十一地割,39.338687,141.115375
相去町,アイサリチョウ,AISARICHO,町浦,39.261156,141.115399
鬼柳町,オニヤナギチョウ,ONIYANAGICHO,町分,39.26669,141.116197
稲瀬町,イナセチョウ,INASECHO,上台,39.250761,141.124549
村崎野,ムラサキノ,MURASAKINO,二十四地割,39.32726,141.120676
成田,ナリタ,NARITA,二十六地割,39.342986,141.12242
藤沢,フジサワ,FUJISAWA,二十一地割,39.309665,141.119589
稲瀬町,イナセチョウ,INASECHO,前田,39.246084,141.123008
稲瀬町,イナセチョウ,INASECHO,金附,39.247368,141.119361
稲瀬町,イナセチョウ,INASECHO,地蔵堂,39.239514,141.120692
藤沢,フジサワ,FUJISAWA,二十二地割,39.305688,141.120681
二子町,フタゴチョウ,FUTAGOCHO,明神,39.313134,141.13134
二子町,フタゴチョウ,FUTAGOCHO,高屋,39.310637,141.1283
稲瀬町,イナセチョウ,INASECHO,山岸,39.240761,141.122995
成田,ナリタ,NARITA,二十五地割,39.349076,141.126809
二子町,フタゴチョウ,FUTAGOCHO,南田,39.318732,141.126252
稲瀬町,イナセチョウ,INASECHO,岩脇,39.265638,141.134745
二子町,フタゴチョウ,FUTAGOCHO,上野,39.30658,141.127904
立花,タチバナ,TACHIBANA,十四地割,39.27209,141.12675
成田,ナリタ,NARITA,二十八地割,39.346524,141.127286
二子町,フタゴチョウ,FUTAGOCHO,築舘,39.323375,141.129943
稲瀬町,イナセチョウ,INASECHO,水越,39.245496,141.131641
立花,タチバナ,TACHIBANA,十二地割,39.277601,141.127698
稲瀬町,イナセチョウ,INASECHO,大谷地,39.241702,141.130581
成田,ナリタ,NARITA,二十七地割,39.344701,141.129563
立花,タチバナ,TACHIBANA,十三地割,39.274351,141.1285
二子町,フタゴチョウ,FUTAGOCHO,秋子沢,39.328677,141.132305
二子町,フタゴチョウ,FUTAGOCHO,堰向,39.321626,141.131135
立花,タチバナ,TACHIBANA,十五地割,39.275901,141.134865
二子町,フタゴチョウ,FUTAGOCHO,西川目,39.319277,141.133155
立花,タチバナ,TACHIBANA,十地割,39.281872,141.132906
里分,サトブン,SATOBUN,二地割,39.29847,141.131499
里分,サトブン,SATOBUN,八地割,39.291728,141.132847
成田,ナリタ,NARITA,五地割,39.34676,141.132377
里分,サトブン,SATOBUN,十二地割,39.288613,141.134682
二子町,フタゴチョウ,FUTAGOCHO,中島,39.314709,141.134925
二子町,フタゴチョウ,FUTAGOCHO,野田,39.308249,141.134811
立花,タチバナ,TACHIBANA,十一地割,39.277899,141.133458
稲瀬町,イナセチョウ,INASECHO,内門岡,39.262663,141.143877
稲瀬町,イナセチョウ,INASECHO,田合田,39.255438,141.140775
立花,タチバナ,TACHIBANA,九地割,39.280458,141.133571
里分,サトブン,SATOBUN,四地割,39.293794,141.134403
成田,ナリタ,NARITA,一地割,39.344379,141.132894
里分,サトブン,SATOBUN,七地割,39.292376,141.136071
二子町,フタゴチョウ,FUTAGOCHO,羽々下,39.323645,141.133637
二子町,フタゴチョウ,FUTAGOCHO,蟹沢,39.300468,141.13615
二子町,フタゴチョウ,FUTAGOCHO,渋谷,39.329013,141.137341
二子町,フタゴチョウ,FUTAGOCHO,坊舘,39.331526,141.140787
二子町,フタゴチョウ,FUTAGOCHO,中居俵,39.304028,141.138443
立花,タチバナ,TACHIBANA,八地割,39.279035,141.135174
立花,タチバナ,TACHIBANA,十六地割,39.276673,141.139461
立花,タチバナ,TACHIBANA,五地割,39.283702,141.137489
二子町,フタゴチョウ,FUTAGOCHO,下中島,39.311028,141.136689
立花,タチバナ,TACHIBANA,七地割,39.281812,141.137943
二子町,フタゴチョウ,FUTAGOCHO,鳥喰,39.321265,141.141758
立花,タチバナ,TACHIBANA,三地割,39.287368,141.13875
二子町,フタゴチョウ,FUTAGOCHO,才の羽々,39.306479,141.140232
小鳥崎,コトリザキ,KOTORIZAKI,一地割,39.299116,141.139742
小鳥崎,コトリザキ,KOTORIZAKI,二地割,39.298084,141.142518
里分,サトブン,SATOBUN,六地割,39.29099,141.138284
里分,サトブン,SATOBUN,五地割,39.295193,141.139824
立花,タチバナ,TACHIBANA,六地割,39.283493,141.138965
立花,タチバナ,TACHIBANA,十七地割,39.280007,141.140007
二子町,フタゴチョウ,FUTAGOCHO,鳥喰前,39.319316,141.141357
二子町,フタゴチョウ,FUTAGOCHO,西小沼,39.317683,141.140764
二子町,フタゴチョウ,FUTAGOCHO,宿西,39.3284,141.14027
立花,タチバナ,TACHIBANA,四地割,39.285668,141.139556
立花,タチバナ,TACHIBANA,二十地割,39.282814,141.142165
二子町,フタゴチョウ,FUTAGOCHO,下岡島,39.308029,141.141783
小鳥崎,コトリザキ,KOTORIZAKI,三地割,39.297011,141.144404
二子町,フタゴチョウ,FUTAGOCHO,山岸,39.303176,141.14006
二子町,フタゴチョウ,FUTAGOCHO,上岡島,39.311993,141.142839
二子町,フタゴチョウ,FUTAGOCHO,宿東,39.327501,141.143186
二子町,フタゴチョウ,FUTAGOCHO,小沼,39.316464,141.144455
立花,タチバナ,TACHIBANA,二地割,39.29248,141.144276
立花,タチバナ,TACHIBANA,十八地割,39.277856,141.144746
立花,タチバナ,TACHIBANA,二十二地割,39.286051,141.146951
立花,タチバナ,TACHIBANA,二十四地割,39.289519,141.150047
立花,タチバナ,TACHIBANA,二十三地割,39.287686,141.147761
更木,サラキ,SARAKI,八地割,39.337318,141.144588
立花,タチバナ,TACHIBANA,一地割,39.290058,141.146456
二子町,フタゴチョウ,FUTAGOCHO,宿表,39.330455,141.145028
二子町,フタゴチョウ,FUTAGOCHO,舘下,39.303605,141.144404
二子町,フタゴチョウ,FUTAGOCHO,宿裏,39.328124,141.144316
立花,タチバナ,TACHIBANA,十九地割,39.281454,141.14544
更木,サラキ,SARAKI,十八地割,39.336045,141.145702
二子町,フタゴチョウ,FUTAGOCHO,上瀬打場,39.331071,141.145996
二子町,フタゴチョウ,FUTAGOCHO,千苅,39.304076,141.145665
立花,タチバナ,TACHIBANA,二十一地割,39.283308,141.146491
更木,サラキ,SARAKI,四地割,39.343861,141.145754
黒岩,クロイワ,KUROIWA,二十四地割,39.300392,141.149617
更木,サラキ,SARAKI,三地割,39.347296,141.146625
更木,サラキ,SARAKI,二地割,39.349634,141.149178
更木,サラキ,SARAKI,十地割,39.340228,141.148727
二子町,フタゴチョウ,FUTAGOCHO,田尻,39.317217,141.147397
二子町,フタゴチョウ,FUTAGOCHO,中村,39.310748,141.147356
更木,サラキ,SARAKI,十一地割,39.342521,141.147245
二子町,フタゴチョウ,FUTAGOCHO,矢白,39.320984,141.150282
更木,サラキ,SARAKI,十九地割,39.336629,141.149067
立花,タチバナ,TACHIBANA,二十六地割,39.280119,141.15705
二子町,フタゴチョウ,FUTAGOCHO,尻引,39.312954,141.150691
稲瀬町,イナセチョウ,INASECHO,福田地,39.261564,141.156361
更木,サラキ,SARAKI,十二地割,39.344791,141.150012
二子町,フタゴチョウ,FUTAGOCHO,上川端,39.323859,141.151498
二子町,フタゴチョウ,FUTAGOCHO,下川端,39.31781,141.153411
更木,サラキ,SARAKI,一地割,39.353164,141.149671
更木,サラキ,SARAKI,十六地割,39.340828,141.151586
更木,サラキ,SARAKI,十五地割,39.344367,141.151999
黒岩,クロイワ,KUROIWA,二十三地割,39.302786,141.150481
更木,サラキ,SARAKI,十三地割,39.350039,141.151672
黒岩,クロイワ,KUROIWA,二十地割,39.306541,141.152167
更木,サラキ,SARAKI,十七地割,39.338453,141.150871
更木,サラキ,SARAKI,三十四地割,39.332811,141.156089
立花,タチバナ,TACHIBANA,二十七地割,39.285902,141.159161
更木,サラキ,SARAKI,十四地割,39.348283,141.152675
立花,タチバナ,TACHIBANA,二十五地割,39.285053,141.155484
更木,サラキ,SARAKI,二十二地割,39.341199,141.152802
更木,サラキ,SARAKI,二十地割,39.336132,141.152928
黒岩,クロイワ,KUROIWA,十二地割,39.302729,141.154321
立花,タチバナ,TACHIBANA,三十地割,39.291254,141.155901
立花,タチバナ,TACHIBANA,二十九地割,39.290056,141.158222
二子町,フタゴチョウ,FUTAGOCHO,室屋,39.324964,141.153211
黒岩,クロイワ,KUROIWA,十九地割,39.309586,141.153905
黒岩,クロイワ,KUROIWA,十四地割,39.307269,141.157023
更木,サラキ,SARAKI,二十一地割,39.33845,141.155454
更木,サラキ,SARAKI,二十三地割,39.3415,141.155151
更木,サラキ,SARAKI,二十七地割,39.352551,141.154162
黒岩,クロイワ,KUROIWA,十八地割,39.311386,141.155833
更木,サラキ,SARAKI,三十三地割,39.334876,141.160676
黒岩,クロイワ,KUROIWA,十三地割,39.30553,141.156901
稲瀬町,イナセチョウ,INASECHO,岩川,39.259915,141.161672
稲瀬町,イナセチョウ,INASECHO,熊沢,39.272172,141.164384
平沢,ヒラサワ,HIRASAWA,五地割,39.325954,141.159231
更木,サラキ,SARAKI,二十四地割,39.342909,141.157903
黒岩,クロイワ,KUROIWA,十五地割,39.309513,141.158831
更木,サラキ,SARAKI,三十五地割,39.328623,141.160014
黒岩,クロイワ,KUROIWA,十六地割,39.311883,141.158271
黒岩,クロイワ,KUROIWA,十地割,39.302814,141.166864
更木,サラキ,SARAKI,二十九地割,39.345397,141.162668
更木,サラキ,SARAKI,二十八地割,39.352509,141.161681
黒岩,クロイワ,KUROIWA,十七地割,39.317615,141.160847
平沢,ヒラサワ,HIRASAWA,三地割,39.323285,141.158522
立花,タチバナ,TACHIBANA,二十八地割,39.288453,141.161512
平沢,ヒラサワ,HIRASAWA,四地割,39.32307,141.160572
黒岩,クロイワ,KUROIWA,七地割,39.312918,141.161322
口内町,クチナイチョウ,KUCHINAICHO,金成,39.292614,141.169499
更木,サラキ,SARAKI,三十地割,39.344286,141.165482
更木,サラキ,SARAKI,三十二地割,39.340259,141.165992
更木,サラキ,SARAKI,三十一地割,39.34229,141.16057
平沢,ヒラサワ,HIRASAWA,六地割,39.324635,141.161352
黒岩,クロイワ,KUROIWA,九地割,39.308576,141.161738
平沢,ヒラサワ,HIRASAWA,二地割,39.3212,141.162262
黒岩,クロイワ,KUROIWA,八地割,39.310653,141.163686
更木,サラキ,SARAKI,三十六地割,39.332833,141.168267
黒岩,クロイワ,KUROIWA,二地割,39.303908,141.167496
平沢,ヒラサワ,HIRASAWA,七地割,39.32358,141.164817
平沢,ヒラサワ,HIRASAWA,九地割,39.327037,141.164938
湯沢,ユザワ,YUZAWA,七地割,39.31971,141.165242
臥牛,フシウシ,FUSHIUSHI,十三地割,39.363282,141.166857
臥牛,フシウシ,FUSHIUSHI,十四地割,39.368789,141.168166
湯沢,ユザワ,YUZAWA,五地割,39.317068,141.16755
口内町,クチナイチョウ,KUCHINAICHO,飯森,39.282729,141.170067
口内町,クチナイチョウ,KUCHINAICHO,小洞,39.276279,141.172075
黒岩,クロイワ,KUROIWA,五地割,39.314608,141.177896
黒岩,クロイワ,KUROIWA,三地割,39.305741,141.167816
平沢,ヒラサワ,HIRASAWA,八地割,39.325314,141.168674
平沢,ヒラサワ,HIRASAWA,十八地割,39.323955,141.17784
黒岩,クロイワ,KUROIWA,四地割,39.307532,141.174413
湯沢,ユザワ,YUZAWA,六地割,39.319876,141.169389
平沢,ヒラサワ,HIRASAWA,十地割,39.328026,141.169223
臥牛,フシウシ,FUSHIUSHI,六地割,39.351818,141.172315
臥牛,フシウシ,FUSHIUSHI,七地割,39.357605,141.170748
平沢,ヒラサワ,HIRASAWA,十一地割,39.330581,141.172137
臥牛,フシウシ,FUSHIUSHI,八地割,39.356115,141.173749
臥牛,フシウシ,FUSHIUSHI,十一地割,39.360813,141.175797
口内町,クチナイチョウ,KUCHINAICHO,国ケ森,39.287962,141.173574
湯沢,ユザワ,YUZAWA,一地割,39.32153,141.176341
口内町,クチナイチョウ,KUCHINAICHO,野,39.296796,141.176828
平沢,ヒラサワ,HIRASAWA,十二地割,39.32872,141.173799
平沢,ヒラサワ,HIRASAWA,十三地割,39.326856,141.178271
臥牛,フシウシ,FUSHIUSHI,九地割,39.357362,141.175681
口内町,クチナイチョウ,KUCHINAICHO,境田,39.289862,141.179281
口内町,クチナイチョウ,KUCHINAICHO,行仕,39.274373,141.179541
臥牛,フシウシ,FUSHIUSHI,十地割,39.356823,141.179027
口内町,クチナイチョウ,KUCHINAICHO,舘沢,39.284058,141.177062
臥牛,フシウシ,FUSHIUSHI,五地割,39.34934,141.18371
口内町,クチナイチョウ,KUCHINAICHO,大竹,39.311758,141.184416
平沢,ヒラサワ,HIRASAWA,十四地割,39.331005,141.178888
口内町,クチナイチョウ,KUCHINAICHO,寒風,39.295301,141.180148
口内町,クチナイチョウ,KUCHINAICHO,金田,39.297746,141.182975
口内町,クチナイチョウ,KUCHINAICHO,岩井,39.300658,141.191361
口内町,クチナイチョウ,KUCHINAICHO,中小池,39.292379,141.184735
口内町,クチナイチョウ,KUCHINAICHO,反町,39.290385,141.186219
口内町,クチナイチョウ,KUCHINAICHO,中野,39.307766,141.187451
口内町,クチナイチョウ,KUCHINAICHO,森合,39.296818,141.190074
口内町,クチナイチョウ,KUCHINAICHO,長根,39.293972,141.190804
口内町,クチナイチョウ,KUCHINAICHO,草刈場,39.278999,141.210688
口内町,クチナイチョウ,KUCHINAICHO,森,39.311432,141.191357
口内町,クチナイチョウ,KUCHINAICHO,飛沢,39.303767,141.193112
口内町,クチナイチョウ,KUCHINAICHO,飛,39.293983,141.196357
口内町,クチナイチョウ,KUCHINAICHO,青木田,39.299558,141.201497
口内町,クチナイチョウ,KUCHINAICHO,芦沢,39.308911,141.20335
口内町,クチナイチョウ,KUCHINAICHO,久田,39.287688,141.205722
口内町,クチナイチョウ,KUCHINAICHO,荒町,39.296954,141.202427
口内町,クチナイチョウ,KUCHINAICHO,仁田,39.273694,141.210502
口内町,クチナイチョウ,KUCHINAICHO,新町,39.293526,141.204994
口内町,クチナイチョウ,KUCHINAICHO,松坂,39.295554,141.206106
口内町,クチナイチョウ,KUCHINAICHO,千刈,39.284093,141.208405
口内町,クチナイチョウ,KUCHINAICHO,大越田,39.269881,141.216622
口内町,クチナイチョウ,KUCHINAICHO,大町,39.299108,141.213068
口内町,クチナイチョウ,KUCHINAICHO,蓬田,39.281721,141.215222
口内町,クチナイチョウ,KUCHINAICHO,新田,39.300181,141.221082
口内町,クチナイチョウ,KUCHINAICHO,堰根,39.285826,141.215339
口内町,クチナイチョウ,KUCHINAICHO,田谷,39.290589,141.218159
口内町,クチナイチョウ,KUCHINAICHO,下雲南,39.265172,141.219545
口内町,クチナイチョウ,KUCHINAICHO,雲南,39.282548,141.21919
口内町,クチナイチョウ,KUCHINAICHO,樋渡,39.276762,141.219538
口内町,クチナイチョウ,KUCHINAICHO,宝積,39.288485,141.22279
口内町,クチナイチョウ,KUCHINAICHO,大鳥田,39.274288,141.225268
口内町,クチナイチョウ,KUCHINAICHO,亀ケ森,39.283836,141.221855
口内町,クチナイチョウ,KUCHINAICHO,長洞,39.296983,141.227447
口内町,クチナイチョウ,KUCHINAICHO,宝海沼,39.268725,141.231676
口内町,クチナイチョウ,KUCHINAICHO,金峯山,39.285593,141.22959
口内町,クチナイチョウ,KUCHINAICHO,松越,39.281861,141.230841
口内町,クチナイチョウ,KUCHINAICHO,綾内,39.29304,141.227323
口内町,クチナイチョウ,KUCHINAICHO,古川口,39.27606,141.237477
口内町,クチナイチョウ,KUCHINAICHO,真木沢,39.282928,141.237582
口内町,クチナイチョウ,KUCHINAICHO,中島,39.271951,141.238545
口内町,クチナイチョウ,KUCHINAICHO,亀岩,39.273326,141.241743
口内町,クチナイチョウ,KUCHINAICHO,上野田,39.271647,141.243797
和賀町山口,ワガチョウヤマグチ,WAGACHO YAMAGUCHI,三十地割,39.295154,140.992715
和賀町山口,ワガチョウヤマグチ,WAGACHO YAMAGUCHI,十五地割,39.303702,140.954978
