name,name_kana,name_romaji,nickname,latitude,longitude
大字関場,,,,38.090371,140.721338
大字薄木,,,,38.099479,140.706337
大字沼田,,,,38.084415,140.703358
大字村田,,,,38.119057,140.718797
大字沼辺,,,,38.078,140.737678
大字小泉,,,,38.122395,140.750078
大字菅生,,,,38.159237,140.766478
大字足立,,,,38.14757,140.699855
