name,name_kana,name_romaji,nickname,latitude,longitude
泉中央南,イズミチュウオウミナミ,IZUMICHUOMINAMI,,38.320467,140.870928
将監殿二丁目,ショウゲントノ 2,SHOGENTONO 2,,38.345091,140.876018
友愛町,ユウアイチョウ,YUAICHO,,38.314207,140.893686
八乙女二丁目,ヤオトメ 2,YAOTOME 2,,38.309492,140.891786
上谷刈六丁目,カミヤガリ 6,KAMIYAGARI 6,,38.313961,140.879632
上谷刈二丁目,カミヤガリ 2,KAMIYAGARI 2,,38.317585,140.872208
八乙女一丁目,ヤオトメ 1,YAOTOME 1,,38.311295,140.891968
八乙女中央四丁目,ヤオトメチュウオウ 4,YAOTOMECHUO 4,,38.312677,140.888597
住吉台東二丁目,スミヨシダイヒガシ 2,SUMIYOSHIDAIHIGASHI 2,,38.328943,140.785613
高森八丁目,タカモリ 8,TAKAMORI 8,,38.336366,140.854365
将監殿一丁目,ショウゲントノ 1,SHOGENTONO 1,,38.339831,140.88188
将監六丁目,ショウゲン 6,SHOGEN 6,,38.33759,140.87787
虹の丘三丁目,ニジノオカ 3,NIJINOKA 3,,38.302069,140.868279
将監十二丁目,ショウゲン 12,SHOGEN 12,,38.340137,140.872625
南光台東三丁目,ナンコウダイヒガシ 3,NANKODAIHIGASHI 3,,38.302067,140.916062
将監十一丁目,ショウゲン 11,SHOGEN 11,,38.338541,140.872337
明石南四丁目,アカイシミナミ 4,AKAISHIMINAMI 4,,38.345801,140.886624
将監殿三丁目,ショウゲントノ 3,SHOGENTONO 3,,38.341935,140.87845
八乙女中央一丁目,ヤオトメチュウオウ 1,YAOTOMECHUO 1,,38.3119,140.883608
将監殿四丁目,ショウゲントノ 4,SHOGENTONO 4,,38.341685,140.873116
八乙女中央二丁目,ヤオトメチュウオウ 2,YAOTOMECHUO 2,,38.316252,140.882062
住吉台西二丁目,スミヨシダイニシ 2,SUMIYOSHIDAINISHI 2,,38.329224,140.777775
明石南三丁目,アカイシミナミ 3,AKAISHIMINAMI 3,,38.340706,140.886715
南中山六丁目,ミナミナカヤマ 6,MINAMINAKAYAMA 6,,38.310189,140.82156
八乙女三丁目,ヤオトメ 3,YAOTOME 3,,38.308679,140.896035
泉ケ丘一丁目,イズミガオカ 1,IZUMIGAOKA 1,,38.351655,140.870773
明石南六丁目,アカイシミナミ 6,AKAISHIMINAMI 6,,38.346061,140.882914
寺岡五丁目,テラオカ 5,TERAOKA 5,,38.34292,140.829057
泉ケ丘二丁目,イズミガオカ 2,IZUMIGAOKA 2,,38.354154,140.868863
館五丁目,ヤカタ 5,YAKATA 5,,38.31937,140.802548
東黒松,ヒガシクロマツ,HIGASHIKUROMATSU,,38.306889,140.890077
上谷刈五丁目,カミヤガリ 5,KAMIYAGARI 5,,38.313339,140.872954
旭丘堤一丁目,アサヒガオカツツミ 1,ASAHIGAOKATSUTSUMI 1,,38.299093,140.890141
向陽台一丁目,コウヨウダイ 1,KOYODAI 1,,38.335427,140.891286
将監十三丁目,ショウゲン 13,SHOGEN 13,,38.33831,140.86793
上谷刈一丁目,カミヤガリ 1,KAMIYAGARI 1,,38.316113,140.876455
将監五丁目,ショウゲン 5,SHOGEN 5,,38.339362,140.878227
向陽台二丁目,コウヨウダイ 2,KOYODAI 2,,38.339588,140.892889
将監七丁目,ショウゲン 7,SHOGEN 7,,38.335707,140.877472
泉ケ丘三丁目,イズミガオカ 3,IZUMIGAOKA 3,,38.357999,140.870458
住吉台東五丁目,スミヨシダイヒガシ 5,SUMIYOSHIDAIHIGASHI 5,,38.328642,140.791188
上谷刈三丁目,カミヤガリ 3,KAMIYAGARI 3,,38.31801,140.868924
八乙女中央五丁目,ヤオトメチュウオウ 5,YAOTOMECHUO 5,,38.31056,140.886679
永和台,エイワダイ,EIWADAI,,38.329175,140.905481
住吉台東三丁目,スミヨシダイヒガシ 3,SUMIYOSHIDAIHIGASHI 3,,38.332103,140.786107
上谷刈四丁目,カミヤガリ 4,KAMIYAGARI 4,,38.314927,140.872368
明石南一丁目,アカイシミナミ 1,AKAISHIMINAMI 1,,38.33931,140.889459
長命ケ丘東,チョウメイガオカヒガシ,CHOMEIGAOKAHIGASHI,,38.313619,140.84394
南光台南一丁目,ナンコウダイミナミ 1,NANKODAIMINAMI 1,,38.295971,140.900186
住吉台西三丁目,スミヨシダイニシ 3,SUMIYOSHIDAINISHI 3,,38.331095,140.772821
山の寺三丁目,ヤマノテラ 3,YAMANOTERA 3,,38.334493,140.903402
明石南五丁目,アカイシミナミ 5,AKAISHIMINAMI 5,,38.342606,140.883821
向陽台五丁目,コウヨウダイ 5,KOYODAI 5,,38.335173,140.899525
向陽台四丁目,コウヨウダイ 4,KOYODAI 4,,38.337776,140.898454
虹の丘二丁目,ニジノオカ 2,NIJINOKA 2,,38.306234,140.868302
泉ケ丘五丁目,イズミガオカ 5,IZUMIGAOKA 5,,38.359025,140.863483
住吉台西一丁目,スミヨシダイニシ 1,SUMIYOSHIDAINISHI 1,,38.32694,140.782148
向陽台三丁目,コウヨウダイ 3,KOYODAI 3,,38.340023,140.897777
黒松三丁目,クロマツ 3,KUROMATSU 3,,38.306678,140.886561
泉中央四丁目,イズミチュウオウ 4,IZUMICHUO 4,,38.321437,140.885203
南光台南二丁目,ナンコウダイミナミ 2,NANKODAIMINAMI 2,,38.294792,140.902185
将監二丁目,ショウゲン 2,SHOGEN 2,,38.330415,140.881893
北高森,キタタカモリ,KITATAKAMORI,,38.345017,140.857732
将監三丁目,ショウゲン 3,SHOGEN 3,,38.333175,140.884161
泉ケ丘四丁目,イズミガオカ 4,IZUMIGAOKA 4,,38.358662,140.866924
黒松一丁目,クロマツ 1,KUROMATSU 1,,38.30391,140.883633
館六丁目,ヤカタ 6,YAKATA 6,,38.317102,140.800416
八乙女四丁目,ヤオトメ 4,YAOTOME 4,,38.311335,140.897466
黒松二丁目,クロマツ 2,KUROMATSU 2,,38.30836,140.881821
虹の丘四丁目,ニジノオカ 4,NIJINOKA 4,,38.304644,140.865139
将監九丁目,ショウゲン 9,SHOGEN 9,,38.33191,140.872322
住吉台東一丁目,スミヨシダイヒガシ 1,SUMIYOSHIDAIHIGASHI 1,,38.326149,140.786748
紫山三丁目,ムラサキヤマ 3,MURASAKIYAMA 3,,38.346128,140.823937
将監一丁目,ショウゲン 1,SHOGEN 1,,38.329404,140.886984
松陵一丁目,ショウリョウ 1,SHORYO 1,,38.32212,140.912484
寺岡三丁目,テラオカ 3,TERAOKA 3,,38.339405,140.824838
長命ケ丘二丁目,チョウメイガオカ 2,CHOMEIGAOKA 2,,38.313101,140.841325
南光台三丁目,ナンコウダイ 3,NANKODAI 3,,38.295295,140.891797
高森五丁目,タカモリ 5,TAKAMORI 5,,38.336043,140.851534
南中山四丁目,ミナミナカヤマ 4,MINAMINAKAYAMA 4,,38.313235,140.819486
明石南二丁目,アカイシミナミ 2,AKAISHIMINAMI 2,,38.342856,140.890693
館二丁目,ヤカタ 2,YAKATA 2,,38.314442,140.7951
高森一丁目,タカモリ 1,TAKAMORI 1,,38.337037,140.841929
松陵五丁目,ショウリョウ 5,SHORYO 5,,38.328006,140.915145
将監四丁目,ショウゲン 4,SHOGEN 4,,38.336603,140.883773
将監殿五丁目,ショウゲントノ 5,SHOGENTONO 5,,38.343755,140.873105
南光台南三丁目,ナンコウダイミナミ 3,NANKODAIMINAMI 3,,38.294155,140.905575
八乙女中央三丁目,ヤオトメチュウオウ 3,YAOTOMECHUO 3,,38.314724,140.886342
高玉町,タカダマチョウ,TAKADAMACHO,,38.317045,140.894135
南光台四丁目,ナンコウダイ 4,NANKODAI 4,,38.298977,140.894549
南光台東二丁目,ナンコウダイヒガシ 2,NANKODAIHIGASHI 2,,38.298541,140.912844
南光台東一丁目,ナンコウダイヒガシ 1,NANKODAIHIGASHI 1,,38.298659,140.907138
北中山三丁目,キタナカヤマ 3,KITANAKAYAMA 3,,38.316783,140.810633
南光台五丁目,ナンコウダイ 5,NANKODAI 5,,38.303727,140.893989
南中山五丁目,ミナミナカヤマ 5,MINAMINAKAYAMA 5,,38.309686,140.811532
南光台一丁目,ナンコウダイ 1,NANKODAI 1,,38.290901,140.895051
旭丘堤二丁目,アサヒガオカツツミ 2,ASAHIGAOKATSUTSUMI 2,,38.303522,140.889532
寺岡四丁目,テラオカ 4,TERAOKA 4,,38.343042,140.823073
加茂五丁目,カモ 5,KAMO 5,,38.316171,140.8462
紫山四丁目,ムラサキヤマ 4,MURASAKIYAMA 4,,38.348841,140.821026
桂四丁目,カツラ 4,KATSURA 4,,38.341932,140.867881
住吉台東四丁目,スミヨシダイヒガシ 4,SUMIYOSHIDAIHIGASHI 4,,38.332251,140.790493
長命ケ丘一丁目,チョウメイガオカ 1,CHOMEIGAOKA 1,,38.317539,140.84123
南光台六丁目,ナンコウダイ 6,NANKODAI 6,,38.304107,140.898239
長命ケ丘五丁目,チョウメイガオカ 5,CHOMEIGAOKA 5,,38.3145,140.834476
泉中央三丁目,イズミチュウオウ 3,IZUMICHUO 3,,38.32531,140.886074
長命ケ丘四丁目,チョウメイガオカ 4,CHOMEIGAOKA 4,,38.312655,140.837684
将監八丁目,ショウゲン 8,SHOGEN 8,,38.332943,140.876829
加茂四丁目,カモ 4,KAMO 4,,38.312961,140.851747
松陵二丁目,ショウリョウ 2,SHORYO 2,,38.327874,140.90993
寺岡六丁目,テラオカ 6,TERAOKA 6,,38.342648,140.835157
加茂三丁目,カモ 3,KAMO 3,,38.316965,140.850341
館一丁目,ヤカタ 1,YAKATA 1,,38.310084,140.794774
長命ケ丘六丁目,チョウメイガオカ 6,CHOMEIGAOKA 6,,38.313164,140.830177
高森三丁目,タカモリ 3,TAKAMORI 3,,38.341736,140.846965
大沢一丁目,オオサワ 1,OSAWA 1,,38.348454,140.878443
みずほ台,ミズホダイ,MIZUHODAI,,38.311837,140.87419
鶴が丘四丁目,ツルガオカ 4,TSURUGAOKA 4,,38.326757,140.921951
南光台二丁目,ナンコウダイ 2,NANKODAI 2,,38.292993,140.893161
寺岡一丁目,テラオカ 1,TERAOKA 1,,38.33784,140.836876
大沢三丁目,オオサワ 3,OSAWA 3,,38.356076,140.875058
高森二丁目,タカモリ 2,TAKAMORI 2,,38.341169,140.841606
泉中央二丁目,イズミチュウオウ 2,IZUMICHUO 2,,38.32771,140.880027
北中山一丁目,キタナカヤマ 1,KITANAKAYAMA 1,,38.317804,140.823017
館七丁目,ヤカタ 7,YAKATA 7,,38.312015,140.799629
桂三丁目,カツラ 3,KATSURA 3,,38.341156,140.863256
松陵四丁目,ショウリョウ 4,SHORYO 4,,38.333071,140.916046
山の寺一丁目,ヤマノテラ 1,YAMANOTERA 1,,38.329678,140.896979
北中山四丁目,キタナカヤマ 4,KITANAKAYAMA 4,,38.312823,140.809206
住吉台西四丁目,スミヨシダイニシ 4,SUMIYOSHIDAINISHI 4,,38.331373,140.779839
高森四丁目,タカモリ 4,TAKAMORI 4,,38.335294,140.847156
高森七丁目,タカモリ 7,TAKAMORI 7,,38.341958,140.856971
本田町,ホンダチョウ,HONDACHO,,38.322116,140.904135
館三丁目,ヤカタ 3,YAKATA 3,,38.319768,140.797697
紫山二丁目,ムラサキヤマ 2,MURASAKIYAMA 2,,38.346572,140.829828
南中山三丁目,ミナミナカヤマ 3,MINAMINAKAYAMA 3,,38.312916,140.826141
天神沢一丁目,テンジンザワ 1,TENJINZAWA 1,,38.32405,140.898363
明通四丁目,アケドオリ 4,AKEDORI 4,,38.354345,140.862597
大沢二丁目,オオサワ 2,OSAWA 2,,38.351283,140.876676
高森六丁目,タカモリ 6,TAKAMORI 6,,38.341897,140.851754
南中山二丁目,ミナミナカヤマ 2,MINAMINAKAYAMA 2,,38.307839,140.828886
北中山二丁目,キタナカヤマ 2,KITANAKAYAMA 2,,38.317178,140.8164
桂二丁目,カツラ 2,KATSURA 2,,38.337102,140.858806
松陵三丁目,ショウリョウ 3,SHORYO 3,,38.333346,140.91046
歩坂町,ホサカチョウ,HOSAKACHO,,38.323142,140.908451
長命ケ丘三丁目,チョウメイガオカ 3,CHOMEIGAOKA 3,,38.309473,140.839038
天神沢二丁目,テンジンザワ 2,TENJINZAWA 2,,38.328026,140.901556
加茂一丁目,カモ 1,KAMO 1,,38.313009,140.863485
南光台七丁目,ナンコウダイ 7,NANKODAI 7,,38.301359,140.9021
桂一丁目,カツラ 1,KATSURA 1,,38.334735,140.863824
鶴が丘三丁目,ツルガオカ 3,TSURUGAOKA 3,,38.322541,140.920535
虹の丘一丁目,ニジノオカ 1,NIJINOKA 1,,38.305588,140.873351
山の寺二丁目,ヤマノテラ 2,YAMANOTERA 2,,38.332937,140.895061
鶴が丘二丁目,ツルガオカ 2,TSURUGAOKA 2,,38.321595,140.915082
将監十丁目,ショウゲン 10,SHOGEN 10,,38.333906,140.868959
館四丁目,ヤカタ 4,YAKATA 4,,38.323011,140.80047
泉中央一丁目,イズミチュウオウ 1,IZUMICHUO 1,,38.322909,140.878395
紫山五丁目,ムラサキヤマ 5,MURASAKIYAMA 5,,38.352147,140.823571
南中山一丁目,ミナミナカヤマ 1,MINAMINAKAYAMA 1,,38.301207,140.828782
加茂二丁目,カモ 2,KAMO 2,,38.315741,140.858912
明通二丁目,アケドオリ 2,AKEDORI 2,,38.355266,140.845676
紫山一丁目,ムラサキヤマ 1,MURASAKIYAMA 1,,38.348626,140.8317
鶴が丘一丁目,ツルガオカ 1,TSURUGAOKA 1,,38.319299,140.925947
寺岡二丁目,テラオカ 2,TERAOKA 2,,38.337175,140.830352
明通三丁目,アケドオリ 3,AKEDORI 3,,38.356839,140.855018
古内,フルウチ,FURUCHI,,38.321675,140.84526
上谷刈,カミヤガリ,KAMIYAGARI,,38.307891,140.861564
明通一丁目,アケドオリ 1,AKEDORI 1,,38.348134,140.851592
小角,オガク,OGAKU,,38.329477,140.808085
市名坂,イチナザカ,ICHINAZAKA,,38.321917,140.889669
七北田,ナナキタ,NANAKITA,,38.340435,140.883268
野村,ノムラ,NOMURA,,38.328211,140.858489
松森,マツモリ,MATSUMORI,,38.308972,140.913339
実沢,サネザワ,SANEZAWA,,38.325438,140.81962
根白石,ネノシロイシ,NENOSHIROISHI,,38.355474,140.811877
西田中,ニシタナカ,NISHITANAKA,,38.334369,140.759954
朴沢,ホウザワ,HOZAWA,,38.391838,140.785614
福岡,フクオカ,FUKUOKA,,38.388372,140.733106
西中山一丁目,ニシナカヤマ 1,NISHINAKAYAMA 1,,38.30887,140.806013
西中山二丁目,ニシナカヤマ 2,NISHINAKAYAMA 2,,38.30489,140.806491
西田中,ニシタナカ,NISHITANAKA,上山下,38.333751,140.779745
西田中,ニシタナカ,NISHITANAKA,根添,38.324792,140.7886
西田中,ニシタナカ,NISHITANAKA,並木南,38.324608,140.790109
西田中,ニシタナカ,NISHITANAKA,並木,38.325663,140.789408
西田中,ニシタナカ,NISHITANAKA,加賀屋敷,38.322881,140.789937
西田中,ニシタナカ,NISHITANAKA,萩坂前上,38.334827,140.789163
西田中,ニシタナカ,NISHITANAKA,北屋敷,38.32607,140.790689
西田中,ニシタナカ,NISHITANAKA,萱場東,38.3248,140.79223
西田中,ニシタナカ,NISHITANAKA,萱場,38.3248,140.791769
西田中,ニシタナカ,NISHITANAKA,松下,38.326745,140.792838
実沢,サネザワ,SANEZAWA,細椚天皇,38.325946,140.795083
西田中,ニシタナカ,NISHITANAKA,露払屋敷,38.332301,140.793759
小角,オガク,OGAKU,大満寺,38.329414,140.798049
西田中,ニシタナカ,NISHITANAKA,露払南,38.331924,140.795955
小角,オガク,OGAKU,日陰,38.330727,140.797614
実沢,サネザワ,SANEZAWA,細椚中谷地下,38.326906,140.796998
実沢,サネザワ,SANEZAWA,細椚西,38.327317,140.798094
小角,オガク,OGAKU,杉下,38.328881,140.79877
実沢,サネザワ,SANEZAWA,細椚前屋敷,38.325776,140.799065
実沢,サネザワ,SANEZAWA,細椚後屋敷,38.326413,140.79923
実沢,サネザワ,SANEZAWA,細椚前,38.326231,140.799855
小角,オガク,OGAKU,白山,38.328822,140.800468
実沢,サネザワ,SANEZAWA,八乙女出戸,38.309762,140.803408
実沢,サネザワ,SANEZAWA,細椚向芦沢,38.325511,140.801521
実沢,サネザワ,SANEZAWA,釜ケ沢山,38.312414,140.80213
実沢,サネザワ,SANEZAWA,関場屋敷,38.314986,140.803337
実沢,サネザワ,SANEZAWA,入八乙女滝下,38.308068,140.803844
実沢,サネザワ,SANEZAWA,釜ケ沢前沢,38.313483,140.802244
小角,オガク,OGAKU,原前,38.327356,140.802981
小角,オガク,OGAKU,芦沢,38.325733,140.802548
実沢,サネザワ,SANEZAWA,八乙女屋敷,38.308553,140.802634
根白石,ネノシロイシ,NENOSHIROISHI,年川屋敷,38.339461,140.803622
実沢,サネザワ,SANEZAWA,居久根山,38.313257,140.803038
根白石,ネノシロイシ,NENOSHIROISHI,東鹿野,38.347643,140.805645
小角,オガク,OGAKU,窪西,38.328626,140.804298
根白石,ネノシロイシ,NENOSHIROISHI,姥懐前,38.343985,140.803918
実沢,サネザワ,SANEZAWA,八乙女下屋敷一番,38.312391,140.804237
実沢,サネザワ,SANEZAWA,新松山,38.316715,140.804186
実沢,サネザワ,SANEZAWA,橘川屋敷,38.318085,140.805856
小角,オガク,OGAKU,窪上,38.327554,140.804923
根白石,ネノシロイシ,NENOSHIROISHI,姥懐前下,38.34091,140.805899
実沢,サネザワ,SANEZAWA,小豆嶋屋敷,38.326926,140.807217
根白石,ネノシロイシ,NENOSHIROISHI,福沢館下,38.329381,140.805407
小角,オガク,OGAKU,窪東,38.329005,140.806536
根白石,ネノシロイシ,NENOSHIROISHI,養賢堂,38.339372,140.806388
実沢,サネザワ,SANEZAWA,館西谷地,38.318998,140.808265
根白石,ネノシロイシ,NENOSHIROISHI,判在家向河原,38.334621,140.80584
実沢,サネザワ,SANEZAWA,番堂山,38.323471,140.80646
小角,オガク,OGAKU,白藤,38.33503,140.806481
実沢,サネザワ,SANEZAWA,小川淵,38.324326,140.806811
実沢,サネザワ,SANEZAWA,搦目,38.322247,140.809551
実沢,サネザワ,SANEZAWA,段ノ原,38.316727,140.8061
根白石,ネノシロイシ,NENOSHIROISHI,上田,38.338681,140.806506
小角,オガク,OGAKU,館前,38.327966,140.806557
実沢,サネザワ,SANEZAWA,館後,38.319436,140.807157
小角,オガク,OGAKU,蓬田,38.331334,140.808324
根白石,ネノシロイシ,NENOSHIROISHI,八反田東,38.340949,140.808223
実沢,サネザワ,SANEZAWA,広畑,38.327642,140.809011
小角,オガク,OGAKU,明神下,38.333706,140.807434
小角,オガク,OGAKU,館,38.329196,140.808478
根白石,ネノシロイシ,NENOSHIROISHI,八反田西,38.338869,140.807638
実沢,サネザワ,SANEZAWA,館沢,38.317536,140.807898
実沢,サネザワ,SANEZAWA,館屋敷,38.319553,140.808205
小角,オガク,OGAKU,明神,38.332187,140.808669
根白石,ネノシロイシ,NENOSHIROISHI,六軒小路,38.337209,140.808723
小角,オガク,OGAKU,上在家,38.334167,140.808715
根白石,ネノシロイシ,NENOSHIROISHI,新田南,38.337919,140.808056
実沢,サネザワ,SANEZAWA,小豆嶋五百刈,38.324456,140.808288
実沢,サネザワ,SANEZAWA,小豆嶋岩下,38.32485,140.809355
実沢,サネザワ,SANEZAWA,畑中,38.326443,140.808573
実沢,サネザワ,SANEZAWA,男生山,38.309697,140.808427
小角,オガク,OGAKU,上在家前,38.332994,140.810562
根白石,ネノシロイシ,NENOSHIROISHI,新田,38.34004,140.810528
実沢,サネザワ,SANEZAWA,小豆嶋前,38.325839,140.808345
実沢,サネザワ,SANEZAWA,飛観音,38.321226,140.809676
根白石,ネノシロイシ,NENOSHIROISHI,行木沢,38.338512,140.811957
根白石,ネノシロイシ,NENOSHIROISHI,銅谷屋敷,38.355191,140.812205
実沢,サネザワ,SANEZAWA,餅田,38.318489,140.810036
根白石,ネノシロイシ,NENOSHIROISHI,蒲沢,38.338656,140.809799
実沢,サネザワ,SANEZAWA,道祖神,38.320905,140.811607
小角,オガク,OGAKU,明神前,38.330611,140.810114
根白石,ネノシロイシ,NENOSHIROISHI,蒲沢東,38.338131,140.810164
小角,オガク,OGAKU,小丸山,38.336198,140.813656
小角,オガク,OGAKU,上ノ山,38.336866,140.811258
実沢,サネザワ,SANEZAWA,鼻毛,38.327517,140.810658
実沢,サネザワ,SANEZAWA,樋渡,38.323885,140.810561
根白石,ネノシロイシ,NENOSHIROISHI,青笹山,38.348608,140.813217
実沢,サネザワ,SANEZAWA,二ノ関屋敷,38.324633,140.811943
実沢,サネザワ,SANEZAWA,釜淵,38.325832,140.812614
小角,オガク,OGAKU,鹿,38.332915,140.812597
小角,オガク,OGAKU,今宮,38.332207,140.811236
実沢,サネザワ,SANEZAWA,新坂沢,38.328208,140.813815
実沢,サネザワ,SANEZAWA,早坂下,38.320725,140.813284
小角,オガク,OGAKU,地蔵坂,38.334814,140.814113
実沢,サネザワ,SANEZAWA,六堂屋敷,38.320988,140.824551
根白石,ネノシロイシ,NENOSHIROISHI,行木沢東,38.341233,140.818439
実沢,サネザワ,SANEZAWA,中山北,38.304002,140.815238
小角,オガク,OGAKU,中崎,38.329931,140.81708
実沢,サネザワ,SANEZAWA,赤竹下,38.327776,140.815391
実沢,サネザワ,SANEZAWA,林泉寺下,38.324086,140.814804
小角,オガク,OGAKU,山田,38.332295,140.814283
実沢,サネザワ,SANEZAWA,広瀬,38.32293,140.814245
実沢,サネザワ,SANEZAWA,新坂沢下,38.326458,140.814445
実沢,サネザワ,SANEZAWA,広瀬川橋向,38.322532,140.814781
小角,オガク,OGAKU,中原,38.332628,140.815366
実沢,サネザワ,SANEZAWA,二ノ関橋本,38.320037,140.814798
小角,オガク,OGAKU,東屋敷,38.333889,140.817215
小角,オガク,OGAKU,惣膳原,38.336521,140.815105
実沢,サネザワ,SANEZAWA,寺内,38.325192,140.815692
小角,オガク,OGAKU,寅堤,38.335303,140.816214
実沢,サネザワ,SANEZAWA,山旧下河原,38.322018,140.815823
実沢,サネザワ,SANEZAWA,上,38.32518,140.817121
小角,オガク,OGAKU,松ノ木田,38.331347,140.816591
小角,オガク,OGAKU,東原,38.334103,140.817716
小角,オガク,OGAKU,上原,38.334882,140.816497
実沢,サネザワ,SANEZAWA,十文字,38.32845,140.81853
実沢,サネザワ,SANEZAWA,丸子淵,38.322577,140.817428
実沢,サネザワ,SANEZAWA,清水田中,38.336097,140.818962
小角,オガク,OGAKU,前原,38.332568,140.817819
実沢,サネザワ,SANEZAWA,宮西,38.322896,140.818365
実沢,サネザワ,SANEZAWA,門前古屋敷,38.324023,140.819087
実沢,サネザワ,SANEZAWA,桜田前,38.336875,140.822943
実沢,サネザワ,SANEZAWA,飛鳥原,38.330394,140.821568
実沢,サネザワ,SANEZAWA,清水田松原,38.333151,140.819301
実沢,サネザワ,SANEZAWA,後山上,38.326644,140.819387
実沢,サネザワ,SANEZAWA,西後山,38.325756,140.819452
実沢,サネザワ,SANEZAWA,後山屋敷,38.324888,140.819652
実沢,サネザワ,SANEZAWA,清水田屋敷,38.335396,140.819902
実沢,サネザワ,SANEZAWA,清水田前下,38.335277,140.821216
実沢,サネザワ,SANEZAWA,宮下屋敷,38.324035,140.820097
実沢,サネザワ,SANEZAWA,一本橋,38.327851,140.822009
実沢,サネザワ,SANEZAWA,清水田,38.336105,140.819785
根白石,ネノシロイシ,NENOSHIROISHI,堂所屋敷,38.366169,140.820989
実沢,サネザワ,SANEZAWA,中谷地前,38.32895,140.820082
実沢,サネザワ,SANEZAWA,松原南,38.332225,140.821024
実沢,サネザワ,SANEZAWA,沢目下,38.3314,140.821838
実沢,サネザワ,SANEZAWA,桐ケ崎屋敷,38.337365,140.821838
実沢,サネザワ,SANEZAWA,清吾,38.329503,140.821614
実沢,サネザワ,SANEZAWA,熊野山上,38.327122,140.82098
実沢,サネザワ,SANEZAWA,熊野山,38.324507,140.821659
実沢,サネザワ,SANEZAWA,丸子淵下,38.321876,140.8224
実沢,サネザワ,SANEZAWA,上林,38.325933,140.822847
実沢,サネザワ,SANEZAWA,蒜屋敷前,38.323224,140.823164
実沢,サネザワ,SANEZAWA,中山南,38.301134,140.824842
実沢,サネザワ,SANEZAWA,山旧淵下,38.32243,140.823207
実沢,サネザワ,SANEZAWA,馬場屋敷,38.332466,140.82284
実沢,サネザワ,SANEZAWA,蒜屋敷,38.324312,140.823296
実沢,サネザワ,SANEZAWA,行屋,38.330064,140.824321
実沢,サネザワ,SANEZAWA,中,38.327907,140.823514
実沢,サネザワ,SANEZAWA,涌上り道合,38.335365,140.824888
実沢,サネザワ,SANEZAWA,涌上り上,38.334868,140.824979
実沢,サネザワ,SANEZAWA,涌上り前南,38.333713,140.825663
実沢,サネザワ,SANEZAWA,涌上り向田,38.332099,140.824894
実沢,サネザワ,SANEZAWA,上ノ台,38.331391,140.827953
実沢,サネザワ,SANEZAWA,畑田,38.326057,140.824924
実沢,サネザワ,SANEZAWA,宮東,38.323564,140.824494
実沢,サネザワ,SANEZAWA,猪沢鹿,38.324615,140.825498
実沢,サネザワ,SANEZAWA,金屋敷,38.325613,140.826725
実沢,サネザワ,SANEZAWA,曽利子下河原,38.322979,140.827673
実沢,サネザワ,SANEZAWA,原田下,38.326695,140.826599
実沢,サネザワ,SANEZAWA,去田孫八,38.325187,140.828992
実沢,サネザワ,SANEZAWA,涌上り屋敷,38.334181,140.828529
実沢,サネザワ,SANEZAWA,八沢,38.328332,140.827311
実沢,サネザワ,SANEZAWA,曽利子下,38.321805,140.829075
実沢,サネザワ,SANEZAWA,下原東屋敷,38.326653,140.829046
実沢,サネザワ,SANEZAWA,細野,38.328575,140.829372
実沢,サネザワ,SANEZAWA,半田原西,38.33205,140.830933
実沢,サネザワ,SANEZAWA,向田,38.333147,140.828903
実沢,サネザワ,SANEZAWA,玉手,38.332914,140.829611
実沢,サネザワ,SANEZAWA,細野下,38.32944,140.831281
実沢,サネザワ,SANEZAWA,半田原東,38.331436,140.83249
実沢,サネザワ,SANEZAWA,細野東,38.328477,140.83139
実沢,サネザワ,SANEZAWA,去田沢目山,38.327796,140.832408
実沢,サネザワ,SANEZAWA,本屋敷,38.326377,140.833693
実沢,サネザワ,SANEZAWA,立田新屋敷,38.333488,140.832838
実沢,サネザワ,SANEZAWA,去田屋敷,38.324636,140.832525
実沢,サネザワ,SANEZAWA,森子田,38.32949,140.834284
実沢,サネザワ,SANEZAWA,高城,38.33231,140.834724
実沢,サネザワ,SANEZAWA,去田下無串,38.324416,140.834823
実沢,サネザワ,SANEZAWA,伝城下,38.334146,140.834525
実沢,サネザワ,SANEZAWA,無串後,38.327245,140.834594
上谷刈,カミヤガリ,KAMIYAGARI,去田前,38.322758,140.836664
実沢,サネザワ,SANEZAWA,明神,38.327486,140.83541
実沢,サネザワ,SANEZAWA,八沢橋本,38.328509,140.835731
実沢,サネザワ,SANEZAWA,荒神,38.32664,140.842124
実沢,サネザワ,SANEZAWA,立田,38.32843,140.835224
実沢,サネザワ,SANEZAWA,伝城上,38.334212,140.836611
上谷刈,カミヤガリ,KAMIYAGARI,館,38.320628,140.836982
実沢,サネザワ,SANEZAWA,立田銘,38.332184,140.836745
実沢,サネザワ,SANEZAWA,無串河原,38.324265,140.83666
上谷刈,カミヤガリ,KAMIYAGARI,宮林前,38.32987,140.837719
上谷刈,カミヤガリ,KAMIYAGARI,八木沢,38.325738,140.83835
実沢,サネザワ,SANEZAWA,立田屋敷,38.333349,140.839473
古内,フルウチ,FURUCHI,入山田,38.320331,140.840647
実沢,サネザワ,SANEZAWA,勘太山,38.334676,140.838388
上谷刈,カミヤガリ,KAMIYAGARI,上ノ山,38.320995,140.839292
上谷刈,カミヤガリ,KAMIYAGARI,宮林後,38.329043,140.83911
上谷刈,カミヤガリ,KAMIYAGARI,舞台,38.329723,140.841726
上谷刈,カミヤガリ,KAMIYAGARI,大立目屋敷,38.331365,140.840122
実沢,サネザワ,SANEZAWA,石保,38.333784,140.841313
上谷刈,カミヤガリ,KAMIYAGARI,関ノ上,38.322562,140.841812
実沢,サネザワ,SANEZAWA,菅野屋敷,38.334733,140.841649
古内,フルウチ,FURUCHI,南,38.32359,140.841975
古内,フルウチ,FURUCHI,北,38.324935,140.844469
古内,フルウチ,FURUCHI,矢崎,38.327494,140.844303
上谷刈,カミヤガリ,KAMIYAGARI,下鶴巻,38.330548,140.841992
古内,フルウチ,FURUCHI,新坂の上,38.319988,140.843977
古内,フルウチ,FURUCHI,坂ノ上,38.319389,140.8427
上谷刈,カミヤガリ,KAMIYAGARI,下入山田,38.321778,140.842448
上谷刈,カミヤガリ,KAMIYAGARI,松林,38.332405,140.843795
古内,フルウチ,FURUCHI,古内,38.324733,140.845723
古内,フルウチ,FURUCHI,坂下,38.320258,140.844899
古内,フルウチ,FURUCHI,高森,38.31832,140.844192
古内,フルウチ,FURUCHI,野合,38.322699,140.84583
古内,フルウチ,FURUCHI,畑沢,38.32013,140.845454
古内,フルウチ,FURUCHI,仁渡,38.326045,140.846533
野村,ノムラ,NOMURA,大涛,38.328298,140.847001
古内,フルウチ,FURUCHI,新仁渡,38.325529,140.845234
古内,フルウチ,FURUCHI,堀田上,38.323429,140.847644
古内,フルウチ,FURUCHI,宮下,38.322454,140.846599
野村,ノムラ,NOMURA,内林,38.329604,140.848647
上谷刈,カミヤガリ,KAMIYAGARI,山添,38.311661,140.849994
上谷刈,カミヤガリ,KAMIYAGARI,中沢,38.31109,140.848991
上谷刈,カミヤガリ,KAMIYAGARI,赤坂,38.310949,140.856114
野村,ノムラ,NOMURA,山寺,38.332434,140.84967
古内,フルウチ,FURUCHI,糺,38.318779,140.850139
野村,ノムラ,NOMURA,上野前,38.326641,140.850239
野村,ノムラ,NOMURA,源吉,38.331479,140.851412
野村,ノムラ,NOMURA,上野,38.32772,140.850785
野村,ノムラ,NOMURA,上野下,38.326879,140.851465
野村,ノムラ,NOMURA,才兵衛,38.329885,140.852677
上谷刈,カミヤガリ,KAMIYAGARI,羽黒山,38.317993,140.855597
上谷刈,カミヤガリ,KAMIYAGARI,長命,38.319343,140.854739
野村,ノムラ,NOMURA,松林下,38.326558,140.852788
野村,ノムラ,NOMURA,上野前中,38.324761,140.853022
野村,ノムラ,NOMURA,上台,38.330944,140.853783
野村,ノムラ,NOMURA,沢ノ口,38.326368,140.854583
野村,ノムラ,NOMURA,作蔵,38.329975,140.855531
上谷刈,カミヤガリ,KAMIYAGARI,北河原,38.322388,140.857298
上谷刈,カミヤガリ,KAMIYAGARI,三平東,38.319067,140.856413
野村,ノムラ,NOMURA,新林田,38.328161,140.857097
野村,ノムラ,NOMURA,愛宕,38.331169,140.860876
野村,ノムラ,NOMURA,仁平,38.3307,140.858651
野村,ノムラ,NOMURA,小菅西,38.332236,140.859426
上谷刈,カミヤガリ,KAMIYAGARI,熊ノ林,38.322834,140.862836
野村,ノムラ,NOMURA,新桂島前,38.328804,140.861524
野村,ノムラ,NOMURA,丸山,38.328872,140.859591
野村,ノムラ,NOMURA,東原前,38.325492,140.860601
野村,ノムラ,NOMURA,下西河原,38.31901,140.860687
上谷刈,カミヤガリ,KAMIYAGARI,堤下,38.309454,140.861349
野村,ノムラ,NOMURA,小菅東,38.331017,140.862215
七北田,ナナキタ,NANAKITA,大沢明通,38.358443,140.86222
野村,ノムラ,NOMURA,守,38.326784,140.862369
野村,ノムラ,NOMURA,新堤下,38.330726,140.863246
野村,ノムラ,NOMURA,東原東,38.325916,140.862263
上谷刈,カミヤガリ,KAMIYAGARI,古堤,38.309984,140.863839
上谷刈,カミヤガリ,KAMIYAGARI,丸太,38.309645,140.866955
野村,ノムラ,NOMURA,太斉山,38.326503,140.864274
野村,ノムラ,NOMURA,新平山,38.326078,140.863078
野村,ノムラ,NOMURA,川ノ上,38.319808,140.863701
野村,ノムラ,NOMURA,東河原,38.320758,140.866599
七北田,ナナキタ,NANAKITA,大沢上前,38.346997,140.865503
野村,ノムラ,NOMURA,桂島,38.330417,140.863852
野村,ノムラ,NOMURA,石保,38.323156,140.865499
野村,ノムラ,NOMURA,新桂島,38.331032,140.864255
野村,ノムラ,NOMURA,新馬場屋敷,38.328023,140.865324
七北田,ナナキタ,NANAKITA,大沢鳥谷ケ沢,38.350286,140.866472
野村,ノムラ,NOMURA,馬場屋敷,38.325969,140.865587
七北田,ナナキタ,NANAKITA,大沢小松,38.35334,140.866382
七北田,ナナキタ,NANAKITA,菅間,38.328629,140.868311
野村,ノムラ,NOMURA,桂島東,38.328422,140.866914
野村,ノムラ,NOMURA,菅間前,38.327235,140.868359
七北田,ナナキタ,NANAKITA,大沢相ノ沢,38.350935,140.869128
上谷刈,カミヤガリ,KAMIYAGARI,治郎兵衛下,38.311225,140.868306
野村,ノムラ,NOMURA,本七北田,38.3246,140.867679
七北田,ナナキタ,NANAKITA,大沢中才,38.349043,140.868973
野村,ノムラ,NOMURA,一本杉,38.325153,140.869677
七北田,ナナキタ,NANAKITA,大沢向原,38.34782,140.872416
七北田,ナナキタ,NANAKITA,古内,38.325033,140.873202
上谷刈,カミヤガリ,KAMIYAGARI,沼,38.319115,140.873088
野村,ノムラ,NOMURA,東村境,38.326648,140.869371
上谷刈,カミヤガリ,KAMIYAGARI,橋元,38.308812,140.870456
七北田,ナナキタ,NANAKITA,道,38.328092,140.87149
七北田,ナナキタ,NANAKITA,駕籠沢,38.329377,140.874043
上谷刈,カミヤガリ,KAMIYAGARI,小堤,38.309065,140.874874
七北田,ナナキタ,NANAKITA,大沢木戸,38.347822,140.875691
上谷刈,カミヤガリ,KAMIYAGARI,沼下,38.318815,140.874316
七北田,ナナキタ,NANAKITA,日野,38.328538,140.87464
七北田,ナナキタ,NANAKITA,朴木沢,38.324909,140.876463
上谷刈,カミヤガリ,KAMIYAGARI,向原,38.310117,140.878391
七北田,ナナキタ,NANAKITA,赤生津,38.319071,140.878347
七北田,ナナキタ,NANAKITA,杉ノ田,38.311339,140.88119
七北田,ナナキタ,NANAKITA,大沢境,38.342218,140.881813
七北田,ナナキタ,NANAKITA,柳,38.319133,140.881713
七北田,ナナキタ,NANAKITA,笹,38.341253,140.883128
七北田,ナナキタ,NANAKITA,新田,38.339743,140.884046
市名坂,イチナザカ,ICHINAZAKA,善正寺,38.317888,140.885209
市名坂,イチナザカ,ICHINAZAKA,西裏,38.318804,140.886058
市名坂,イチナザカ,ICHINAZAKA,町,38.319886,140.888666
七北田,ナナキタ,NANAKITA,新道,38.334764,140.888044
市名坂,イチナザカ,ICHINAZAKA,石止,38.317191,140.888596
七北田,ナナキタ,NANAKITA,白水沢,38.329746,140.890184
七北田,ナナキタ,NANAKITA,町,38.32613,140.88957
市名坂,イチナザカ,ICHINAZAKA,東裏,38.320399,140.890631
七北田,ナナキタ,NANAKITA,山ノ寺,38.332877,140.890317
七北田,ナナキタ,NANAKITA,東裏,38.324731,140.892364
市名坂,イチナザカ,ICHINAZAKA,高玉,38.31789,140.890894
市名坂,イチナザカ,ICHINAZAKA,明神,38.317041,140.89092
市名坂,イチナザカ,ICHINAZAKA,万吉前,38.319873,140.892296
市名坂,イチナザカ,ICHINAZAKA,新門前,38.331201,140.891153
市名坂,イチナザカ,ICHINAZAKA,高玉川原,38.314625,140.891038
七北田,ナナキタ,NANAKITA,八乙女,38.308251,140.892307
市名坂,イチナザカ,ICHINAZAKA,新道,38.327535,140.892391
市名坂,イチナザカ,ICHINAZAKA,鳥井原,38.325208,140.893672
市名坂,イチナザカ,ICHINAZAKA,堂林,38.320233,140.893917
松森,マツモリ,MATSUMORI,不動,38.307358,140.894836
七北田,ナナキタ,NANAKITA,田中,38.308208,140.89423
市名坂,イチナザカ,ICHINAZAKA,実相寺,38.322943,140.893783
市名坂,イチナザカ,ICHINAZAKA,本屋敷,38.321778,140.894061
市名坂,イチナザカ,ICHINAZAKA,寺下,38.322646,140.895494
市名坂,イチナザカ,ICHINAZAKA,小柳,38.319348,140.896178
市名坂,イチナザカ,ICHINAZAKA,南前,38.31874,140.897612
市名坂,イチナザカ,ICHINAZAKA,黒木川原,38.316113,140.899119
市名坂,イチナザカ,ICHINAZAKA,野蔵,38.313702,140.899455
市名坂,イチナザカ,ICHINAZAKA,御釜田,38.31933,140.899192
市名坂,イチナザカ,ICHINAZAKA,楢町,38.317303,140.900041
市名坂,イチナザカ,ICHINAZAKA,山岸,38.320064,140.898944
松森,マツモリ,MATSUMORI,明神,38.304959,140.902214
松森,マツモリ,MATSUMORI,後田,38.309847,140.901554
松森,マツモリ,MATSUMORI,中道,38.30796,140.902978
市名坂,イチナザカ,ICHINAZAKA,原田,38.315227,140.903488
松森,マツモリ,MATSUMORI,前田,38.306258,140.903381
松森,マツモリ,MATSUMORI,上河原,38.311013,140.902844
市名坂,イチナザカ,ICHINAZAKA,高倉,38.313069,140.906126
松森,マツモリ,MATSUMORI,浦田,38.309723,140.903455
市名坂,イチナザカ,ICHINAZAKA,鹿島,38.313499,140.907253
松森,マツモリ,MATSUMORI,中河原,38.310206,140.903752
市名坂,イチナザカ,ICHINAZAKA,萩清水,38.318024,140.904008
市名坂,イチナザカ,ICHINAZAKA,柳清水,38.317598,140.904854
市名坂,イチナザカ,ICHINAZAKA,中道,38.315636,140.905822
松森,マツモリ,MATSUMORI,新田,38.30314,140.906671
松森,マツモリ,MATSUMORI,坂下,38.305348,140.905688
松森,マツモリ,MATSUMORI,刺松,38.307073,140.905316
松森,マツモリ,MATSUMORI,沢目,38.306041,140.906759
市名坂,イチナザカ,ICHINAZAKA,清水端,38.317308,140.907859
市名坂,イチナザカ,ICHINAZAKA,天神沢,38.332955,140.905875
松森,マツモリ,MATSUMORI,八沢,38.302397,140.907611
松森,マツモリ,MATSUMORI,館,38.30835,140.911174
松森,マツモリ,MATSUMORI,陣ケ原,38.30187,140.910265
松森,マツモリ,MATSUMORI,斉兵衛,38.30432,140.90957
松森,マツモリ,MATSUMORI,新庄,38.307293,140.907801
市名坂,イチナザカ,ICHINAZAKA,竹内,38.312444,140.909224
松森,マツモリ,MATSUMORI,鹿島,38.315681,140.911237
市名坂,イチナザカ,ICHINAZAKA,高島,38.31424,140.913085
市名坂,イチナザカ,ICHINAZAKA,本町,38.315904,140.913346
松森,マツモリ,MATSUMORI,太子堂,38.305522,140.914222
松森,マツモリ,MATSUMORI,関場,38.303982,140.9138
松森,マツモリ,MATSUMORI,岡本前,38.313313,140.912963
松森,マツモリ,MATSUMORI,後沢,38.304753,140.916862
市名坂,イチナザカ,ICHINAZAKA,砂押,38.314977,140.914887
松森,マツモリ,MATSUMORI,内町,38.315964,140.919634
松森,マツモリ,MATSUMORI,前沼,38.31474,140.91973
松森,マツモリ,MATSUMORI,城前,38.310206,140.920322
市名坂,イチナザカ,ICHINAZAKA,油田,38.314845,140.916626
松森,マツモリ,MATSUMORI,阿比古,38.306445,140.919845
松森,マツモリ,MATSUMORI,長岫,38.304266,140.918097
松森,マツモリ,MATSUMORI,住吉,38.303797,140.919885
松森,マツモリ,MATSUMORI,陣ケ前,38.308984,140.927799
松森,マツモリ,MATSUMORI,鼠堂,38.313905,140.922416
松森,マツモリ,MATSUMORI,松木沢,38.314398,140.925418
松森,マツモリ,MATSUMORI,台,38.313598,140.928103
松森,マツモリ,MATSUMORI,台谷地,38.310643,140.928296
