name,name_kana,name_romaji,nickname,latitude,longitude
赤川,アカガワ,AKAGAWA,,39.324108,140.526776
赤坂,アカサカ,AKASAKA,,39.306772,140.53736
朝倉町,アサクラチョウ,ASAKURACHO,,39.323677,140.560816
朝日が丘一丁目,アサヒガオカ 1,ASAHIGAOKA 1,,39.298788,140.540401
朝日が丘二丁目,アサヒガオカ 2,ASAHIGAOKA 2,,39.298178,140.538226
朝日が丘三丁目,アサヒガオカ 3,ASAHIGAOKA 3,,39.295166,140.538091
朝日が丘四丁目,アサヒガオカ 4,ASAHIGAOKA 4,,39.29331,140.54085
旭川一丁目,アサヒカワ 1,ASAHIKAWA 1,,39.309495,140.576312
旭川二丁目,アサヒカワ 2,ASAHIKAWA 2,,39.309765,140.578453
旭川三丁目,アサヒカワ 3,ASAHIKAWA 3,,39.309734,140.580478
猪岡,イノオカ,INOKA,,39.318376,140.514657
梅の木町,ウメノキマチ,UMENOKIMACHI,,39.315702,140.557751
駅前町,エキマエチョウ,EKIMAECHO,,39.308784,140.561408
駅南一丁目,エキミナミ 1,EKIMINAMI 1,,39.302415,140.56071
駅南二丁目,エキミナミ 2,EKIMINAMI 2,,39.302577,140.558314
追廻一丁目,オイマワシ 1,OIMAWASHI 1,,39.332247,140.568572
追廻二丁目,オイマワシ 2,OIMAWASHI 2,,39.331959,140.570628
追廻三丁目,オイマワシ 3,OIMAWASHI 3,,39.334844,140.572056
大沢,オオサワ,OSAWA,,39.302941,140.600948
大鳥町,オオトリマチ,OTORIMACHI,,39.329639,140.562591
大町,オオマチ,OMACHI,,39.31577,140.568296
大水戸町,オオミドマチ,OMIDOMACHI,,39.31522,140.563201
大森町,オオモリマチイタイダ,OMORIMACHI ITAIDA,,39.340078,140.424198
大森町板井田,オオモリマチイタイダ,OMORIMACHI ITAIDA,,39.394375,140.431097
大森町上溝,オオモリマチウワミゾ,OMORIMACHI UWAMIZO,,39.337387,140.386487
大森町坂部,オオモリマチサカベ,OMORIMACHI SAKABE,,39.363327,140.290693
大森町猿田,オオモリマチサルタ,OMORIMACHI SARUTA,,39.37484,140.410889
大森町十日町,オオモリマチトオカマチ,OMORIMACHI TOKAMACHI,,39.360455,140.447701
大森町袴形,オオモリマチハカマガタ,OMORIMACHI HAKAMAGATA,,39.374426,140.444263
大森町八沢木,オオモリマチヤサワギ,OMORIMACHI YASAWAGI,,39.360439,140.351329
大屋新町,オオヤシンマチ,OYA SHIMMACHI,,39.280292,140.570853
大屋寺内,オオヤテラウチ,OYA TERAUCHI,,39.258561,140.573311
雄物川町会塚,オモノガワマチアイヅカ,OMONOGAWAMACHI AIZUKA,,39.303345,140.451983
雄物川町今宿,オモノガワマチイマシュク,OMONOGAWAMACHI IMASHUKU,,39.288277,140.402634
雄物川町薄井,オモノガワマチウスイ,OMONOGAWAMACHI USUI,,39.319421,140.437454
雄物川町大沢,オモノガワマチオオサワ,OMONOGAWAMACHI OSAWA,,39.276158,140.368139
雄物川町柏木,オモノガワマチカシワギ,OMONOGAWAMACHI KASHIWAGI,,39.265928,140.42065
雄物川町常野,オモノガワマチジョウノ,OMONOGAWAMACHI JONO,,39.260162,140.421657
雄物川町砂子田,オモノガワマチスナゴタ,OMONOGAWAMACHI SUNAGOTA,,39.291906,140.446058
雄物川町造山,オモノガワマチツクリヤマ,OMONOGAWAMACHI TSUKURIYAMA,,39.275146,140.427882
雄物川町東里,オモノガワマチトウサト,OMONOGAWAMACHI TOSATO,,39.275456,140.443346
雄物川町道地,オモノガワマチドウジ,OMONOGAWAMACHI DOJI,,39.266573,140.405329
雄物川町南形,オモノガワマチナンカタ,OMONOGAWAMACHI NANKATA,,39.277636,140.414768
雄物川町二井山,オモノガワマチニイヤマ,OMONOGAWAMACHI NIIYAMA,,39.308621,140.367319
雄物川町西野,オモノガワマチニシノ,OMONOGAWAMACHI NISHINO,,39.255993,140.414172
雄物川町沼館,オモノガワマチヌマダテ,OMONOGAWAMACHI NUMADATE,,39.302995,140.427456
雄物川町深井,オモノガワマチフカイ,OMONOGAWAMACHI FUKAI,,39.289545,140.417162
雄物川町矢神,オモノガワマチヤガミ,OMONOGAWAMACHI YAGAMI,,39.31034,140.404569
雄物川町谷地新田,オモノガワマチヤチシンデン,OMONOGAWAMACHI YACHISHINDEN,,39.26011,140.438695
卸町,オロシマチ,OROSHIMACHI,,39.322459,140.549175
鍛冶町,カジマチ,KAJIMACHI,,39.311738,140.568543
金沢,カネザワ,KANEZAWA,,39.368976,140.599342
金沢中野,カネザワナカノ,KANEZAWA NAKANO,,39.365138,140.566543
金沢本町,カネザワモトマチ,KANEZAWA MOTOMACHI,,39.378464,140.573901
上内町,カミウチマチ,KAMIUCHIMACHI,,39.312034,140.574187
上境,カミザカイ,KAMIZAKAI,,39.344118,140.536979
上八丁,カミウチマチ 8,KAMIUCHIMACHI 8,,39.332483,140.530923
清川町,キヨカワチョウ,KIYOKAWACHO,,39.310858,140.570889
黒川,クロカワ,KUROKAWA,,39.363813,140.500932
寿町,コトブキチョウ,KOTOBUKICHO,,39.312344,140.562466
幸町,サイワイチョウ,SAIWAICHO,,39.325066,140.565503
山内筏,サンナイイカダ,SANNAI IKADA,,39.261335,140.649667
山内大沢,サンナイオオサワ,SANNAI OSAWA,,39.291161,140.59135
山内大松川,サンナイオオマツカワ,SANNAI OMATSUKAWA,,39.340497,140.664492
山内黒沢,サンナイクロサワ,SANNAI KUROSAWA,,39.254436,140.737912
山内小松川,サンナイコマツカワ,SANNAI KOMATSUKAWA,,39.295664,140.666553
山内土渕,サンナイツチブチ,SANNAI TSUCHIBUCHI,,39.277555,140.643704
山内南郷,サンナイナンゴウ,SANNAI NANGO,,39.246311,140.696409
山内平野沢,サンナイヒラノサワ,SANNAI HIRANOSAWA,,39.240755,140.633295
山内三又,サンナイミツマタ,SANNAI MITSUMATA,,39.207002,140.712604
三本柳,サンボンヤナギ,SAMBONYANAGI,,39.321432,140.540082
三枚橋一丁目,サンマイバシ 1,SAMMAIBASHI 1,,39.313272,140.558151
静町,シズカマチ,SHIZUKAMACHI,,39.332264,140.545279
下境,シモザカイ,SHIMOZAKAI,,39.347624,140.515977
下八丁,シモザカイ 8,SHIMOZAKAI 8,,39.335146,140.516924
蛇の崎町,ジャノサキマチ,JANOSAKIMACHI,,39.318503,140.56291
十文字町,ジュウモンジマチアケボノチョウ,JUMONJIMACHI AKEBONOCHO,,39.2247,140.52234
十文字町植田,ジュウモンジマチウエダ,JUMONJIMACHI UEDA,,39.229519,140.470419
十文字町腕越,ジュウモンジマチウデコシ,JUMONJIMACHI UDEKOSHI,,39.2215,140.542264
十文字町越前,ジュウモンジマチエツゼン,JUMONJIMACHI ETSUZEN,,39.23501,140.486168
十文字町鼎,ジュウモンジマチカナエ,JUMONJIMACHI KANAE,,39.226244,140.498382
十文字町上鍋倉,ジュウモンジマチカミナベクラ,JUMONJIMACHI KAMINABEKURA,,39.233788,140.505231
十文字町木下,ジュウモンジマチキジタ,JUMONJIMACHI KIJITA,,39.251907,140.45821
十文字町源太左馬,ジュウモンジマチゲンダサマ,JUMONJIMACHI GENDASAMA,,39.246953,140.456521
十文字町佐賀会,ジュウモンジマチサガエ,JUMONJIMACHI SAGAE,,39.21574,140.50609
十文字町十五野新田,ジュウモンジマチジュウゴノシンデン,JUMONJIMACHI JUGONOSHINDEN,,39.240109,140.514259
十文字町梨木,ジュウモンジマチナシノキ,JUMONJIMACHI NASHINOKI,,39.236121,140.52609
十文字町仁井田,ジュウモンジマチニイダ,JUMONJIMACHI NIIDA,,39.213474,140.523731
十文字町西原一番町,,,,39.225365,140.527084
十文字町西原二番町,,,,39.228487,140.529287
十文字町宝竜一丁目,ジュウモンジマチホウリュウ 1,JUMONJIMACHI HORYU 1,,39.218607,140.522506
十文字町宝竜二丁目,ジュウモンジマチホウリュウ 2,JUMONJIMACHI HORYU 2,,39.217148,140.52264
十文字町睦合,ジュウモンジマチムツアイ,JUMONJIMACHI MUTSUAI,,39.234035,140.43957
十文字町谷地新田,ジュウモンジマチヤチシンデン,JUMONJIMACHI YACHISHINDEN,,39.243818,140.44967
条里一丁目,ジョウリ 1,JORI 1,,39.30961,140.553879
条里二丁目,ジョウリ 2,JORI 2,,39.312409,140.554037
条里三丁目,ジョウリ 3,JORI 3,,39.315893,140.554228
城西町,シロニシマチ,SHIRONISHIMACHI,,39.32323,140.567511
城南町,シロミナミマチ,SHIROMINAMIMACHI,,39.318252,140.57424
城山町,シロヤママチ,SHIROYAMAMACHI,,39.321721,140.56988
新坂町,シンザカチョウ,SHINZAKACHO,,39.327992,140.565486
神明町,シンメイチョウ,SHIMMEICHO,,39.307326,140.567658
杉沢,スギサワ,SUGISAWA,,39.353461,140.601608
杉目,スギメ,SUGIME,,39.344473,140.553884
外目,ソトノメ,SOTONOME,,39.264815,140.540624
台所町,ダイドコロマチ,DAIDOKOROMACHI,,39.331365,140.566521
大雄,タイユウアカヌマ,TAIYU AKANUMA,,39.34104,140.470512
田中町,タナカマチ,TANAKAMACHI,,39.312475,140.565728
中央町,チュウオウマチ,CHUOMACHI,,39.315412,140.565358
塚堀,ツカボリ,TSUKABORI,,39.323718,140.503392
根岸町,ネギシチョウ,NEGISHICHO,,39.319076,140.568779
羽黒町,ハグロチョウ,HAGUROCHO,,39.31481,140.571041
百万刈,ヒャクマンガリ,HYAKUMANGARI,,39.359315,140.492087
平鹿町浅舞,ヒラカマチアサマイ,HIRAKAMACHI ASAMAI,,39.281775,140.475729
平鹿町下鍋倉,ヒラカマチシモナベクラ,HIRAKAMACHI SHIMONABEKURA,,39.250347,140.483242
平鹿町下吉田,ヒラカマチシモヨシダ,HIRAKAMACHI SHIMOYOSHIDA,,39.305674,140.485835
平鹿町醍醐,ヒラカマチダイゴ,HIRAKAMACHI DAIGO,,39.258694,140.525147
平鹿町樽見内,ヒラカマチタルミナイ,HIRAKAMACHI TARUMINAI,,39.270704,140.456287
平鹿町中吉田,ヒラカマチナカヨシダ,HIRAKAMACHI NAKAYOSHIDA,,39.284459,140.49889
平城町,ヒラジョウマチ,HIRAJOMACHI,,39.317614,140.559855
婦気大堤,フケオオヅツミ,FUKEOZUTSUMI,,39.290556,140.546628
二葉町,フタバチョウ,FUTABACHO,,39.321378,140.563246
平和町,ヘイワチョウ,HEIWACHO,,39.3087,140.571569
本郷町,ホンゴウチョウ,HONGOCHO,,39.306599,140.578307
前郷,マエゴウ,MAEGO,,39.295824,140.573347
前郷一番町,マエゴウイチバンチョウ,MAEGO ICHIBANCHO,,39.310861,140.565465
前郷二番町,マエゴウニバンチョウ,MAEGO NIBANCHO,,39.308085,140.564476
増田町荻袋,マスダマチオギノフクロ,MASUDAMACHI OGINOFUKURO,,39.191783,140.594262
増田町亀田,マスダマチカメダ,MASUDAMACHI KAMEDA,,39.219011,140.571802
増田町熊渕,マスダマチクマノフチ,MASUDAMACHI KUMANOFUCHI,,39.194353,140.561171
増田町狙半内,マスダマチサルハンナイ,MASUDAMACHI SARUHANNAI,,39.139375,140.652088
増田町戸波,マスダマチトナミ,MASUDAMACHI TONAMI,,39.184934,140.532993
増田町増田,マスダマチマスダ,MASUDAMACHI MASUDA,,39.207408,140.541301
増田町三又,マスダマチミツマタ,MASUDAMACHI MITSUMATA,,39.190558,140.548263
増田町八木,マスダマチヤギ,MASUDAMACHI YAGI,,39.199147,140.532311
増田町湯野沢,マスダマチユノサワ,MASUDAMACHI YUNOSAWA,,39.197077,140.622586
増田町吉野,マスダマチヨシノ,MASUDAMACHI YOSHINO,,39.206512,140.597289
松原町,マツバラマチ,MATSUBARAMACHI,,39.300336,140.566517
南町,ミナミマチ,MINAMIMACHI,,39.304546,140.568614
明永町,ミョウエイチョウ,MYOEICHO,,39.327655,140.569013
睦成,ムツナリ,MUTSUNARI,,39.334555,140.58742
本町,モトマチ,MOTOMACHI,,39.320753,140.565543
安田,ヤスダ,YASUDA,,39.299419,140.559294
安田原町,ヤスダハラマチ,YASUDAHARAMACHI,,39.300785,140.563117
安本,ヤスモト,YASUMOTO,,39.355193,140.544739
柳田,ヤナギダ,YANAGIDA,,39.276336,140.549434
八幡,ヤワタ,YAWATA,,39.326469,140.549169
横手町,ヨコテマチ,YOKOTEMACHI,,39.317092,140.549431
横山町,ヨコヤマチョウ,YOKOYAMACHO,,39.303572,140.565494
四日町,ヨッカマチ,YOKKAMACHI,,39.315552,140.566809
平鹿町上吉田,ヒラカマチカミヨシダ,HIRAKAMACHI KAMIYOSHIDA,,39.292309,140.515824
清水町新田,シミズマチシンデン,SHIMIZUMACHISHINDEN,,39.313498,140.507267
