name,name_kana,name_romaji,nickname,latitude,longitude
赤川,アカガワ,AKAGAWA,,39.324108,140.526776
赤坂,アカサカ,AKASAKA,,39.306772,140.53736
朝倉町,アサクラチョウ,ASAKURACHO,,39.323677,140.560816
朝日が丘一丁目,アサヒガオカ 1,ASAHIGAOKA 1,,39.298788,140.540401
朝日が丘二丁目,アサヒガオカ 2,ASAHIGAOKA 2,,39.298178,140.538226
朝日が丘三丁目,アサヒガオカ 3,ASAHIGAOKA 3,,39.295166,140.538091
朝日が丘四丁目,アサヒガオカ 4,ASAHIGAOKA 4,,39.29331,140.54085
旭川一丁目,アサヒカワ 1,ASAHIKAWA 1,,39.309495,140.576312
旭川二丁目,アサヒカワ 2,ASAHIKAWA 2,,39.309765,140.578453
旭川三丁目,アサヒカワ 3,ASAHIKAWA 3,,39.309734,140.580478
猪岡,イノオカ,INOKA,,39.318376,140.514657
梅の木町,ウメノキマチ,UMENOKIMACHI,,39.315702,140.557751
駅前町,エキマエチョウ,EKIMAECHO,,39.308784,140.561408
駅南一丁目,エキミナミ 1,EKIMINAMI 1,,39.302415,140.56071
駅南二丁目,エキミナミ 2,EKIMINAMI 2,,39.302577,140.558314
追廻一丁目,オイマワシ 1,OIMAWASHI 1,,39.332247,140.568572
追廻二丁目,オイマワシ 2,OIMAWASHI 2,,39.331959,140.570628
追廻三丁目,オイマワシ 3,OIMAWASHI 3,,39.334844,140.572056
大沢,オオサワ,OSAWA,,39.302941,140.600948
大鳥町,オオトリマチ,OTORIMACHI,,39.329639,140.562591
大町,オオマチ,OMACHI,,39.31577,140.568296
大水戸町,オオミドマチ,OMIDOMACHI,,39.31522,140.563201
大森町,オオモリマチイタイダ,OMORIMACHI ITAIDA,,39.340078,140.424198
大森町板井田,オオモリマチイタイダ,OMORIMACHI ITAIDA,,39.394375,140.431097
大森町上溝,オオモリマチウワミゾ,OMORIMACHI UWAMIZO,,39.337387,140.386487
大森町坂部,オオモリマチサカベ,OMORIMACHI SAKABE,,39.363327,140.290693
大森町猿田,オオモリマチサルタ,OMORIMACHI SARUTA,,39.37484,140.410889
大森町十日町,オオモリマチトオカマチ,OMORIMACHI TOKAMACHI,,39.360455,140.447701
大森町袴形,オオモリマチハカマガタ,OMORIMACHI HAKAMAGATA,,39.374426,140.444263
大森町八沢木,オオモリマチヤサワギ,OMORIMACHI YASAWAGI,,39.360439,140.351329
大屋新町,オオヤシンマチ,OYA SHIMMACHI,,39.280292,140.570853
大屋寺内,オオヤテラウチ,OYA TERAUCHI,,39.258561,140.573311
雄物川町会塚,オモノガワマチアイヅカ,OMONOGAWAMACHI AIZUKA,,39.303345,140.451983
雄物川町今宿,オモノガワマチイマシュク,OMONOGAWAMACHI IMASHUKU,,39.288277,140.402634
雄物川町薄井,オモノガワマチウスイ,OMONOGAWAMACHI USUI,,39.319421,140.437454
雄物川町大沢,オモノガワマチオオサワ,OMONOGAWAMACHI OSAWA,,39.276158,140.368139
雄物川町柏木,オモノガワマチカシワギ,OMONOGAWAMACHI KASHIWAGI,,39.265928,140.42065
雄物川町常野,オモノガワマチジョウノ,OMONOGAWAMACHI JONO,,39.260162,140.421657
雄物川町砂子田,オモノガワマチスナゴタ,OMONOGAWAMACHI SUNAGOTA,,39.291906,140.446058
雄物川町造山,オモノガワマチツクリヤマ,OMONOGAWAMACHI TSUKURIYAMA,,39.275146,140.427882
雄物川町東里,オモノガワマチトウサト,OMONOGAWAMACHI TOSATO,,39.275456,140.443346
雄物川町道地,オモノガワマチドウジ,OMONOGAWAMACHI DOJI,,39.266573,140.405329
雄物川町南形,オモノガワマチナンカタ,OMONOGAWAMACHI NANKATA,,39.277636,140.414768
雄物川町二井山,オモノガワマチニイヤマ,OMONOGAWAMACHI NIIYAMA,,39.308621,140.367319
雄物川町西野,オモノガワマチニシノ,OMONOGAWAMACHI NISHINO,,39.255993,140.414172
雄物川町沼館,オモノガワマチヌマダテ,OMONOGAWAMACHI NUMADATE,,39.302995,140.427456
雄物川町深井,オモノガワマチフカイ,OMONOGAWAMACHI FUKAI,,39.289545,140.417162
雄物川町矢神,オモノガワマチヤガミ,OMONOGAWAMACHI YAGAMI,,39.31034,140.404569
雄物川町谷地新田,オモノガワマチヤチシンデン,OMONOGAWAMACHI YACHISHINDEN,,39.26011,140.438695
卸町,オロシマチ,OROSHIMACHI,,39.322459,140.549175
鍛冶町,カジマチ,KAJIMACHI,,39.311738,140.568543
金沢,カネザワ,KANEZAWA,,39.368976,140.599342
金沢中野,カネザワナカノ,KANEZAWA NAKANO,,39.365138,140.566543
金沢本町,カネザワモトマチ,KANEZAWA MOTOMACHI,,39.378464,140.573901
上内町,カミウチマチ,KAMIUCHIMACHI,,39.312034,140.574187
上境,カミザカイ,KAMIZAKAI,,39.344118,140.536979
上八丁,カミウチマチ 8,KAMIUCHIMACHI 8,,39.332483,140.530923
清川町,キヨカワチョウ,KIYOKAWACHO,,39.310858,140.570889
黒川,クロカワ,KUROKAWA,,39.363813,140.500932
寿町,コトブキチョウ,KOTOBUKICHO,,39.312344,140.562466
幸町,サイワイチョウ,SAIWAICHO,,39.325066,140.565503
山内筏,サンナイイカダ,SANNAI IKADA,,39.261335,140.649667
山内大沢,サンナイオオサワ,SANNAI OSAWA,,39.291161,140.59135
山内大松川,サンナイオオマツカワ,SANNAI OMATSUKAWA,,39.340497,140.664492
山内黒沢,サンナイクロサワ,SANNAI KUROSAWA,,39.254436,140.737912
山内小松川,サンナイコマツカワ,SANNAI KOMATSUKAWA,,39.295664,140.666553
山内土渕,サンナイツチブチ,SANNAI TSUCHIBUCHI,,39.277555,140.643704
山内南郷,サンナイナンゴウ,SANNAI NANGO,,39.246311,140.696409
山内平野沢,サンナイヒラノサワ,SANNAI HIRANOSAWA,,39.240755,140.633295
山内三又,サンナイミツマタ,SANNAI MITSUMATA,,39.207002,140.712604
三本柳,サンボンヤナギ,SAMBONYANAGI,,39.321432,140.540082
三枚橋一丁目,サンマイバシ 1,SAMMAIBASHI 1,,39.313272,140.558151
静町,シズカマチ,SHIZUKAMACHI,,39.332264,140.545279
下境,シモザカイ,SHIMOZAKAI,,39.347624,140.515977
下八丁,シモザカイ 8,SHIMOZAKAI 8,,39.335146,140.516924
蛇の崎町,ジャノサキマチ,JANOSAKIMACHI,,39.318503,140.56291
十文字町,ジュウモンジマチアケボノチョウ,JUMONJIMACHI AKEBONOCHO,,39.2247,140.52234
十文字町植田,ジュウモンジマチウエダ,JUMONJIMACHI UEDA,,39.229519,140.470419
十文字町腕越,ジュウモンジマチウデコシ,JUMONJIMACHI UDEKOSHI,,39.2215,140.542264
十文字町越前,ジュウモンジマチエツゼン,JUMONJIMACHI ETSUZEN,,39.23501,140.486168
十文字町鼎,ジュウモンジマチカナエ,JUMONJIMACHI KANAE,,39.226244,140.498382
十文字町上鍋倉,ジュウモンジマチカミナベクラ,JUMONJIMACHI KAMINABEKURA,,39.233788,140.505231
十文字町木下,ジュウモンジマチキジタ,JUMONJIMACHI KIJITA,,39.251907,140.45821
十文字町源太左馬,ジュウモンジマチゲンダサマ,JUMONJIMACHI GENDASAMA,,39.246953,140.456521
十文字町佐賀会,ジュウモンジマチサガエ,JUMONJIMACHI SAGAE,,39.21574,140.50609
十文字町十五野新田,ジュウモンジマチジュウゴノシンデン,JUMONJIMACHI JUGONOSHINDEN,,39.240109,140.514259
十文字町梨木,ジュウモンジマチナシノキ,JUMONJIMACHI NASHINOKI,,39.236121,140.52609
十文字町仁井田,ジュウモンジマチニイダ,JUMONJIMACHI NIIDA,,39.213474,140.523731
十文字町西原一番町,,,,39.225365,140.527084
十文字町西原二番町,,,,39.228487,140.529287
十文字町宝竜一丁目,ジュウモンジマチホウリュウ 1,JUMONJIMACHI HORYU 1,,39.218607,140.522506
十文字町宝竜二丁目,ジュウモンジマチホウリュウ 2,JUMONJIMACHI HORYU 2,,39.217148,140.52264
十文字町睦合,ジュウモンジマチムツアイ,JUMONJIMACHI MUTSUAI,,39.234035,140.43957
十文字町谷地新田,ジュウモンジマチヤチシンデン,JUMONJIMACHI YACHISHINDEN,,39.243818,140.44967
条里一丁目,ジョウリ 1,JORI 1,,39.30961,140.553879
条里二丁目,ジョウリ 2,JORI 2,,39.312409,140.554037
条里三丁目,ジョウリ 3,JORI 3,,39.315893,140.554228
城西町,シロニシマチ,SHIRONISHIMACHI,,39.32323,140.567511
城南町,シロミナミマチ,SHIROMINAMIMACHI,,39.318252,140.57424
城山町,シロヤママチ,SHIROYAMAMACHI,,39.321721,140.56988
新坂町,シンザカチョウ,SHINZAKACHO,,39.327992,140.565486
神明町,シンメイチョウ,SHIMMEICHO,,39.307326,140.567658
杉沢,スギサワ,SUGISAWA,,39.353461,140.601608
杉目,スギメ,SUGIME,,39.344473,140.553884
外目,ソトノメ,SOTONOME,,39.264815,140.540624
台所町,ダイドコロマチ,DAIDOKOROMACHI,,39.331365,140.566521
大雄,タイユウアカヌマ,TAIYU AKANUMA,,39.34104,140.470512
田中町,タナカマチ,TANAKAMACHI,,39.312475,140.565728
中央町,チュウオウマチ,CHUOMACHI,,39.315412,140.565358
塚堀,ツカボリ,TSUKABORI,,39.323718,140.503392
根岸町,ネギシチョウ,NEGISHICHO,,39.319076,140.568779
羽黒町,ハグロチョウ,HAGUROCHO,,39.31481,140.571041
百万刈,ヒャクマンガリ,HYAKUMANGARI,,39.359315,140.492087
平鹿町浅舞,ヒラカマチアサマイ,HIRAKAMACHI ASAMAI,,39.281775,140.475729
平鹿町下鍋倉,ヒラカマチシモナベクラ,HIRAKAMACHI SHIMONABEKURA,,39.250347,140.483242
平鹿町下吉田,ヒラカマチシモヨシダ,HIRAKAMACHI SHIMOYOSHIDA,,39.305674,140.485835
平鹿町醍醐,ヒラカマチダイゴ,HIRAKAMACHI DAIGO,,39.258694,140.525147
平鹿町樽見内,ヒラカマチタルミナイ,HIRAKAMACHI TARUMINAI,,39.270704,140.456287
平鹿町中吉田,ヒラカマチナカヨシダ,HIRAKAMACHI NAKAYOSHIDA,,39.284459,140.49889
平城町,ヒラジョウマチ,HIRAJOMACHI,,39.317614,140.559855
婦気大堤,フケオオヅツミ,FUKEOZUTSUMI,,39.290556,140.546628
二葉町,フタバチョウ,FUTABACHO,,39.321378,140.563246
平和町,ヘイワチョウ,HEIWACHO,,39.3087,140.571569
本郷町,ホンゴウチョウ,HONGOCHO,,39.306599,140.578307
前郷,マエゴウ,MAEGO,,39.295824,140.573347
前郷一番町,マエゴウイチバンチョウ,MAEGO ICHIBANCHO,,39.310861,140.565465
前郷二番町,マエゴウニバンチョウ,MAEGO NIBANCHO,,39.308085,140.564476
増田町荻袋,マスダマチオギノフクロ,MASUDAMACHI OGINOFUKURO,,39.191783,140.594262
増田町亀田,マスダマチカメダ,MASUDAMACHI KAMEDA,,39.219011,140.571802
増田町熊渕,マスダマチクマノフチ,MASUDAMACHI KUMANOFUCHI,,39.194353,140.561171
増田町狙半内,マスダマチサルハンナイ,MASUDAMACHI SARUHANNAI,,39.139375,140.652088
増田町戸波,マスダマチトナミ,MASUDAMACHI TONAMI,,39.184934,140.532993
増田町増田,マスダマチマスダ,MASUDAMACHI MASUDA,,39.207408,140.541301
増田町三又,マスダマチミツマタ,MASUDAMACHI MITSUMATA,,39.190558,140.548263
増田町八木,マスダマチヤギ,MASUDAMACHI YAGI,,39.199147,140.532311
増田町湯野沢,マスダマチユノサワ,MASUDAMACHI YUNOSAWA,,39.197077,140.622586
増田町吉野,マスダマチヨシノ,MASUDAMACHI YOSHINO,,39.206512,140.597289
松原町,マツバラマチ,MATSUBARAMACHI,,39.300336,140.566517
南町,ミナミマチ,MINAMIMACHI,,39.304546,140.568614
明永町,ミョウエイチョウ,MYOEICHO,,39.327655,140.569013
睦成,ムツナリ,MUTSUNARI,,39.334555,140.58742
本町,モトマチ,MOTOMACHI,,39.320753,140.565543
安田,ヤスダ,YASUDA,,39.299419,140.559294
安田原町,ヤスダハラマチ,YASUDAHARAMACHI,,39.300785,140.563117
安本,ヤスモト,YASUMOTO,,39.355193,140.544739
柳田,ヤナギダ,YANAGIDA,,39.276336,140.549434
八幡,ヤワタ,YAWATA,,39.326469,140.549169
横手町,ヨコテマチ,YOKOTEMACHI,,39.317092,140.549431
横山町,ヨコヤマチョウ,YOKOYAMACHO,,39.303572,140.565494
四日町,ヨッカマチ,YOKKAMACHI,,39.315552,140.566809
平鹿町上吉田,ヒラカマチカミヨシダ,HIRAKAMACHI KAMIYOSHIDA,,39.292309,140.515824
清水町新田,シミズマチシンデン,SHIMIZUMACHISHINDEN,,39.313498,140.507267
大森町上溝,オオモリマチウワミゾ,OMORIMACHI UWAMIZO,寺内,39.351979,140.391301
大森町上溝,オオモリマチウワミゾ,OMORIMACHI UWAMIZO,松原,39.34309,140.40004
大森町上溝,オオモリマチウワミゾ,OMORIMACHI UWAMIZO,観音寺,39.348114,140.395702
雄物川町今宿,オモノガワマチイマシュク,OMONOGAWAMACHI IMASHUKU,末館,39.28358,140.401152
大森町上溝,オオモリマチウワミゾ,OMORIMACHI UWAMIZO,岩清水,39.347283,140.403754
大森町上溝,オオモリマチウワミゾ,OMORIMACHI UWAMIZO,中野,39.339117,140.402969
大森町上溝,オオモリマチウワミゾ,OMORIMACHI UWAMIZO,上野,39.342525,140.405541
雄物川町今宿,オモノガワマチイマシュク,OMONOGAWAMACHI IMASHUKU,郷,39.291217,140.404997
雄物川町今宿,オモノガワマチイマシュク,OMONOGAWAMACHI IMASHUKU,菅生沢,39.292297,140.405018
大森町上溝,オオモリマチウワミゾ,OMORIMACHI UWAMIZO,白山下,39.34788,140.408982
雄物川町南形,オモノガワマチナンカタ,OMONOGAWAMACHI NANKATA,大巻,39.281084,140.412331
雄物川町道地,オモノガワマチドウジ,OMONOGAWAMACHI DOJI,家東,39.266697,140.40982
雄物川町矢神,オモノガワマチヤガミ,OMONOGAWAMACHI YAGAMI,矢神,39.315329,140.411142
雄物川町矢神,オモノガワマチヤガミ,OMONOGAWAMACHI YAGAMI,堂ノ下,39.319079,140.41301
雄物川町南形,オモノガワマチナンカタ,OMONOGAWAMACHI NANKATA,町屋敷,39.277934,140.410991
雄物川町柏木,オモノガワマチカシワギ,OMONOGAWAMACHI KASHIWAGI,後田,39.272584,140.411487
大森町上溝,オオモリマチウワミゾ,OMORIMACHI UWAMIZO,昼川,39.345557,140.412355
雄物川町柏木,オモノガワマチカシワギ,OMONOGAWAMACHI KASHIWAGI,福田,39.272499,140.414655
大森町,オオモリマチイタイダ,OMORIMACHI ITAIDA,菅生田,39.347548,140.417449
雄物川町柏木,オモノガワマチカシワギ,OMONOGAWAMACHI KASHIWAGI,堂ノ脇,39.269459,140.415686
雄物川町南形,オモノガワマチナンカタ,OMONOGAWAMACHI NANKATA,下大巻,39.285774,140.419369
雄物川町沼館,オモノガワマチヌマダテ,OMONOGAWAMACHI NUMADATE,中島,39.293217,140.422002
雄物川町沼館,オモノガワマチヌマダテ,OMONOGAWAMACHI NUMADATE,下川原,39.300441,140.424797
雄物川町薄井,オモノガワマチウスイ,OMONOGAWAMACHI USUI,西船沼,39.315478,140.430127
大森町,オオモリマチイタイダ,OMORIMACHI ITAIDA,町田,39.338158,140.421667
雄物川町常野,オモノガワマチジョウノ,OMONOGAWAMACHI JONO,三津家,39.258051,140.42235
雄物川町西野,オモノガワマチニシノ,OMONOGAWAMACHI NISHINO,上ノ村,39.253808,140.421741
大森町,オオモリマチイタイダ,OMORIMACHI ITAIDA,西野,39.346852,140.422789
雄物川町沼館,オモノガワマチヌマダテ,OMONOGAWAMACHI NUMADATE,館ノ下,39.295993,140.42221
雄物川町造山,オモノガワマチツクリヤマ,OMONOGAWAMACHI TSUKURIYAMA,南田,39.278947,140.424612
大森町,オオモリマチイタイダ,OMORIMACHI ITAIDA,持向,39.358028,140.429391
雄物川町柏木,オモノガワマチカシワギ,OMONOGAWAMACHI KASHIWAGI,三ツ屋,39.271787,140.427128
大森町,オオモリマチイタイダ,OMORIMACHI ITAIDA,長助巻,39.334846,140.425843
雄物川町今宿,オモノガワマチイマシュク,OMONOGAWAMACHI IMASHUKU,出向,39.289362,140.425738
雄物川町沼館,オモノガワマチヌマダテ,OMONOGAWAMACHI NUMADATE,沼館,39.295965,140.428031
雄物川町今宿,オモノガワマチイマシュク,OMONOGAWAMACHI IMASHUKU,下谷地,39.293419,140.427379
十文字町睦合,ジュウモンジマチムツアイ,JUMONJIMACHI MUTSUAI,中福島,39.232419,140.427261
雄物川町西野,オモノガワマチニシノ,OMONOGAWAMACHI NISHINO,浄戒塚,39.253933,140.424276
十文字町睦合,ジュウモンジマチムツアイ,JUMONJIMACHI MUTSUAI,本城,39.244369,140.426955
大森町,オオモリマチイタイダ,OMORIMACHI ITAIDA,本郷,39.336445,140.428326
十文字町睦合,ジュウモンジマチムツアイ,JUMONJIMACHI MUTSUAI,上福島,39.229161,140.42773
雄物川町造山,オモノガワマチツクリヤマ,OMONOGAWAMACHI TSUKURIYAMA,広田表,39.276743,140.428037
雄物川町造山,オモノガワマチツクリヤマ,OMONOGAWAMACHI TSUKURIYAMA,社ノ前,39.27817,140.427832
大森町,オオモリマチイタイダ,OMORIMACHI ITAIDA,大森,39.343823,140.427712
雄物川町沼館,オモノガワマチヌマダテ,OMONOGAWAMACHI NUMADATE,八卦,39.307638,140.423533
十文字町睦合,ジュウモンジマチムツアイ,JUMONJIMACHI MUTSUAI,下砂出,39.229316,140.429509
雄物川町沼館,オモノガワマチヌマダテ,OMONOGAWAMACHI NUMADATE,宮ノ目,39.305408,140.429973
大森町,オオモリマチイタイダ,OMORIMACHI ITAIDA,大中島,39.341582,140.431866
雄物川町沼館,オモノガワマチヌマダテ,OMONOGAWAMACHI NUMADATE,高畑,39.298731,140.429994
雄物川町今宿,オモノガワマチイマシュク,OMONOGAWAMACHI IMASHUKU,鳴田,39.290845,140.430346
雄物川町造山,オモノガワマチツクリヤマ,OMONOGAWAMACHI TSUKURIYAMA,十足馬場,39.280981,140.429887
十文字町睦合,ジュウモンジマチムツアイ,JUMONJIMACHI MUTSUAI,上砂出,39.227777,140.431132
十文字町睦合,ジュウモンジマチムツアイ,JUMONJIMACHI MUTSUAI,砂出川原,39.229753,140.432554
雄物川町今宿,オモノガワマチイマシュク,OMONOGAWAMACHI IMASHUKU,高花,39.286992,140.429151
雄物川町薄井,オモノガワマチウスイ,OMONOGAWAMACHI USUI,下開,39.329041,140.436619
雄物川町薄井,オモノガワマチウスイ,OMONOGAWAMACHI USUI,下船沼,39.31481,140.431183
雄物川町造山,オモノガワマチツクリヤマ,OMONOGAWAMACHI TSUKURIYAMA,栗林,39.276724,140.432366
大森町,オオモリマチイタイダ,OMORIMACHI ITAIDA,西中島,39.344164,140.432475
雄物川町沼館,オモノガワマチヌマダテ,OMONOGAWAMACHI NUMADATE,稲荷前,39.30064,140.431256
雄物川町今宿,オモノガワマチイマシュク,OMONOGAWAMACHI IMASHUKU,西ノ在家,39.288152,140.430184
雄物川町沼館,オモノガワマチヌマダテ,OMONOGAWAMACHI NUMADATE,佐田,39.291496,140.43274
雄物川町沼館,オモノガワマチヌマダテ,OMONOGAWAMACHI NUMADATE,昼飯塚,39.294095,140.432857
雄物川町薄井,オモノガワマチウスイ,OMONOGAWAMACHI USUI,船沼,39.311807,140.432503
雄物川町今宿,オモノガワマチイマシュク,OMONOGAWAMACHI IMASHUKU,前田面,39.289145,140.432274
十文字町睦合,ジュウモンジマチムツアイ,JUMONJIMACHI MUTSUAI,真角,39.241415,140.436023
雄物川町谷地新田,オモノガワマチヤチシンデン,OMONOGAWAMACHI YACHISHINDEN,大元,39.264553,140.436411
雄物川町薄井,オモノガワマチウスイ,OMONOGAWAMACHI USUI,薄井,39.32393,140.438711
雄物川町造山,オモノガワマチツクリヤマ,OMONOGAWAMACHI TSUKURIYAMA,耳取,39.267227,140.437479
雄物川町薄井,オモノガワマチウスイ,OMONOGAWAMACHI USUI,大中島,39.334831,140.4396
雄物川町谷地新田,オモノガワマチヤチシンデン,OMONOGAWAMACHI YACHISHINDEN,上立野,39.261118,140.441003
雄物川町薄井,オモノガワマチウスイ,OMONOGAWAMACHI USUI,上薄井,39.32098,140.437988
雄物川町東里,オモノガワマチトウサト,OMONOGAWAMACHI TOSATO,東槻,39.275712,140.44019
雄物川町谷地新田,オモノガワマチヤチシンデン,OMONOGAWAMACHI YACHISHINDEN,堤添,39.264975,140.440212
雄物川町東里,オモノガワマチトウサト,OMONOGAWAMACHI TOSATO,十三塚,39.277743,140.435635
十文字町睦合,ジュウモンジマチムツアイ,JUMONJIMACHI MUTSUAI,乱場,39.237218,140.440545
大雄,タイユウアカヌマ,TAIYU AKANUMA,藤巻西,39.332347,140.441744
十文字町谷地新田,ジュウモンジマチヤチシンデン,JUMONJIMACHI YACHISHINDEN,根木野,39.254016,140.445244
大森町袴形,オオモリマチハカマガタ,OMORIMACHI HAKAMAGATA,砂間内,39.374365,140.444205
雄物川町薄井,オモノガワマチウスイ,OMONOGAWAMACHI USUI,上大見内,39.302802,140.445309
大森町袴形,オオモリマチハカマガタ,OMORIMACHI HAKAMAGATA,西神成,39.372759,140.445369
十文字町睦合,ジュウモンジマチムツアイ,JUMONJIMACHI MUTSUAI,太郎四郎,39.225618,140.448404
大森町袴形,オオモリマチハカマガタ,OMORIMACHI HAKAMAGATA,影取,39.382879,140.444387
大雄,タイユウアカヌマ,TAIYU AKANUMA,藤巻,39.334578,140.446924
十文字町谷地新田,ジュウモンジマチヤチシンデン,JUMONJIMACHI YACHISHINDEN,根木場,39.250405,140.447134
大森町十日町,オオモリマチトオカマチ,OMORIMACHI TOKAMACHI,西女郎出,39.357958,140.444753
大森町板井田,オオモリマチイタイダ,OMORIMACHI ITAIDA,中山崎,39.39717,140.446193
雄物川町砂子田,オモノガワマチスナゴタ,OMONOGAWAMACHI SUNAGOTA,沼館道北,39.287888,140.44481
大森町十日町,オオモリマチトオカマチ,OMORIMACHI TOKAMACHI,苗代下,39.355877,140.44489
大森町,オオモリマチイタイダ,OMORIMACHI ITAIDA,牛中島,39.350029,140.444951
十文字町睦合,ジュウモンジマチムツアイ,JUMONJIMACHI MUTSUAI,川前,39.228077,140.447051
雄物川町薄井,オモノガワマチウスイ,OMONOGAWAMACHI USUI,小出,39.323249,140.445471
雄物川町谷地新田,オモノガワマチヤチシンデン,OMONOGAWAMACHI YACHISHINDEN,沼田,39.259184,140.449049
平鹿町樽見内,ヒラカマチタルミナイ,HIRAKAMACHI TARUMINAI,福田,39.270234,140.450197
大森町袴形,オオモリマチハカマガタ,OMORIMACHI HAKAMAGATA,北越前林,39.377309,140.447896
大森町板井田,オオモリマチイタイダ,OMORIMACHI ITAIDA,西小出,39.386459,140.447581
大森町板井田,オオモリマチイタイダ,OMORIMACHI ITAIDA,鱗田,39.395933,140.445903
十文字町睦合,ジュウモンジマチムツアイ,JUMONJIMACHI MUTSUAI,川井川,39.231256,140.447081
大森町袴形,オオモリマチハカマガタ,OMORIMACHI HAKAMAGATA,東小出,39.383083,140.447671
十文字町谷地新田,ジュウモンジマチヤチシンデン,JUMONJIMACHI YACHISHINDEN,中村,39.240275,140.44733
雄物川町会塚,オモノガワマチアイヅカ,OMONOGAWAMACHI AIZUKA,北田,39.301542,140.451265
平鹿町樽見内,ヒラカマチタルミナイ,HIRAKAMACHI TARUMINAI,西柄内,39.271478,140.447877
雄物川町薄井,オモノガワマチウスイ,OMONOGAWAMACHI USUI,南神谷地,39.316121,140.44747
十文字町睦合,ジュウモンジマチムツアイ,JUMONJIMACHI MUTSUAI,中谷地,39.23726,140.449774
雄物川町東里,オモノガワマチトウサト,OMONOGAWAMACHI TOSATO,東里,39.276051,140.449096
大森町袴形,オオモリマチハカマガタ,OMORIMACHI HAKAMAGATA,南越前林,39.376092,140.450197
雄物川町薄井,オモノガワマチウスイ,OMONOGAWAMACHI USUI,下大見内,39.307114,140.4485
大森町板井田,オオモリマチイタイダ,OMORIMACHI ITAIDA,上三ッ屋,39.404132,140.451328
十文字町谷地新田,ジュウモンジマチヤチシンデン,JUMONJIMACHI YACHISHINDEN,役内,39.251565,140.450674
雄物川町会塚,オモノガワマチアイヅカ,OMONOGAWAMACHI AIZUKA,石塚,39.294115,140.450164
雄物川町東里,オモノガワマチトウサト,OMONOGAWAMACHI TOSATO,東里北,39.280707,140.450152
雄物川町東里,オモノガワマチトウサト,OMONOGAWAMACHI TOSATO,立野,39.280537,140.449094
大森町板井田,オオモリマチイタイダ,OMORIMACHI ITAIDA,高八卦,39.402338,140.450995
大森町板井田,オオモリマチイタイダ,OMORIMACHI ITAIDA,北松田,39.388454,140.451336
大雄,タイユウアカヌマ,TAIYU AKANUMA,田町,39.329399,140.451657
平鹿町樽見内,ヒラカマチタルミナイ,HIRAKAMACHI TARUMINAI,柄内,39.271896,140.451092
大森町板井田,オオモリマチイタイダ,OMORIMACHI ITAIDA,南松田,39.386848,140.452454
平鹿町樽見内,ヒラカマチタルミナイ,HIRAKAMACHI TARUMINAI,北沢,39.252861,140.454052
大森町板井田,オオモリマチイタイダ,OMORIMACHI ITAIDA,中小中島,39.39768,140.454549
十文字町源太左馬,ジュウモンジマチゲンダサマ,JUMONJIMACHI GENDASAMA,源太,39.249516,140.455047
大雄,タイユウアカヌマ,TAIYU AKANUMA,土井尻,39.333223,140.452131
大森町板井田,オオモリマチイタイダ,OMORIMACHI ITAIDA,南小中島,39.396553,140.453357
大雄,タイユウアカヌマ,TAIYU AKANUMA,剰水,39.320395,140.456609
十文字町睦合,ジュウモンジマチムツアイ,JUMONJIMACHI MUTSUAI,宿,39.226256,140.455879
十文字町睦合,ジュウモンジマチムツアイ,JUMONJIMACHI MUTSUAI,朝日野,39.224366,140.454743
平鹿町樽見内,ヒラカマチタルミナイ,HIRAKAMACHI TARUMINAI,中在家,39.275465,140.456029
大雄,タイユウアカヌマ,TAIYU AKANUMA,下新処,39.324029,140.457484
十文字町睦合,ジュウモンジマチムツアイ,JUMONJIMACHI MUTSUAI,左馬,39.223358,140.457134
十文字町谷地新田,ジュウモンジマチヤチシンデン,JUMONJIMACHI YACHISHINDEN,荊島,39.242181,140.457405
十文字町源太左馬,ジュウモンジマチゲンダサマ,JUMONJIMACHI GENDASAMA,前田,39.247046,140.457198
大雄,タイユウアカヌマ,TAIYU AKANUMA,西中島,39.35469,140.459745
大雄,タイユウアカヌマ,TAIYU AKANUMA,島田,39.330563,140.453846
大雄,タイユウアカヌマ,TAIYU AKANUMA,南阿気,39.339298,140.456802
雄物川町会塚,オモノガワマチアイヅカ,OMONOGAWAMACHI AIZUKA,又兵衛,39.312347,140.458347
大雄,タイユウアカヌマ,TAIYU AKANUMA,東阿気,39.347606,140.459355
平鹿町樽見内,ヒラカマチタルミナイ,HIRAKAMACHI TARUMINAI,新屋,39.260857,140.458635
平鹿町樽見内,ヒラカマチタルミナイ,HIRAKAMACHI TARUMINAI,扇田,39.271667,140.459717
平鹿町樽見内,ヒラカマチタルミナイ,HIRAKAMACHI TARUMINAI,砂子田,39.280394,140.458388
十文字町谷地新田,ジュウモンジマチヤチシンデン,JUMONJIMACHI YACHISHINDEN,旭野,39.241195,140.458584
平鹿町樽見内,ヒラカマチタルミナイ,HIRAKAMACHI TARUMINAI,大釜,39.278427,140.459823
平鹿町樽見内,ヒラカマチタルミナイ,HIRAKAMACHI TARUMINAI,高畑,39.261898,140.459801
十文字町植田,ジュウモンジマチウエダ,JUMONJIMACHI UEDA,一ト市,39.227156,140.462382
十文字町木下,ジュウモンジマチキジタ,JUMONJIMACHI KIJITA,一本柳,39.249319,140.461589
平鹿町浅舞,ヒラカマチアサマイ,HIRAKAMACHI ASAMAI,上中野,39.296389,140.460267
平鹿町下鍋倉,ヒラカマチシモナベクラ,HIRAKAMACHI SHIMONABEKURA,上甚平,39.253887,140.461531
十文字町植田,ジュウモンジマチウエダ,JUMONJIMACHI UEDA,下羽場,39.22513,140.464292
十文字町源太左馬,ジュウモンジマチゲンダサマ,JUMONJIMACHI GENDASAMA,石川原,39.245654,140.464058
平鹿町浅舞,ヒラカマチアサマイ,HIRAKAMACHI ASAMAI,釜池,39.288838,140.465117
大雄,タイユウアカヌマ,TAIYU AKANUMA,桜森,39.336113,140.462997
大雄,タイユウアカヌマ,TAIYU AKANUMA,西四津屋,39.32497,140.461433
十文字町植田,ジュウモンジマチウエダ,JUMONJIMACHI UEDA,沼尻,39.239888,140.465924
大雄,タイユウアカヌマ,TAIYU AKANUMA,乗阿気,39.354008,140.463358
大雄,タイユウアカヌマ,TAIYU AKANUMA,柏木西,39.31338,140.46295
平鹿町浅舞,ヒラカマチアサマイ,HIRAKAMACHI ASAMAI,後野,39.295853,140.464789
平鹿町樽見内,ヒラカマチタルミナイ,HIRAKAMACHI TARUMINAI,小豆田,39.259689,140.470402
平鹿町下鍋倉,ヒラカマチシモナベクラ,HIRAKAMACHI SHIMONABEKURA,甚平,39.251514,140.464049
平鹿町樽見内,ヒラカマチタルミナイ,HIRAKAMACHI TARUMINAI,堀田,39.271006,140.463612
大雄,タイユウアカヌマ,TAIYU AKANUMA,東四津屋,39.320933,140.463921
大雄,タイユウアカヌマ,TAIYU AKANUMA,高津野,39.357796,140.468448
大雄,タイユウアカヌマ,TAIYU AKANUMA,大慈寺谷地,39.350022,140.465575
十文字町木下,ジュウモンジマチキジタ,JUMONJIMACHI KIJITA,沢田,39.24519,140.466555
大雄,タイユウアカヌマ,TAIYU AKANUMA,柏木下,39.314786,140.466303
大雄,タイユウアカヌマ,TAIYU AKANUMA,東桜森,39.336332,140.465239
大雄,タイユウアカヌマ,TAIYU AKANUMA,柏木,39.311991,140.465062
大雄,タイユウアカヌマ,TAIYU AKANUMA,向田,39.351777,140.465927
大雄,タイユウアカヌマ,TAIYU AKANUMA,三村西,39.338906,140.467869
平鹿町浅舞,ヒラカマチアサマイ,HIRAKAMACHI ASAMAI,蛭野,39.285148,140.468339
平鹿町下鍋倉,ヒラカマチシモナベクラ,HIRAKAMACHI SHIMONABEKURA,馬場尻,39.254168,140.466369
平鹿町浅舞,ヒラカマチアサマイ,HIRAKAMACHI ASAMAI,高野尻,39.297172,140.466018
平鹿町浅舞,ヒラカマチアサマイ,HIRAKAMACHI ASAMAI,下高口,39.304719,140.467975
平鹿町浅舞,ヒラカマチアサマイ,HIRAKAMACHI ASAMAI,鷹野,39.29525,140.467411
平鹿町樽見内,ヒラカマチタルミナイ,HIRAKAMACHI TARUMINAI,古館,39.266838,140.466977
平鹿町浅舞,ヒラカマチアサマイ,HIRAKAMACHI ASAMAI,反見,39.29232,140.468363
大雄,タイユウアカヌマ,TAIYU AKANUMA,石持前,39.333823,140.467438
十文字町植田,ジュウモンジマチウエダ,JUMONJIMACHI UEDA,西荒屋布,39.240752,140.467675
平鹿町樽見内,ヒラカマチタルミナイ,HIRAKAMACHI TARUMINAI,海道添,39.266389,140.465625
十文字町植田,ジュウモンジマチウエダ,JUMONJIMACHI UEDA,東荒屋布,39.235197,140.467959
大雄,タイユウアカヌマ,TAIYU AKANUMA,上桜森,39.316749,140.470291
大雄,タイユウアカヌマ,TAIYU AKANUMA,樋脇,39.328922,140.469028
大雄,タイユウアカヌマ,TAIYU AKANUMA,大慈寺前,39.346635,140.468003
平鹿町浅舞,ヒラカマチアサマイ,HIRAKAMACHI ASAMAI,蜂笛,39.288685,140.46832
大雄,タイユウアカヌマ,TAIYU AKANUMA,石持,39.335946,140.469469
平鹿町浅舞,ヒラカマチアサマイ,HIRAKAMACHI ASAMAI,餅田,39.293201,140.468425
十文字町植田,ジュウモンジマチウエダ,JUMONJIMACHI UEDA,上羽場,39.226343,140.468555
十文字町植田,ジュウモンジマチウエダ,JUMONJIMACHI UEDA,羽場,39.224955,140.468456
十文字町植田,ジュウモンジマチウエダ,JUMONJIMACHI UEDA,忍ノ沢,39.235118,140.472915
大雄,タイユウアカヌマ,TAIYU AKANUMA,折橋,39.350423,140.475073
大雄,タイユウアカヌマ,TAIYU AKANUMA,大慈寺東,39.346359,140.469962
十文字町植田,ジュウモンジマチウエダ,JUMONJIMACHI UEDA,下二ツ橋,39.241569,140.472694
大雄,タイユウアカヌマ,TAIYU AKANUMA,向,39.313351,140.470916
平鹿町浅舞,ヒラカマチアサマイ,HIRAKAMACHI ASAMAI,返諏訪,39.264329,140.475777
十文字町植田,ジュウモンジマチウエダ,JUMONJIMACHI UEDA,植田,39.23094,140.47229
大雄,タイユウアカヌマ,TAIYU AKANUMA,大谷地西,39.342624,140.472637
十文字町植田,ジュウモンジマチウエダ,JUMONJIMACHI UEDA,土満,39.223705,140.47236
大雄,タイユウアカヌマ,TAIYU AKANUMA,三村,39.335736,140.473256
大雄,タイユウアカヌマ,TAIYU AKANUMA,大谷地,39.33916,140.473963
大雄,タイユウアカヌマ,TAIYU AKANUMA,新町北,39.366165,140.474097
大雄,タイユウアカヌマ,TAIYU AKANUMA,福島南,39.36957,140.473229
平鹿町下吉田,ヒラカマチシモヨシダ,HIRAKAMACHI SHIMOYOSHIDA,下高口,39.304612,140.472686
大雄,タイユウアカヌマ,TAIYU AKANUMA,狐塚,39.330029,140.473754
大雄,タイユウアカヌマ,TAIYU AKANUMA,向東,39.314082,140.473739
十文字町植田,ジュウモンジマチウエダ,JUMONJIMACHI UEDA,志摩,39.217785,140.475793
十文字町植田,ジュウモンジマチウエダ,JUMONJIMACHI UEDA,四ツ屋,39.227991,140.477353
大雄,タイユウアカヌマ,TAIYU AKANUMA,新町西,39.360378,140.473359
大雄,タイユウアカヌマ,TAIYU AKANUMA,福島,39.374692,140.475658
平鹿町浅舞,ヒラカマチアサマイ,HIRAKAMACHI ASAMAI,上高野,39.288103,140.474074
十文字町植田,ジュウモンジマチウエダ,JUMONJIMACHI UEDA,大清水,39.232879,140.474337
平鹿町下吉田,ヒラカマチシモヨシダ,HIRAKAMACHI SHIMOYOSHIDA,石川原,39.312493,140.478281
十文字町植田,ジュウモンジマチウエダ,JUMONJIMACHI UEDA,高口,39.223528,140.476478
大雄,タイユウアカヌマ,TAIYU AKANUMA,新町東,39.360006,140.475389
大雄,タイユウアカヌマ,TAIYU AKANUMA,大関,39.339334,140.476348
大雄,タイユウアカヌマ,TAIYU AKANUMA,三村東,39.334491,140.473716
十文字町植田,ジュウモンジマチウエダ,JUMONJIMACHI UEDA,上二ツ橋,39.238006,140.475608
大雄,タイユウアカヌマ,TAIYU AKANUMA,田村,39.356676,140.477656
大雄,タイユウアカヌマ,TAIYU AKANUMA,一ノ関南,39.320487,140.474981
平鹿町下鍋倉,ヒラカマチシモナベクラ,HIRAKAMACHI SHIMONABEKURA,上都,39.245837,140.475866
大雄,タイユウアカヌマ,TAIYU AKANUMA,新町南,39.353526,140.47782
十文字町越前,ジュウモンジマチエツゼン,JUMONJIMACHI ETSUZEN,坂三塔,39.24146,140.477
平鹿町下吉田,ヒラカマチシモヨシダ,HIRAKAMACHI SHIMOYOSHIDA,一本杉,39.303403,140.478866
平鹿町浅舞,ヒラカマチアサマイ,HIRAKAMACHI ASAMAI,新平川,39.278551,140.479387
十文字町越前,ジュウモンジマチエツゼン,JUMONJIMACHI ETSUZEN,二ツ橋,39.239408,140.477706
平鹿町浅舞,ヒラカマチアサマイ,HIRAKAMACHI ASAMAI,五味川,39.291149,140.480391
平鹿町浅舞,ヒラカマチアサマイ,HIRAKAMACHI ASAMAI,荒小屋東,39.270407,140.493554
大雄,タイユウアカヌマ,TAIYU AKANUMA,本庄道北堰間,39.333032,140.47671
大雄,タイユウアカヌマ,TAIYU AKANUMA,一ノ関東,39.322244,140.478918
平鹿町浅舞,ヒラカマチアサマイ,HIRAKAMACHI ASAMAI,諏訪野,39.261556,140.478176
平鹿町浅舞,ヒラカマチアサマイ,HIRAKAMACHI ASAMAI,八幡小路,39.262698,140.481519
大雄,タイユウアカヌマ,TAIYU AKANUMA,柏木南,39.350333,140.478756
十文字町越前,ジュウモンジマチエツゼン,JUMONJIMACHI ETSUZEN,山道下,39.239492,140.478748
大雄,タイユウアカヌマ,TAIYU AKANUMA,傾城塚,39.348451,140.483079
平鹿町浅舞,ヒラカマチアサマイ,HIRAKAMACHI ASAMAI,古本町,39.260968,140.480519
大雄,タイユウアカヌマ,TAIYU AKANUMA,耳取,39.344615,140.485577
平鹿町下鍋倉,ヒラカマチシモナベクラ,HIRAKAMACHI SHIMONABEKURA,城戸,39.252819,140.480135
平鹿町下鍋倉,ヒラカマチシモナベクラ,HIRAKAMACHI SHIMONABEKURA,鍋倉,39.248654,140.48151
平鹿町浅舞,ヒラカマチアサマイ,HIRAKAMACHI ASAMAI,檀ノ前,39.289757,140.483304
平鹿町浅舞,ヒラカマチアサマイ,HIRAKAMACHI ASAMAI,加羽,39.278113,140.480805
十文字町鼎,ジュウモンジマチカナエ,JUMONJIMACHI KANAE,海蔵院,39.221014,140.48306
平鹿町下鍋倉,ヒラカマチシモナベクラ,HIRAKAMACHI SHIMONABEKURA,下六ッ段,39.257113,140.481906
平鹿町浅舞,ヒラカマチアサマイ,HIRAKAMACHI ASAMAI,研町,39.260101,140.482601
平鹿町浅舞,ヒラカマチアサマイ,HIRAKAMACHI ASAMAI,千刈田,39.263579,140.480883
平鹿町下鍋倉,ヒラカマチシモナベクラ,HIRAKAMACHI SHIMONABEKURA,下糸畑原,39.250421,140.485044
平鹿町下吉田,ヒラカマチシモヨシダ,HIRAKAMACHI SHIMOYOSHIDA,高口狐森,39.29511,140.482516
平鹿町下吉田,ヒラカマチシモヨシダ,HIRAKAMACHI SHIMOYOSHIDA,高口東,39.299204,140.484164
大雄,タイユウアカヌマ,TAIYU AKANUMA,田根森,39.331801,140.483988
十文字町越前,ジュウモンジマチエツゼン,JUMONJIMACHI ETSUZEN,越前,39.228674,140.486529
平鹿町浅舞,ヒラカマチアサマイ,HIRAKAMACHI ASAMAI,林崎,39.273327,140.483658
大雄,タイユウアカヌマ,TAIYU AKANUMA,耳取西,39.346114,140.483457
大雄,タイユウアカヌマ,TAIYU AKANUMA,上田村西,39.328656,140.483246
平鹿町浅舞,ヒラカマチアサマイ,HIRAKAMACHI ASAMAI,新堀,39.26882,140.483677
大雄,タイユウアカヌマ,TAIYU AKANUMA,上田村,39.32679,140.485383
平鹿町中吉田,ヒラカマチナカヨシダ,HIRAKAMACHI NAKAYOSHIDA,狐森,39.293437,140.483639
大雄,タイユウアカヌマ,TAIYU AKANUMA,精兵西,39.332668,140.481562
十文字町越前,ジュウモンジマチエツゼン,JUMONJIMACHI ETSUZEN,大堰端,39.232042,140.485744
大雄,タイユウアカヌマ,TAIYU AKANUMA,本庄道南,39.332283,140.48322
十文字町鼎,ジュウモンジマチカナエ,JUMONJIMACHI KANAE,柳原村尻,39.215785,140.484781
平鹿町下鍋倉,ヒラカマチシモナベクラ,HIRAKAMACHI SHIMONABEKURA,菖蒲沼,39.240571,140.48485
大雄,タイユウアカヌマ,TAIYU AKANUMA,四ッ屋,39.339397,140.48539
大雄,タイユウアカヌマ,TAIYU AKANUMA,精兵村,39.334319,140.486882
平鹿町中吉田,ヒラカマチナカヨシダ,HIRAKAMACHI NAKAYOSHIDA,和村西,39.294524,140.485131
平鹿町浅舞,ヒラカマチアサマイ,HIRAKAMACHI ASAMAI,浅舞,39.264219,140.486422
平鹿町下吉田,ヒラカマチシモヨシダ,HIRAKAMACHI SHIMOYOSHIDA,田村堰東,39.308307,140.484429
大雄,タイユウアカヌマ,TAIYU AKANUMA,上田村東,39.32973,140.4865
十文字町鼎,ジュウモンジマチカナエ,JUMONJIMACHI KANAE,柳原,39.214747,140.488821
平鹿町浅舞,ヒラカマチアサマイ,HIRAKAMACHI ASAMAI,六日町後,39.268242,140.487203
平鹿町浅舞,ヒラカマチアサマイ,HIRAKAMACHI ASAMAI,沼下,39.275457,140.48703
十文字町鼎,ジュウモンジマチカナエ,JUMONJIMACHI KANAE,住吉,39.221269,140.48653
平鹿町浅舞,ヒラカマチアサマイ,HIRAKAMACHI ASAMAI,館廻,39.266039,140.484718
大雄,タイユウアカヌマ,TAIYU AKANUMA,万貝,39.324798,140.486327
大雄,タイユウアカヌマ,TAIYU AKANUMA,文蔵開,39.326633,140.487331
百万刈,ヒャクマンガリ,HYAKUMANGARI,落合,39.379466,140.488081
大雄,タイユウアカヌマ,TAIYU AKANUMA,大森道北,39.349261,140.48779
平鹿町下鍋倉,ヒラカマチシモナベクラ,HIRAKAMACHI SHIMONABEKURA,関根小屋,39.254844,140.489999
平鹿町浅舞,ヒラカマチアサマイ,HIRAKAMACHI ASAMAI,野々助,39.260978,140.487477
十文字町越前,ジュウモンジマチエツゼン,JUMONJIMACHI ETSUZEN,佐戸,39.241488,140.489282
平鹿町下吉田,ヒラカマチシモヨシダ,HIRAKAMACHI SHIMOYOSHIDA,下村,39.301174,140.489482
大雄,タイユウアカヌマ,TAIYU AKANUMA,八柏下村,39.320426,140.488379
平鹿町下鍋倉,ヒラカマチシモナベクラ,HIRAKAMACHI SHIMONABEKURA,上六ッ段,39.251532,140.487287
十文字町鼎,ジュウモンジマチカナエ,JUMONJIMACHI KANAE,牡丹野,39.224377,140.488879
黒川,クロカワ,KUROKAWA,落合,39.376709,140.490275
大雄,タイユウアカヌマ,TAIYU AKANUMA,八柏,39.313858,140.489967
大雄,タイユウアカヌマ,TAIYU AKANUMA,八柏村西,39.318542,140.488791
大雄,タイユウアカヌマ,TAIYU AKANUMA,八柏家間,39.319708,140.491273
大雄,タイユウアカヌマ,TAIYU AKANUMA,田根森東,39.333,140.488326
平鹿町浅舞,ヒラカマチアサマイ,HIRAKAMACHI ASAMAI,福田,39.268144,140.491713
平鹿町下鍋倉,ヒラカマチシモナベクラ,HIRAKAMACHI SHIMONABEKURA,下川前,39.251379,140.488427
平鹿町下吉田,ヒラカマチシモヨシダ,HIRAKAMACHI SHIMOYOSHIDA,七日市,39.304817,140.48936
黒川,クロカワ,KUROKAWA,下共和,39.376112,140.489686
平鹿町中吉田,ヒラカマチナカヨシダ,HIRAKAMACHI NAKAYOSHIDA,和村,39.294689,140.490329
大雄,タイユウアカヌマ,TAIYU AKANUMA,佐加里,39.35532,140.491938
平鹿町浅舞,ヒラカマチアサマイ,HIRAKAMACHI ASAMAI,覚町後,39.263821,140.491172
百万刈,ヒャクマンガリ,HYAKUMANGARI,百万刈,39.370373,140.489941
平鹿町下吉田,ヒラカマチシモヨシダ,HIRAKAMACHI SHIMOYOSHIDA,下村道ノ上,39.300498,140.489781
大雄,タイユウアカヌマ,TAIYU AKANUMA,八柏村表,39.310723,140.490102
平鹿町下吉田,ヒラカマチシモヨシダ,HIRAKAMACHI SHIMOYOSHIDA,弥十郎,39.296083,140.491091
大雄,タイユウアカヌマ,TAIYU AKANUMA,八柏街道添,39.316012,140.490164
大雄,タイユウアカヌマ,TAIYU AKANUMA,八柏中村,39.317788,140.490752
平鹿町下吉田,ヒラカマチシモヨシダ,HIRAKAMACHI SHIMOYOSHIDA,吉田,39.300906,140.490843
平鹿町浅舞,ヒラカマチアサマイ,HIRAKAMACHI ASAMAI,上蒋沼,39.260103,140.491195
平鹿町浅舞,ヒラカマチアサマイ,HIRAKAMACHI ASAMAI,中東,39.265346,140.491257
平鹿町下吉田,ヒラカマチシモヨシダ,HIRAKAMACHI SHIMOYOSHIDA,前谷地,39.305653,140.490966
平鹿町中吉田,ヒラカマチナカヨシダ,HIRAKAMACHI NAKAYOSHIDA,下藤根西,39.284566,140.491758
平鹿町下吉田,ヒラカマチシモヨシダ,HIRAKAMACHI SHIMOYOSHIDA,大戸川西,39.302771,140.49229
大雄,タイユウアカヌマ,TAIYU AKANUMA,根田谷地南,39.333298,140.492716
平鹿町中吉田,ヒラカマチナカヨシダ,HIRAKAMACHI NAKAYOSHIDA,下藤根,39.282822,140.493284
平鹿町浅舞,ヒラカマチアサマイ,HIRAKAMACHI ASAMAI,伊勢堂,39.259056,140.490578
大雄,タイユウアカヌマ,TAIYU AKANUMA,中野東,39.344849,140.493504
黒川,クロカワ,KUROKAWA,合川,39.374261,140.492887
大雄,タイユウアカヌマ,TAIYU AKANUMA,八柏谷地,39.325207,140.493553
大雄,タイユウアカヌマ,TAIYU AKANUMA,根田谷地西,39.334123,140.49245
十文字町鼎,ジュウモンジマチカナエ,JUMONJIMACHI KANAE,大倉,39.220235,140.494925
平鹿町中吉田,ヒラカマチナカヨシダ,HIRAKAMACHI NAKAYOSHIDA,追分,39.294859,140.492867
平鹿町中吉田,ヒラカマチナカヨシダ,HIRAKAMACHI NAKAYOSHIDA,蟹沢西,39.298586,140.492808
黒川,クロカワ,KUROKAWA,下和野,39.370099,140.494779
大雄,タイユウアカヌマ,TAIYU AKANUMA,伝蔵村,39.341606,140.493968
黒川,クロカワ,KUROKAWA,上和野,39.366463,140.495502
平鹿町中吉田,ヒラカマチナカヨシダ,HIRAKAMACHI NAKAYOSHIDA,蟹沢,39.298759,140.493602
平鹿町浅舞,ヒラカマチアサマイ,HIRAKAMACHI ASAMAI,蒋沼,39.259194,140.493405
平鹿町下鍋倉,ヒラカマチシモナベクラ,HIRAKAMACHI SHIMONABEKURA,下掵,39.256139,140.493781
平鹿町浅舞,ヒラカマチアサマイ,HIRAKAMACHI ASAMAI,横手街道北,39.267541,140.495174
黒川,クロカワ,KUROKAWA,二本柳,39.372429,140.495627
黒川,クロカワ,KUROKAWA,鶴巻田,39.363353,140.495786
黒川,クロカワ,KUROKAWA,川原,39.374408,140.496149
平鹿町中吉田,ヒラカマチナカヨシダ,HIRAKAMACHI NAKAYOSHIDA,野村,39.289538,140.495282
平鹿町中吉田,ヒラカマチナカヨシダ,HIRAKAMACHI NAKAYOSHIDA,石塚,39.28819,140.496313
大雄,タイユウアカヌマ,TAIYU AKANUMA,根田谷地,39.335044,140.495243
大雄,タイユウアカヌマ,TAIYU AKANUMA,八柏釜蓋,39.319706,140.495527
大雄,タイユウアカヌマ,TAIYU AKANUMA,佐加里南,39.350826,140.495873
平鹿町下鍋倉,ヒラカマチシモナベクラ,HIRAKAMACHI SHIMONABEKURA,二本松,39.250359,140.497117
平鹿町中吉田,ヒラカマチナカヨシダ,HIRAKAMACHI NAKAYOSHIDA,福田,39.293292,140.495951
黒川,クロカワ,KUROKAWA,余目,39.355832,140.498736
平鹿町浅舞,ヒラカマチアサマイ,HIRAKAMACHI ASAMAI,大東,39.260906,140.496695
平鹿町中吉田,ヒラカマチナカヨシダ,HIRAKAMACHI NAKAYOSHIDA,中藤根下,39.283739,140.496125
十文字町鼎,ジュウモンジマチカナエ,JUMONJIMACHI KANAE,能平喜,39.232994,140.498876
黒川,クロカワ,KUROKAWA,悪戸,39.368148,140.499344
平鹿町中吉田,ヒラカマチナカヨシダ,HIRAKAMACHI NAKAYOSHIDA,竹原,39.269202,140.497075
百万刈,ヒャクマンガリ,HYAKUMANGARI,下根田,39.353209,140.497881
大雄,タイユウアカヌマ,TAIYU AKANUMA,下根田谷地,39.343832,140.498784
平鹿町下鍋倉,ヒラカマチシモナベクラ,HIRAKAMACHI SHIMONABEKURA,上掵,39.251569,140.4971
十文字町佐賀会,ジュウモンジマチサガエ,JUMONJIMACHI SAGAE,八幡前,39.217358,140.500667
十文字町鼎,ジュウモンジマチカナエ,JUMONJIMACHI KANAE,水尻,39.225571,140.498133
十文字町上鍋倉,ジュウモンジマチカミナベクラ,JUMONJIMACHI KAMINABEKURA,勘六村雷,39.234429,140.501609
黒川,クロカワ,KUROKAWA,田中,39.363012,140.501851
十文字町鼎,ジュウモンジマチカナエ,JUMONJIMACHI KANAE,荒田目,39.22465,140.5001
平鹿町上吉田,ヒラカマチカミヨシダ,HIRAKAMACHI KAMIYOSHIDA,大道,39.292651,140.501112
十文字町上鍋倉,ジュウモンジマチカミナベクラ,JUMONJIMACHI KAMINABEKURA,勘六村北,39.235043,140.501134
百万刈,ヒャクマンガリ,HYAKUMANGARI,上根田,39.343797,140.501518
平鹿町浅舞,ヒラカマチアサマイ,HIRAKAMACHI ASAMAI,一関向,39.261092,140.502316
平鹿町浅舞,ヒラカマチアサマイ,HIRAKAMACHI ASAMAI,十六石野,39.257787,140.502605
十文字町鼎,ジュウモンジマチカナエ,JUMONJIMACHI KANAE,新処,39.227522,140.502824
黒川,クロカワ,KUROKAWA,牛柳,39.350243,140.50051
下境,シモザカイ,SHIMOZAKAI,大橋脇,39.345822,140.505372
十文字町上鍋倉,ジュウモンジマチカミナベクラ,JUMONJIMACHI KAMINABEKURA,家後,39.244421,140.504155
十文字町鼎,ジュウモンジマチカナエ,JUMONJIMACHI KANAE,石川原,39.217113,140.505811
平鹿町浅舞,ヒラカマチアサマイ,HIRAKAMACHI ASAMAI,道川南,39.26053,140.504523
下境,シモザカイ,SHIMOZAKAI,根田川,39.342565,140.50508
十文字町佐賀会,ジュウモンジマチサガエ,JUMONJIMACHI SAGAE,新関,39.217894,140.50415
十文字町鼎,ジュウモンジマチカナエ,JUMONJIMACHI KANAE,上野村,39.22439,140.503535
十文字町佐賀会,ジュウモンジマチサガエ,JUMONJIMACHI SAGAE,中川原,39.214518,140.505033
十文字町上鍋倉,ジュウモンジマチカミナベクラ,JUMONJIMACHI KAMINABEKURA,富沢,39.241906,140.506801
下境,シモザカイ,SHIMOZAKAI,庚塚,39.340284,140.505937
下境,シモザカイ,SHIMOZAKAI,稗巻,39.346726,140.507308
下境,シモザカイ,SHIMOZAKAI,目名川,39.350055,140.511601
平鹿町中吉田,ヒラカマチナカヨシダ,HIRAKAMACHI NAKAYOSHIDA,田ノ植,39.288822,140.505826
黒川,クロカワ,KUROKAWA,寺村,39.362186,140.508699
十文字町上鍋倉,ジュウモンジマチカミナベクラ,JUMONJIMACHI KAMINABEKURA,中村倉内,39.233901,140.505901
平鹿町上吉田,ヒラカマチカミヨシダ,HIRAKAMACHI KAMIYOSHIDA,吉田,39.292695,140.506838
十文字町十五野新田,ジュウモンジマチジュウゴノシンデン,JUMONJIMACHI JUGONOSHINDEN,十五野,39.243317,140.506713
十文字町佐賀会,ジュウモンジマチサガエ,JUMONJIMACHI SAGAE,新山道添,39.213222,140.509312
十文字町上鍋倉,ジュウモンジマチカミナベクラ,JUMONJIMACHI KAMINABEKURA,清水田,39.23675,140.508592
十文字町上鍋倉,ジュウモンジマチカミナベクラ,JUMONJIMACHI KAMINABEKURA,掵下中道添,39.233976,140.509887
十文字町佐賀会,ジュウモンジマチサガエ,JUMONJIMACHI SAGAE,阿良谷,39.218976,140.511129
十文字町佐賀会,ジュウモンジマチサガエ,JUMONJIMACHI SAGAE,新山前,39.212907,140.513699
下境,シモザカイ,SHIMOZAKAI,中村,39.346706,140.512436
下境,シモザカイ,SHIMOZAKAI,大島,39.338162,140.509711
黒川,クロカワ,KUROKAWA,寺南,39.361409,140.509046
黒川,クロカワ,KUROKAWA,川南,39.360707,140.511404
十文字町上鍋倉,ジュウモンジマチカミナベクラ,JUMONJIMACHI KAMINABEKURA,掵下清水田,39.229724,140.510501
十文字町十五野新田,ジュウモンジマチジュウゴノシンデン,JUMONJIMACHI JUGONOSHINDEN,東野中,39.243557,140.513335
下境,シモザカイ,SHIMOZAKAI,下三ツ栗,39.341173,140.512608
十文字町佐賀会,ジュウモンジマチサガエ,JUMONJIMACHI SAGAE,伊賀利,39.218936,140.512817
平鹿町上吉田,ヒラカマチカミヨシダ,HIRAKAMACHI KAMIYOSHIDA,角掛,39.28487,140.513528
十文字町上鍋倉,ジュウモンジマチカミナベクラ,JUMONJIMACHI KAMINABEKURA,掵大道西,39.230776,140.512348
黒川,クロカワ,KUROKAWA,目名川,39.352626,140.512755
十文字町上鍋倉,ジュウモンジマチカミナベクラ,JUMONJIMACHI KAMINABEKURA,掵下屋布後,39.226656,140.513959
下境,シモザカイ,SHIMOZAKAI,北大屋敷,39.350476,140.514328
下境,シモザカイ,SHIMOZAKAI,斉藤小屋,39.345151,140.513631
十文字町十五野新田,ジュウモンジマチジュウゴノシンデン,JUMONJIMACHI JUGONOSHINDEN,増田道東,39.232133,140.514866
十文字町佐賀会,ジュウモンジマチサガエ,JUMONJIMACHI SAGAE,下沖田,39.219395,140.517034
十文字町佐賀会,ジュウモンジマチサガエ,JUMONJIMACHI SAGAE,上沖田,39.215596,140.515483
黒川,クロカワ,KUROKAWA,南谷地,39.357116,140.514022
黒川,クロカワ,KUROKAWA,一本木,39.358738,140.518866
十文字町十五野新田,ジュウモンジマチジュウゴノシンデン,JUMONJIMACHI JUGONOSHINDEN,坊主沢,39.235992,140.518523
下境,シモザカイ,SHIMOZAKAI,上三ツ栗,39.341001,140.516527
黒川,クロカワ,KUROKAWA,千本野,39.355936,140.518699
黒川,クロカワ,KUROKAWA,浦島,39.353269,140.515232
下境,シモザカイ,SHIMOZAKAI,太郎小屋,39.346028,140.516416
黒川,クロカワ,KUROKAWA,西野,39.351763,140.517676
十文字町上鍋倉,ジュウモンジマチカミナベクラ,JUMONJIMACHI KAMINABEKURA,上掵,39.224707,140.517139
下境,シモザカイ,SHIMOZAKAI,八百刈,39.344591,140.51792
十文字町,ジュウモンジマチアケボノチョウ,JUMONJIMACHI AKEBONOCHO,海道下,39.226163,140.521266
十文字町仁井田,ジュウモンジマチニイダ,JUMONJIMACHI NIIDA,八萩,39.214891,140.519265
下八丁,シモザカイ 8,SHIMOZAKAI 8,上中島,39.337625,140.51826
十文字町上鍋倉,ジュウモンジマチカミナベクラ,JUMONJIMACHI KAMINABEKURA,西坊田野,39.221352,140.518393
十文字町十五野新田,ジュウモンジマチジュウゴノシンデン,JUMONJIMACHI JUGONOSHINDEN,十文字下タ,39.22522,140.518678
猪岡,イノオカ,INOKA,長瀞,39.315335,140.519002
十文字町上鍋倉,ジュウモンジマチカミナベクラ,JUMONJIMACHI KAMINABEKURA,東坊田野,39.221955,140.519982
十文字町仁井田,ジュウモンジマチニイダ,JUMONJIMACHI NIIDA,東,39.216957,140.519619
平鹿町上吉田,ヒラカマチカミヨシダ,HIRAKAMACHI KAMIYOSHIDA,反見,39.28563,140.520102
下境,シモザカイ,SHIMOZAKAI,日向,39.345604,140.520119
十文字町十五野新田,ジュウモンジマチジュウゴノシンデン,JUMONJIMACHI JUGONOSHINDEN,十浦下タ,39.231867,140.517966
十文字町十五野新田,ジュウモンジマチジュウゴノシンデン,JUMONJIMACHI JUGONOSHINDEN,梨木境,39.240565,140.520504
下境,シモザカイ,SHIMOZAKAI,八気,39.350627,140.521403
赤川,アカガワ,AKAGAWA,村北荒堰間,39.326677,140.520822
下境,シモザカイ,SHIMOZAKAI,千本野,39.355684,140.520394
猪岡,イノオカ,INOKA,水上,39.31756,140.521665
十文字町仁井田,ジュウモンジマチニイダ,JUMONJIMACHI NIIDA,屋布西,39.213757,140.522703
十文字町,ジュウモンジマチアケボノチョウ,JUMONJIMACHI AKEBONOCHO,栄町,39.223415,140.522049
十文字町,ジュウモンジマチアケボノチョウ,JUMONJIMACHI AKEBONOCHO,西上,39.227251,140.524691
十文字町仁井田,ジュウモンジマチニイダ,JUMONJIMACHI NIIDA,町西,39.211914,140.524019
十文字町,ジュウモンジマチアケボノチョウ,JUMONJIMACHI AKEBONOCHO,西下,39.230461,140.523218
平鹿町醍醐,ヒラカマチダイゴ,HIRAKAMACHI DAIGO,中道上,39.250725,140.522937
下境,シモザカイ,SHIMOZAKAI,関合,39.34157,140.524166
平鹿町醍醐,ヒラカマチダイゴ,HIRAKAMACHI DAIGO,掵下,39.249103,140.524056
十文字町仁井田,ジュウモンジマチニイダ,JUMONJIMACHI NIIDA,町東,39.21248,140.525203
平鹿町醍醐,ヒラカマチダイゴ,HIRAKAMACHI DAIGO,下醍醐,39.252225,140.522905
下境,シモザカイ,SHIMOZAKAI,板小屋,39.348656,140.526454
十文字町,ジュウモンジマチアケボノチョウ,JUMONJIMACHI AKEBONOCHO,曙町,39.222681,140.524721
下境,シモザカイ,SHIMOZAKAI,荒田,39.351901,140.524396
下境,シモザカイ,SHIMOZAKAI,馬場,39.347665,140.524852
十文字町梨木,ジュウモンジマチナシノキ,JUMONJIMACHI NASHINOKI,御休ノ上,39.238842,140.526212
十文字町,ジュウモンジマチアケボノチョウ,JUMONJIMACHI AKEBONOCHO,大道東,39.2194,140.525748
十文字町仁井田,ジュウモンジマチニイダ,JUMONJIMACHI NIIDA,大道西,39.216994,140.525791
十文字町仁井田,ジュウモンジマチニイダ,JUMONJIMACHI NIIDA,町頭,39.210938,140.525282
上境,カミザカイ,KAMIZAKAI,谷地中,39.340716,140.527923
十文字町梨木,ジュウモンジマチナシノキ,JUMONJIMACHI NASHINOKI,海道下,39.230578,140.526516
十文字町腕越,ジュウモンジマチウデコシ,JUMONJIMACHI UDEKOSHI,西原,39.223779,140.526869
十文字町梨木,ジュウモンジマチナシノキ,JUMONJIMACHI NASHINOKI,羽場下,39.233748,140.527435
上八丁,カミウチマチ 8,KAMIUCHIMACHI 8,上小屋,39.33322,140.529518
上境,カミザカイ,KAMIZAKAI,中小屋,39.34741,140.528839
赤坂,アカサカ,AKASAKA,沢口,39.300937,140.530333
十文字町,ジュウモンジマチアケボノチョウ,JUMONJIMACHI AKEBONOCHO,麻当,39.219551,140.527777
三本柳,サンボンヤナギ,SAMBONYANAGI,六郎小屋,39.327642,140.52838
平鹿町醍醐,ヒラカマチダイゴ,HIRAKAMACHI DAIGO,街道下,39.242461,140.530427
十文字町,ジュウモンジマチアケボノチョウ,JUMONJIMACHI AKEBONOCHO,下佐吉開,39.222093,140.52913
平鹿町醍醐,ヒラカマチダイゴ,HIRAKAMACHI DAIGO,醍醐,39.244423,140.531797
赤川,アカガワ,AKAGAWA,樋掛,39.323311,140.529564
十文字町腕越,ジュウモンジマチウデコシ,JUMONJIMACHI UDEKOSHI,佐吉開,39.223561,140.532403
十文字町仁井田,ジュウモンジマチニイダ,JUMONJIMACHI NIIDA,大道東,39.213232,140.531813
赤坂,アカサカ,AKASAKA,城野岡,39.30905,140.531132
上境,カミザカイ,KAMIZAKAI,南大倉小屋,39.337825,140.530862
上境,カミザカイ,KAMIZAKAI,上間明田,39.349149,140.530298
上境,カミザカイ,KAMIZAKAI,北大倉小屋,39.33856,140.531634
十文字町梨木,ジュウモンジマチナシノキ,JUMONJIMACHI NASHINOKI,家東,39.234501,140.530449
十文字町梨木,ジュウモンジマチナシノキ,JUMONJIMACHI NASHINOKI,村北,39.236527,140.530436
外目,ソトノメ,SOTONOME,五庵沢,39.269167,140.532116
十文字町仁井田,ジュウモンジマチニイダ,JUMONJIMACHI NIIDA,堰南,39.215803,140.531862
上境,カミザカイ,KAMIZAKAI,下間明田,39.35081,140.530643
平鹿町醍醐,ヒラカマチダイゴ,HIRAKAMACHI DAIGO,大橋,39.251567,140.533093
上境,カミザカイ,KAMIZAKAI,番匠田,39.348637,140.5322
平鹿町醍醐,ヒラカマチダイゴ,HIRAKAMACHI DAIGO,上醍醐,39.25243,140.532727
十文字町,ジュウモンジマチアケボノチョウ,JUMONJIMACHI AKEBONOCHO,上佐吉開,39.221646,140.532928
平鹿町醍醐,ヒラカマチダイゴ,HIRAKAMACHI DAIGO,四ッ屋,39.251629,140.536092
十文字町仁井田,ジュウモンジマチニイダ,JUMONJIMACHI NIIDA,家西,39.218434,140.530292
平鹿町醍醐,ヒラカマチダイゴ,HIRAKAMACHI DAIGO,街道上,39.240708,140.533395
赤坂,アカサカ,AKASAKA,城野岡前,39.312291,140.530834
三本柳,サンボンヤナギ,SAMBONYANAGI,馬場尻,39.324461,140.53328
増田町増田,マスダマチマスダ,MASUDAMACHI MASUDA,一本柳西,39.210738,140.532493
十文字町仁井田,ジュウモンジマチニイダ,JUMONJIMACHI NIIDA,家後,39.217948,140.534596
平鹿町醍醐,ヒラカマチダイゴ,HIRAKAMACHI DAIGO,上狐渕,39.247273,140.533298
赤坂,アカサカ,AKASAKA,橋本,39.308331,140.5346
上八丁,カミウチマチ 8,KAMIUCHIMACHI 8,村東,39.33043,140.534583
外目,ソトノメ,SOTONOME,平鹿端,39.260343,140.536572
平鹿町醍醐,ヒラカマチダイゴ,HIRAKAMACHI DAIGO,下狐渕,39.248558,140.53428
安本,ヤスモト,YASUMOTO,安本,39.355961,140.536495
赤坂,アカサカ,AKASAKA,中山,39.301764,140.533953
平鹿町醍醐,ヒラカマチダイゴ,HIRAKAMACHI DAIGO,石成,39.242818,140.534505
上八丁,カミウチマチ 8,KAMIUCHIMACHI 8,天神町,39.331387,140.536787
上境,カミザカイ,KAMIZAKAI,登津羅町,39.340215,140.540032
上境,カミザカイ,KAMIZAKAI,館,39.346985,140.537082
杉目,スギメ,SUGIME,新屋敷,39.334804,140.536949
三本柳,サンボンヤナギ,SAMBONYANAGI,助太郎小屋,39.325543,140.538955
外目,ソトノメ,SOTONOME,下桜沢,39.272165,140.537709
十文字町腕越,ジュウモンジマチウデコシ,JUMONJIMACHI UDEKOSHI,山道端,39.223191,140.537252
三本柳,サンボンヤナギ,SAMBONYANAGI,街道下,39.321213,140.538111
平鹿町醍醐,ヒラカマチダイゴ,HIRAKAMACHI DAIGO,下篭田,39.239461,140.537094
十文字町腕越,ジュウモンジマチウデコシ,JUMONJIMACHI UDEKOSHI,上掵,39.224659,140.537276
外目,ソトノメ,SOTONOME,後村,39.26448,140.53787
三本柳,サンボンヤナギ,SAMBONYANAGI,沼頭,39.320106,140.537965
増田町増田,マスダマチマスダ,MASUDAMACHI MASUDA,月山西,39.200683,140.539335
上境,カミザカイ,KAMIZAKAI,中悪戸,39.348308,140.536919
上境,カミザカイ,KAMIZAKAI,大上境,39.344563,140.537914
平鹿町醍醐,ヒラカマチダイゴ,HIRAKAMACHI DAIGO,鰌田,39.252214,140.538352
赤坂,アカサカ,AKASAKA,大道添,39.303544,140.538885
三本柳,サンボンヤナギ,SAMBONYANAGI,村尻,39.320332,140.538503
安本,ヤスモト,YASUMOTO,本田下,39.363278,140.53801
赤坂,アカサカ,AKASAKA,上喜連森,39.305808,140.540385
柳田,ヤナギダ,YANAGIDA,新藤,39.276768,140.538992
外目,ソトノメ,SOTONOME,後呂山,39.27475,140.537634
安本,ヤスモト,YASUMOTO,中谷地,39.356303,140.544138
平鹿町醍醐,ヒラカマチダイゴ,HIRAKAMACHI DAIGO,太茂田,39.24837,140.540287
赤坂,アカサカ,AKASAKA,荒沼,39.300903,140.539013
杉目,スギメ,SUGIME,福小屋,39.335046,140.540997
平鹿町醍醐,ヒラカマチダイゴ,HIRAKAMACHI DAIGO,中篭田,39.23152,140.540489
平鹿町醍醐,ヒラカマチダイゴ,HIRAKAMACHI DAIGO,野中,39.228862,140.541722
赤坂,アカサカ,AKASAKA,大沼下,39.300798,140.541122
上境,カミザカイ,KAMIZAKAI,上悪戸,39.347161,140.54101
赤坂,アカサカ,AKASAKA,下後野,39.311549,140.542
上境,カミザカイ,KAMIZAKAI,白幡,39.341141,140.540962
上境,カミザカイ,KAMIZAKAI,川原田,39.343378,140.54114
平鹿町醍醐,ヒラカマチダイゴ,HIRAKAMACHI DAIGO,道中,39.249722,140.542751
赤坂,アカサカ,AKASAKA,白山前,39.3132,140.542481
三本柳,サンボンヤナギ,SAMBONYANAGI,縄手下,39.318357,140.540665
増田町増田,マスダマチマスダ,MASUDAMACHI MASUDA,石神,39.203004,140.541265
外目,ソトノメ,SOTONOME,前村,39.264339,140.541363
上境,カミザカイ,KAMIZAKAI,空原,39.339376,140.542392
三本柳,サンボンヤナギ,SAMBONYANAGI,街道上,39.320981,140.542112
平鹿町醍醐,ヒラカマチダイゴ,HIRAKAMACHI DAIGO,野中上,39.226718,140.54147
上境,カミザカイ,KAMIZAKAI,石田,39.340411,140.542072
増田町増田,マスダマチマスダ,MASUDAMACHI MASUDA,土肥館,39.201198,140.542218
平鹿町醍醐,ヒラカマチダイゴ,HIRAKAMACHI DAIGO,宮西,39.247405,140.546162
十文字町腕越,ジュウモンジマチウデコシ,JUMONJIMACHI UDEKOSHI,石倉,39.222099,140.542372
柳田,ヤナギダ,YANAGIDA,五大尊,39.27958,140.542969
赤坂,アカサカ,AKASAKA,伏山,39.316561,140.544357
赤坂,アカサカ,AKASAKA,赤坂,39.303972,140.543048
三本柳,サンボンヤナギ,SAMBONYANAGI,寺田,39.319537,140.543616
安本,ヤスモト,YASUMOTO,尼辺,39.352401,140.54595
静町,シズカマチ,SHIZUKAMACHI,北小屋,39.336115,140.543985
赤坂,アカサカ,AKASAKA,郷士館,39.301747,140.5467
赤坂,アカサカ,AKASAKA,上後野,39.308286,140.547979
柳田,ヤナギダ,YANAGIDA,大谷地,39.280733,140.545923
赤坂,アカサカ,AKASAKA,大道向,39.302774,140.545332
増田町増田,マスダマチマスダ,MASUDAMACHI MASUDA,本町,39.205175,140.545048
外目,ソトノメ,SOTONOME,三ツ塚山,39.262285,140.546163
平鹿町醍醐,ヒラカマチダイゴ,HIRAKAMACHI DAIGO,下関合,39.23616,140.544443
柳田,ヤナギダ,YANAGIDA,中村,39.28095,140.549211
赤坂,アカサカ,AKASAKA,富ケ沢,39.29372,140.545927
静町,シズカマチ,SHIZUKAMACHI,払小屋,39.334205,140.543283
赤坂,アカサカ,AKASAKA,後野堰添,39.308337,140.547394
静町,シズカマチ,SHIZUKAMACHI,赤口,39.332453,140.545881
安本,ヤスモト,YASUMOTO,南尼辺,39.351756,140.543332
赤坂,アカサカ,AKASAKA,後野,39.306899,140.546676
柳田,ヤナギダ,YANAGIDA,礼塚,39.276307,140.549392
平鹿町醍醐,ヒラカマチダイゴ,HIRAKAMACHI DAIGO,三嶋,39.248854,140.541211
静町,シズカマチ,SHIZUKAMACHI,鶴田,39.327566,140.54684
婦気大堤,フケオオヅツミ,FUKEOZUTSUMI,田久保,39.289423,140.547415
上境,カミザカイ,KAMIZAKAI,毛曽,39.337606,140.545257
平鹿町醍醐,ヒラカマチダイゴ,HIRAKAMACHI DAIGO,上関合,39.235625,140.546999
増田町亀田,マスダマチカメダ,MASUDAMACHI KAMEDA,在城,39.22378,140.546329
静町,シズカマチ,SHIZUKAMACHI,長田,39.331331,140.545294
八幡,ヤワタ,YAWATA,上鶴田,39.324238,140.546743
柳田,ヤナギダ,YANAGIDA,持田,39.272517,140.55252
増田町増田,マスダマチマスダ,MASUDAMACHI MASUDA,竹原道下,39.212978,140.547233
増田町増田,マスダマチマスダ,MASUDAMACHI MASUDA,福嶋道東,39.21103,140.545427
横手町,ヨコテマチ,YOKOTEMACHI,五ノ口,39.315133,140.546919
静町,シズカマチ,SHIZUKAMACHI,村東,39.332554,140.54712
杉目,スギメ,SUGIME,塚腰,39.336949,140.546088
横手町,ヨコテマチ,YOKOTEMACHI,六ノ口,39.317905,140.547167
増田町増田,マスダマチマスダ,MASUDAMACHI MASUDA,中町,39.203965,140.546462
睦成,ムツナリ,MUTSUNARI,三原,39.339258,140.547767
増田町増田,マスダマチマスダ,MASUDAMACHI MASUDA,七日町,39.202719,140.546684
横手町,ヨコテマチ,YOKOTEMACHI,大関越,39.319744,140.54896
八幡,ヤワタ,YAWATA,十二柳,39.32907,140.549962
平鹿町醍醐,ヒラカマチダイゴ,HIRAKAMACHI DAIGO,宮東,39.246863,140.550141
平鹿町醍醐,ヒラカマチダイゴ,HIRAKAMACHI DAIGO,関合,39.233262,140.549378
平鹿町醍醐,ヒラカマチダイゴ,HIRAKAMACHI DAIGO,阿弥陀田,39.243151,140.551309
前郷,マエゴウ,MAEGO,八ツ口,39.312613,140.548767
十文字町腕越,ジュウモンジマチウデコシ,JUMONJIMACHI UDEKOSHI,北軒端,39.219307,140.549418
金沢中野,カネザワナカノ,KANEZAWA NAKANO,十二牲,39.373159,140.548269
婦気大堤,フケオオヅツミ,FUKEOZUTSUMI,西野,39.304531,140.548144
増田町増田,マスダマチマスダ,MASUDAMACHI MASUDA,縫殿,39.198604,140.548635
金沢中野,カネザワナカノ,KANEZAWA NAKANO,西法寺,39.358907,140.554662
八幡,ヤワタ,YAWATA,長者町,39.324495,140.549775
横手町,ヨコテマチ,YOKOTEMACHI,四ノ口,39.312842,140.550821
婦気大堤,フケオオヅツミ,FUKEOZUTSUMI,田久保下,39.293435,140.550505
婦気大堤,フケオオヅツミ,FUKEOZUTSUMI,下久保,39.306173,140.550218
睦成,ムツナリ,MUTSUNARI,西久保目,39.333659,140.550026
横手町,ヨコテマチ,YOKOTEMACHI,三ノ口,39.317095,140.551075
八幡,ヤワタ,YAWATA,上長田,39.326055,140.552319
婦気大堤,フケオオヅツミ,FUKEOZUTSUMI,婦気前,39.301509,140.551561
外目,ソトノメ,SOTONOME,大谷地,39.267219,140.551612
増田町増田,マスダマチマスダ,MASUDAMACHI MASUDA,新町,39.204616,140.550548
睦成,ムツナリ,MUTSUNARI,下久保目,39.335529,140.554325
赤坂,アカサカ,AKASAKA,館ノ下,39.297926,140.550826
婦気大堤,フケオオヅツミ,FUKEOZUTSUMI,谷地添,39.304686,140.553599
八幡,ヤワタ,YAWATA,八幡,39.32215,140.553974
安田,ヤスダ,YASUDA,向田,39.298594,140.553861
金沢中野,カネザワナカノ,KANEZAWA NAKANO,下矢来沢,39.369913,140.55317
増田町亀田,マスダマチカメダ,MASUDAMACHI KAMEDA,下タ町後,39.232464,140.552236
柳田,ヤナギダ,YANAGIDA,笹崎,39.270206,140.553933
婦気大堤,フケオオヅツミ,FUKEOZUTSUMI,堤下,39.293376,140.553972
大屋新町,オオヤシンマチ,OYA SHIMMACHI,大平,39.287032,140.55172
睦成,ムツナリ,MUTSUNARI,関根,39.33314,140.553868
柳田,ヤナギダ,YANAGIDA,柳田,39.27725,140.553011
杉目,スギメ,SUGIME,二タ子下,39.349564,140.553199
杉目,スギメ,SUGIME,堤下,39.344099,140.553726
金沢中野,カネザワナカノ,KANEZAWA NAKANO,三貫堰,39.36221,140.558623
平鹿町醍醐,ヒラカマチダイゴ,HIRAKAMACHI DAIGO,久田,39.247982,140.55467
増田町亀田,マスダマチカメダ,MASUDAMACHI KAMEDA,上堰合,39.215337,140.55736
増田町亀田,マスダマチカメダ,MASUDAMACHI KAMEDA,上堰合北,39.216994,140.556066
睦成,ムツナリ,MUTSUNARI,東馬川原,39.335167,140.556603
増田町亀田,マスダマチカメダ,MASUDAMACHI KAMEDA,半助村南,39.213147,140.557452
横手町,ヨコテマチ,YOKOTEMACHI,上真山,39.318713,140.556317
睦成,ムツナリ,MUTSUNARI,久保目,39.330621,140.554927
杉目,スギメ,SUGIME,大堤下,39.347144,140.553099
杉目,スギメ,SUGIME,野中,39.344293,140.55575
婦気大堤,フケオオヅツミ,FUKEOZUTSUMI,中田,39.296182,140.554855
増田町亀田,マスダマチカメダ,MASUDAMACHI KAMEDA,下タ町,39.227928,140.557394
八幡,ヤワタ,YAWATA,石町,39.325713,140.556048
増田町増田,マスダマチマスダ,MASUDAMACHI MASUDA,若松,39.20266,140.559901
平鹿町醍醐,ヒラカマチダイゴ,HIRAKAMACHI DAIGO,平林,39.252403,140.554999
大屋寺内,オオヤテラウチ,OYA TERAUCHI,下楢沢,39.258554,140.553392
平鹿町醍醐,ヒラカマチダイゴ,HIRAKAMACHI DAIGO,釜ノ川,39.23519,140.556402
平鹿町醍醐,ヒラカマチダイゴ,HIRAKAMACHI DAIGO,馬鞍,39.248768,140.560367
安田,ヤスダ,YASUDA,堰添,39.300449,140.555708
安田,ヤスダ,YASUDA,堰端,39.306556,140.555385
大屋新町,オオヤシンマチ,OYA SHIMMACHI,中野,39.284838,140.557201
安田,ヤスダ,YASUDA,越廻,39.302883,140.555332
安本,ヤスモト,YASUMOTO,中御所野,39.353113,140.55712
増田町亀田,マスダマチカメダ,MASUDAMACHI KAMEDA,下タ町南,39.225899,140.557419
平鹿町醍醐,ヒラカマチダイゴ,HIRAKAMACHI DAIGO,中村,39.233067,140.558138
金沢中野,カネザワナカノ,KANEZAWA NAKANO,蛭沢,39.355797,140.558636
睦成,ムツナリ,MUTSUNARI,上川原,39.33104,140.55794
横手町,ヨコテマチ,YOKOTEMACHI,下真山,39.320878,140.557252
杉目,スギメ,SUGIME,前通,39.342693,140.557546
大屋新町,オオヤシンマチ,OYA SHIMMACHI,小松原,39.278757,140.556669
横手町,ヨコテマチ,YOKOTEMACHI,下飛瀬,39.311512,140.558234
平鹿町醍醐,ヒラカマチダイゴ,HIRAKAMACHI DAIGO,日照田,39.230843,140.55919
睦成,ムツナリ,MUTSUNARI,七間川原,39.332908,140.558222
安田,ヤスダ,YASUDA,縄手添,39.303528,140.557064
前郷,マエゴウ,MAEGO,下三枚橋,39.309948,140.558931
大屋新町,オオヤシンマチ,OYA SHIMMACHI,牛首戸,39.28831,140.558818
金沢中野,カネザワナカノ,KANEZAWA NAKANO,湯森,39.37597,140.557553
前郷,マエゴウ,MAEGO,上三枚橋,39.308955,140.558022
安本,ヤスモト,YASUMOTO,御所野,39.351691,140.558806
杉目,スギメ,SUGIME,街道下,39.345035,140.559212
大屋寺内,オオヤテラウチ,OYA TERAUCHI,上楢沢,39.258378,140.559927
安田,ヤスダ,YASUDA,堂山,39.300035,140.558364
大屋新町,オオヤシンマチ,OYA SHIMMACHI,堂ノ前,39.275947,140.557716
前郷,マエゴウ,MAEGO,下横山,39.306471,140.55826
平鹿町醍醐,ヒラカマチダイゴ,HIRAKAMACHI DAIGO,北野,39.236557,140.561898
大屋寺内,オオヤテラウチ,OYA TERAUCHI,長谷下,39.273704,140.561101
睦成,ムツナリ,MUTSUNARI,八幡田,39.327902,140.559243
増田町亀田,マスダマチカメダ,MASUDAMACHI KAMEDA,半助村,39.215034,140.562448
大屋新町,オオヤシンマチ,OYA SHIMMACHI,新町,39.278898,140.56055
安田,ヤスダ,YASUDA,八王寺,39.294523,140.559795
平鹿町醍醐,ヒラカマチダイゴ,HIRAKAMACHI DAIGO,明沢,39.228733,140.564091
大屋寺内,オオヤテラウチ,OYA TERAUCHI,堀ノ内,39.275185,140.56045
安本,ヤスモト,YASUMOTO,北御所野,39.354686,140.5512
増田町亀田,マスダマチカメダ,MASUDAMACHI KAMEDA,因幡,39.216875,140.559796
大屋新町,オオヤシンマチ,OYA SHIMMACHI,法竜,39.284995,140.560854
増田町増田,マスダマチマスダ,MASUDAMACHI MASUDA,平鹿,39.205488,140.561507
安田,ヤスダ,YASUDA,馬場,39.299029,140.562855
安田,ヤスダ,YASUDA,樋渡,39.305175,140.56043
睦成,ムツナリ,MUTSUNARI,鶴巻,39.333955,140.56246
婦気大堤,フケオオヅツミ,FUKEOZUTSUMI,高ノ森,39.29168,140.560033
安本,ヤスモト,YASUMOTO,南御所野,39.349442,140.55789
安田,ヤスダ,YASUDA,柳堤,39.296844,140.561814
平鹿町醍醐,ヒラカマチダイゴ,HIRAKAMACHI DAIGO,沢口,39.233434,140.562956
睦成,ムツナリ,MUTSUNARI,長坂,39.341614,140.562107
杉目,スギメ,SUGIME,七日市,39.341111,140.560101
大屋新町,オオヤシンマチ,OYA SHIMMACHI,中里前,39.278715,140.563908
大屋新町,オオヤシンマチ,OYA SHIMMACHI,仏ケ沢,39.281076,140.568601
増田町増田,マスダマチマスダ,MASUDAMACHI MASUDA,横落下,39.204268,140.564085
杉沢,スギサワ,SUGISAWA,中杉沢,39.347814,140.564612
安田,ヤスダ,YASUDA,谷地岸,39.30245,140.563799
増田町亀田,マスダマチカメダ,MASUDAMACHI KAMEDA,平鹿,39.206262,140.5656
増田町亀田,マスダマチカメダ,MASUDAMACHI KAMEDA,亀田,39.221385,140.563609
増田町亀田,マスダマチカメダ,MASUDAMACHI KAMEDA,掵,39.208793,140.564136
睦成,ムツナリ,MUTSUNARI,七日市,39.334888,140.560334
杉沢,スギサワ,SUGISAWA,谷地中,39.354595,140.567932
増田町亀田,マスダマチカメダ,MASUDAMACHI KAMEDA,柳原,39.21318,140.564511
大屋新町,オオヤシンマチ,OYA SHIMMACHI,平林,39.28565,140.564042
大屋寺内,オオヤテラウチ,OYA TERAUCHI,長谷,39.268095,140.563011
大屋寺内,オオヤテラウチ,OYA TERAUCHI,寺内,39.271786,140.564535
睦成,ムツナリ,MUTSUNARI,鶴谷地,39.335221,140.564826
金沢中野,カネザワナカノ,KANEZAWA NAKANO,上矢来沢,39.364263,140.564919
安田,ヤスダ,YASUDA,ブンナ沢,39.297046,140.565093
増田町亀田,マスダマチカメダ,MASUDAMACHI KAMEDA,鷹ノ嘴,39.214765,140.565345
増田町増田,マスダマチマスダ,MASUDAMACHI MASUDA,平鹿向,39.20617,140.569298
杉沢,スギサワ,SUGISAWA,鶴谷地,39.340818,140.56565
大屋寺内,オオヤテラウチ,OYA TERAUCHI,寺村,39.273699,140.566068
金沢中野,カネザワナカノ,KANEZAWA NAKANO,長持,39.368084,140.568099
大屋新町,オオヤシンマチ,OYA SHIMMACHI,中里,39.278775,140.566384
前郷,マエゴウ,MAEGO,上松原,39.299408,140.568019
大屋寺内,オオヤテラウチ,OYA TERAUCHI,熊ノ沢,39.262809,140.566521
大屋新町,オオヤシンマチ,OYA SHIMMACHI,鬼嵐,39.276367,140.56627
金沢中野,カネザワナカノ,KANEZAWA NAKANO,物見,39.363163,140.567104
杉沢,スギサワ,SUGISAWA,見入野,39.339929,140.572477
杉沢,スギサワ,SUGISAWA,東杉沢,39.348447,140.567256
平鹿町醍醐,ヒラカマチダイゴ,HIRAKAMACHI DAIGO,城廻,39.247596,140.567215
杉沢,スギサワ,SUGISAWA,狼ノ沢,39.346691,140.57562
杉沢,スギサワ,SUGISAWA,吉沢,39.335459,140.569106
金沢中野,カネザワナカノ,KANEZAWA NAKANO,厨川,39.375049,140.569036
増田町亀田,マスダマチカメダ,MASUDAMACHI KAMEDA,亀ヶ森,39.21086,140.570454
杉沢,スギサワ,SUGISAWA,上台,39.35517,140.574841
増田町亀田,マスダマチカメダ,MASUDAMACHI KAMEDA,上掵,39.209436,140.572637
大屋寺内,オオヤテラウチ,OYA TERAUCHI,漆原,39.26991,140.568937
睦成,ムツナリ,MUTSUNARI,大沢,39.33257,140.572753
金沢中野,カネザワナカノ,KANEZAWA NAKANO,根小屋,39.374347,140.573029
前郷,マエゴウ,MAEGO,大乗院塚,39.303882,140.571444
金沢,カネザワ,KANEZAWA,榊柳,39.37709,140.571473
増田町荻袋,マスダマチオギノフクロ,MASUDAMACHI OGINOFUKURO,真当,39.202674,140.576652
前郷,マエゴウ,MAEGO,兀山,39.298958,140.57294
金沢本町,カネザワモトマチ,KANEZAWA MOTOMACHI,田町,39.378374,140.572187
杉沢,スギサワ,SUGISAWA,中島,39.349721,140.578277
金沢本町,カネザワモトマチ,KANEZAWA MOTOMACHI,荒町,39.380021,140.574391
睦成,ムツナリ,MUTSUNARI,柳沢,39.335998,140.575061
金沢本町,カネザワモトマチ,KANEZAWA MOTOMACHI,立石,39.377506,140.575191
前郷,マエゴウ,MAEGO,本郷,39.305736,140.580089
杉沢,スギサワ,SUGISAWA,糠塚,39.343534,140.577118
金沢本町,カネザワモトマチ,KANEZAWA MOTOMACHI,川目,39.379678,140.576041
杉沢,スギサワ,SUGISAWA,見入野天狗沢,39.345136,140.576874
前郷,マエゴウ,MAEGO,上在家,39.304943,140.576217
金沢,カネザワ,KANEZAWA,館石,39.377884,140.578758
杉沢,スギサワ,SUGISAWA,鶴ケ首,39.340665,140.578826
大沢,オオサワ,OSAWA,西野,39.304848,140.580994
大沢,オオサワ,OSAWA,上庭当田,39.301272,140.58406
大沢,オオサワ,OSAWA,下庭当田,39.301964,140.581399
大沢,オオサワ,OSAWA,前田,39.305777,140.584707
大沢,オオサワ,OSAWA,山下,39.306973,140.587149
大沢,オオサワ,OSAWA,回立,39.291336,140.586371
大沢,オオサワ,OSAWA,大沢,39.303756,140.587574
大沢,オオサワ,OSAWA,嶽鼻,39.299545,140.587446
山内大沢,サンナイオオサワ,SANNAI OSAWA,下長瀞,39.293612,140.589976
杉沢,スギサワ,SUGISAWA,角代沢,39.350175,140.589983
山内大沢,サンナイオオサワ,SANNAI OSAWA,上長瀞,39.289432,140.588801
大沢,オオサワ,OSAWA,羽根山,39.297309,140.591233
山内大沢,サンナイオオサワ,SANNAI OSAWA,矢櫃,39.290112,140.590031
睦成,ムツナリ,MUTSUNARI,一ノ坂,39.340772,140.591956
山内土渕,サンナイツチブチ,SANNAI TSUCHIBUCHI,君ヶ原,39.29139,140.599094
山内土渕,サンナイツチブチ,SANNAI TSUCHIBUCHI,道地,39.289531,140.613937
山内土渕,サンナイツチブチ,SANNAI TSUCHIBUCHI,根子,39.285894,140.612384
山内土渕,サンナイツチブチ,SANNAI TSUCHIBUCHI,鶴ケ池,39.281094,140.620645
山内平野沢,サンナイヒラノサワ,SANNAI HIRANOSAWA,相野々,39.273475,140.622988
山内土渕,サンナイツチブチ,SANNAI TSUCHIBUCHI,小目倉沢,39.290138,140.624136
山内平野沢,サンナイヒラノサワ,SANNAI HIRANOSAWA,南相野々,39.271776,140.623293
山内土渕,サンナイツチブチ,SANNAI TSUCHIBUCHI,菅生,39.284244,140.624416
増田町増田,マスダマチマスダ,MASUDAMACHI MASUDA,真人山下,39.209559,140.571306
十文字町鼎,ジュウモンジマチカナエ,JUMONJIMACHI KANAE,中川原,39.213339,140.487418
十文字町,ジュウモンジマチアケボノチョウ,JUMONJIMACHI AKEBONOCHO,十文字,39.223486,140.523374
十文字町植田,ジュウモンジマチウエダ,JUMONJIMACHI UEDA,宮ノ東,39.226166,140.470543
十文字町睦合,ジュウモンジマチムツアイ,JUMONJIMACHI MUTSUAI,源太,39.220204,140.460498
十文字町梨木,ジュウモンジマチナシノキ,JUMONJIMACHI NASHINOKI,西沢見,39.24392,140.520958
平鹿町下鍋倉,ヒラカマチシモナベクラ,HIRAKAMACHI SHIMONABEKURA,下都,39.251423,140.47842
平鹿町下鍋倉,ヒラカマチシモナベクラ,HIRAKAMACHI SHIMONABEKURA,御倉前,39.25309,140.471704
平鹿町浅舞,ヒラカマチアサマイ,HIRAKAMACHI ASAMAI,中平沢,39.25383,140.475801
十文字町谷地新田,ジュウモンジマチヤチシンデン,JUMONJIMACHI YACHISHINDEN,村下タ,39.244798,140.454777
十文字町谷地新田,ジュウモンジマチヤチシンデン,JUMONJIMACHI YACHISHINDEN,谷地開闢,39.249127,140.436115
雄物川町常野,オモノガワマチジョウノ,OMONOGAWAMACHI JONO,塚ノ越,39.259612,140.422331
雄物川町谷地新田,オモノガワマチヤチシンデン,OMONOGAWAMACHI YACHISHINDEN,上荒谷地,39.260449,140.450033
平鹿町浅舞,ヒラカマチアサマイ,HIRAKAMACHI ASAMAI,小泉,39.268205,140.469411
平鹿町樽見内,ヒラカマチタルミナイ,HIRAKAMACHI TARUMINAI,宿尻,39.274764,140.462007
雄物川町柏木,オモノガワマチカシワギ,OMONOGAWAMACHI KASHIWAGI,柏木,39.271081,140.410917
雄物川町造山,オモノガワマチツクリヤマ,OMONOGAWAMACHI TSUKURIYAMA,蝦夷塚,39.27758,140.420388
雄物川町今宿,オモノガワマチイマシュク,OMONOGAWAMACHI IMASHUKU,猯袋,39.281663,140.43364
雄物川町東里,オモノガワマチトウサト,OMONOGAWAMACHI TOSATO,回館,39.278861,140.434057
雄物川町東里,オモノガワマチトウサト,OMONOGAWAMACHI TOSATO,薬師前,39.276632,140.450843
平鹿町樽見内,ヒラカマチタルミナイ,HIRAKAMACHI TARUMINAI,道下,39.279491,140.455884
山内平野沢,サンナイヒラノサワ,SANNAI HIRANOSAWA,北相野々,39.278254,140.622717
山内土渕,サンナイツチブチ,SANNAI TSUCHIBUCHI,二瀬,39.279083,140.622256
山内平野沢,サンナイヒラノサワ,SANNAI HIRANOSAWA,岩野目,39.279558,140.62444
山内土渕,サンナイツチブチ,SANNAI TSUCHIBUCHI,内渕,39.284175,140.630905
婦気大堤,フケオオヅツミ,FUKEOZUTSUMI,街道下,39.289911,140.560825
雄物川町深井,オモノガワマチフカイ,OMONOGAWAMACHI FUKAI,東又,39.287516,140.423203
雄物川町沼館,オモノガワマチヌマダテ,OMONOGAWAMACHI NUMADATE,小谷地,39.294055,140.431085
雄物川町今宿,オモノガワマチイマシュク,OMONOGAWAMACHI IMASHUKU,棒突,39.292716,140.428923
赤坂,アカサカ,AKASAKA,仁坂,39.297816,140.532632
平鹿町浅舞,ヒラカマチアサマイ,HIRAKAMACHI ASAMAI,桜森境,39.30784,140.466747
平鹿町浅舞,ヒラカマチアサマイ,HIRAKAMACHI ASAMAI,向高口,39.303711,140.471395
雄物川町薄井,オモノガワマチウスイ,OMONOGAWAMACHI USUI,森,39.311107,140.449908
大雄,タイユウアカヌマ,TAIYU AKANUMA,鍛治村,39.310255,140.469336
大雄,タイユウアカヌマ,TAIYU AKANUMA,袋谷地,39.311182,140.473155
睦成,ムツナリ,MUTSUNARI,城付,39.323772,140.577169
赤坂,アカサカ,AKASAKA,高口,39.317408,140.531676
睦成,ムツナリ,MUTSUNARI,足駄塒,39.338769,140.577089
睦成,ムツナリ,MUTSUNARI,吉沢上台,39.336971,140.568073
上境,カミザカイ,KAMIZAKAI,外阿摩部,39.349917,140.54824
金沢,カネザワ,KANEZAWA,寺ノ沢,39.372961,140.578136
大森町袴形,オオモリマチハカマガタ,OMORIMACHI HAKAMAGATA,東神成,39.370945,140.446573
大森町,オオモリマチイタイダ,OMORIMACHI ITAIDA,文天鏡田,39.351213,140.429417
大森町,オオモリマチイタイダ,OMORIMACHI ITAIDA,高口下水戸堤,39.346999,140.432856
大森町,オオモリマチイタイダ,OMORIMACHI ITAIDA,堂林,39.345245,140.421309
大森町,オオモリマチイタイダ,OMORIMACHI ITAIDA,東中島,39.34552,140.431809
大森町,オオモリマチイタイダ,OMORIMACHI ITAIDA,湯ノ沢,39.350997,140.439308
大森町,オオモリマチイタイダ,OMORIMACHI ITAIDA,佐渡,39.34639,140.4291
大森町,オオモリマチイタイダ,OMORIMACHI ITAIDA,久保,39.342845,140.426759
大森町,オオモリマチイタイダ,OMORIMACHI ITAIDA,町回,39.345156,140.4233
大森町八沢木,オオモリマチヤサワギ,OMORIMACHI YASAWAGI,中房,39.35306,140.389348
大森町上溝,オオモリマチウワミゾ,OMORIMACHI UWAMIZO,小詰沢,39.351045,140.400406
大森町上溝,オオモリマチウワミゾ,OMORIMACHI UWAMIZO,新屋敷,39.341325,140.397071
大森町,オオモリマチイタイダ,OMORIMACHI ITAIDA,中田,39.341476,140.426266
大森町,オオモリマチイタイダ,OMORIMACHI ITAIDA,峠町頭,39.339908,140.426187
大森町,オオモリマチイタイダ,OMORIMACHI ITAIDA,真山,39.338739,140.42745
大森町,オオモリマチイタイダ,OMORIMACHI ITAIDA,高野中島,39.337493,140.429992
大森町,オオモリマチイタイダ,OMORIMACHI ITAIDA,小滝下,39.330195,140.422424
大森町,オオモリマチイタイダ,OMORIMACHI ITAIDA,湯の島,39.345976,140.437793
大雄,タイユウアカヌマ,TAIYU AKANUMA,傾城塚南,39.347355,140.479961
大雄,タイユウアカヌマ,TAIYU AKANUMA,折橋南,39.348206,140.477672
大雄,タイユウアカヌマ,TAIYU AKANUMA,新町,39.354436,140.474643
大雄,タイユウアカヌマ,TAIYU AKANUMA,新町西野添,39.359151,140.470084
大雄,タイユウアカヌマ,TAIYU AKANUMA,野中,39.36547,140.46957
大雄,タイユウアカヌマ,TAIYU AKANUMA,東高津野,39.364297,140.472471
大雄,タイユウアカヌマ,TAIYU AKANUMA,東中島,39.350108,140.460574
大雄,タイユウアカヌマ,TAIYU AKANUMA,鶴巻田,39.346428,140.455038
大雄,タイユウアカヌマ,TAIYU AKANUMA,山王,39.358649,140.45922
大雄,タイユウアカヌマ,TAIYU AKANUMA,宮小路,39.345736,140.456016
大雄,タイユウアカヌマ,TAIYU AKANUMA,阿気,39.343865,140.455493
大雄,タイユウアカヌマ,TAIYU AKANUMA,中館合,39.341818,140.455585
大雄,タイユウアカヌマ,TAIYU AKANUMA,西館合,39.341988,140.454029
大雄,タイユウアカヌマ,TAIYU AKANUMA,小林,39.340316,140.445252
大雄,タイユウアカヌマ,TAIYU AKANUMA,六町,39.339245,140.448915
大雄,タイユウアカヌマ,TAIYU AKANUMA,木戸口,39.3439,140.453169
大雄,タイユウアカヌマ,TAIYU AKANUMA,六町東,39.340924,140.452427
大雄,タイユウアカヌマ,TAIYU AKANUMA,下田町,39.329559,140.453591
大雄,タイユウアカヌマ,TAIYU AKANUMA,平柳,39.331655,140.452338
大雄,タイユウアカヌマ,TAIYU AKANUMA,新処,39.324556,140.456657
雄物川町薄井,オモノガワマチウスイ,OMONOGAWAMACHI USUI,下小出,39.325324,140.44397
雄物川町薄井,オモノガワマチウスイ,OMONOGAWAMACHI USUI,上船沼,39.310051,140.432203
雄物川町沼館,オモノガワマチヌマダテ,OMONOGAWAMACHI NUMADATE,下八卦,39.311319,140.425994
雄物川町薄井,オモノガワマチウスイ,OMONOGAWAMACHI USUI,新城,39.3271,140.444962
雄物川町薄井,オモノガワマチウスイ,OMONOGAWAMACHI USUI,抱合,39.327423,140.439026
雄物川町今宿,オモノガワマチイマシュク,OMONOGAWAMACHI IMASHUKU,今宿,39.290768,140.427149
雄物川町砂子田,オモノガワマチスナゴタ,OMONOGAWAMACHI SUNAGOTA,壇ノ尻,39.291113,140.441245
雄物川町砂子田,オモノガワマチスナゴタ,OMONOGAWAMACHI SUNAGOTA,下谷地西,39.291756,140.441018
雄物川町砂子田,オモノガワマチスナゴタ,OMONOGAWAMACHI SUNAGOTA,下谷地,39.292474,140.441412
雄物川町砂子田,オモノガワマチスナゴタ,OMONOGAWAMACHI SUNAGOTA,大清水,39.290165,140.44259
雄物川町会塚,オモノガワマチアイヅカ,OMONOGAWAMACHI AIZUKA,上台,39.292925,140.45628
雄物川町会塚,オモノガワマチアイヅカ,OMONOGAWAMACHI AIZUKA,向井田,39.296169,140.454052
雄物川町会塚,オモノガワマチアイヅカ,OMONOGAWAMACHI AIZUKA,上大塚,39.296927,140.452186
雄物川町会塚,オモノガワマチアイヅカ,OMONOGAWAMACHI AIZUKA,大塚,39.308058,140.451935
雄物川町薄井,オモノガワマチウスイ,OMONOGAWAMACHI USUI,大見内,39.306752,140.448628
雄物川町会塚,オモノガワマチアイヅカ,OMONOGAWAMACHI AIZUKA,大畷,39.304352,140.450457
雄物川町会塚,オモノガワマチアイヅカ,OMONOGAWAMACHI AIZUKA,深田,39.308404,140.453945
雄物川町会塚,オモノガワマチアイヅカ,OMONOGAWAMACHI AIZUKA,田中,39.3066,140.453864
雄物川町会塚,オモノガワマチアイヅカ,OMONOGAWAMACHI AIZUKA,野堰添,39.307566,140.456649
雄物川町会塚,オモノガワマチアイヅカ,OMONOGAWAMACHI AIZUKA,下野,39.311374,140.459809
大雄,タイユウアカヌマ,TAIYU AKANUMA,南四津屋,39.320509,140.461941
大雄,タイユウアカヌマ,TAIYU AKANUMA,北四津屋,39.323424,140.462751
大雄,タイユウアカヌマ,TAIYU AKANUMA,江原,39.341102,140.459397
大雄,タイユウアカヌマ,TAIYU AKANUMA,四ッ屋西,39.338493,140.484171
大雄,タイユウアカヌマ,TAIYU AKANUMA,四ツ屋東,39.334079,140.490316
大雄,タイユウアカヌマ,TAIYU AKANUMA,根田谷地東,39.338038,140.495059
黒川,クロカワ,KUROKAWA,福島,39.364596,140.500772
黒川,クロカワ,KUROKAWA,館西,39.364455,140.499741
黒川,クロカワ,KUROKAWA,悪戸谷地,39.365522,140.497794
黒川,クロカワ,KUROKAWA,新田,39.364061,140.496163
大雄,タイユウアカヌマ,TAIYU AKANUMA,上田村南,39.327724,140.486367
大雄,タイユウアカヌマ,TAIYU AKANUMA,上堰東,39.324314,140.485539
大雄,タイユウアカヌマ,TAIYU AKANUMA,一ノ関,39.322043,140.475762
大雄,タイユウアカヌマ,TAIYU AKANUMA,八柏馬道添,39.31669,140.491996
平鹿町下吉田,ヒラカマチシモヨシダ,HIRAKAMACHI SHIMOYOSHIDA,桑谷地,39.309119,140.478971
平鹿町下吉田,ヒラカマチシモヨシダ,HIRAKAMACHI SHIMOYOSHIDA,桑ノ木,39.309814,140.480472
平鹿町下吉田,ヒラカマチシモヨシダ,HIRAKAMACHI SHIMOYOSHIDA,桑ノ木下,39.312707,140.482133
雄物川町会塚,オモノガワマチアイヅカ,OMONOGAWAMACHI AIZUKA,堂尻,39.305829,140.45336
平鹿町浅舞,ヒラカマチアサマイ,HIRAKAMACHI ASAMAI,西田,39.293241,140.465136
平鹿町中吉田,ヒラカマチナカヨシダ,HIRAKAMACHI NAKAYOSHIDA,夜光,39.29116,140.483455
平鹿町下吉田,ヒラカマチシモヨシダ,HIRAKAMACHI SHIMOYOSHIDA,高口,39.298477,140.481541
平鹿町中吉田,ヒラカマチナカヨシダ,HIRAKAMACHI NAKAYOSHIDA,和村東,39.294676,140.491251
下八丁,シモザカイ 8,SHIMOZAKAI 8,中島,39.337641,140.511834
下境,シモザカイ,SHIMOZAKAI,福蔵谷地,39.345382,140.511071
下境,シモザカイ,SHIMOZAKAI,田中,39.342969,140.512696
下境,シモザカイ,SHIMOZAKAI,三ツ栗,39.340855,140.514974
下八丁,シモザカイ 8,SHIMOZAKAI 8,上境田,39.338425,140.518563
下八丁,シモザカイ 8,SHIMOZAKAI 8,南小三町,39.338072,140.520877
下八丁,シモザカイ 8,SHIMOZAKAI 8,境田,39.338949,140.519094
下境,シモザカイ,SHIMOZAKAI,関合村西,39.341389,140.523435
下境,シモザカイ,SHIMOZAKAI,関合南町,39.340825,140.525109
上境,カミザカイ,KAMIZAKAI,下悪戸,39.34913,140.5357
下境,シモザカイ,SHIMOZAKAI,八気南町,39.349363,140.520751
大雄,タイユウアカヌマ,TAIYU AKANUMA,八柏中村東,39.319362,140.492476
安本,ヤスモト,YASUMOTO,大道添,39.357455,140.53313
安本,ヤスモト,YASUMOTO,下御所野,39.353082,140.547293
杉目,スギメ,SUGIME,村後,39.347917,140.557198
杉沢,スギサワ,SUGISAWA,南杉沢,39.342706,140.56281
金沢中野,カネザワナカノ,KANEZAWA NAKANO,白石沢,39.360549,140.564721
金沢中野,カネザワナカノ,KANEZAWA NAKANO,権五郎塚,39.37216,140.571213
金沢中野,カネザワナカノ,KANEZAWA NAKANO,青葉田,39.370785,140.567575
金沢本町,カネザワモトマチ,KANEZAWA MOTOMACHI,根小屋,39.376749,140.573149
金沢本町,カネザワモトマチ,KANEZAWA MOTOMACHI,本町,39.378033,140.574208
金沢,カネザワ,KANEZAWA,鳥井長根,39.379148,140.579565
杉沢,スギサワ,SUGISAWA,天狗沢,39.348543,140.583673
金沢中野,カネザワナカノ,KANEZAWA NAKANO,川原保,39.375196,140.556325
杉沢,スギサワ,SUGISAWA,ガケ下,39.35345,140.578965
杉沢,スギサワ,SUGISAWA,狼ケ沢,39.346841,140.577743
赤坂,アカサカ,AKASAKA,城野岡道下,39.313474,140.529964
赤坂,アカサカ,AKASAKA,山崎,39.315246,140.528683
三本柳,サンボンヤナギ,SAMBONYANAGI,家間,39.319253,140.540755
三本柳,サンボンヤナギ,SAMBONYANAGI,北ノ町,39.319688,140.539053
上八丁,カミウチマチ 8,KAMIUCHIMACHI 8,大巻,39.331729,140.532191
上八丁,カミウチマチ 8,KAMIUCHIMACHI 8,高揚,39.332586,140.530484
睦成,ムツナリ,MUTSUNARI,碇,39.326025,140.560044
睦成,ムツナリ,MUTSUNARI,大鳥井山下,39.327997,140.559737
婦気大堤,フケオオヅツミ,FUKEOZUTSUMI,南巻,39.306263,140.548111
赤坂,アカサカ,AKASAKA,家ノ前,39.302662,140.542349
赤坂,アカサカ,AKASAKA,上ノ台,39.302776,140.537704
睦成,ムツナリ,MUTSUNARI,追回,39.33392,140.573336
睦成,ムツナリ,MUTSUNARI,下川原,39.335339,140.556913
婦気大堤,フケオオヅツミ,FUKEOZUTSUMI,婦気,39.302455,140.554266
安田,ヤスダ,YASUDA,大台,39.292628,140.564051
前郷,マエゴウ,MAEGO,三井寺,39.304614,140.574375
前郷,マエゴウ,MAEGO,東松原,39.29969,140.568678
前郷,マエゴウ,MAEGO,西ケ坂,39.301606,140.576918
睦成,ムツナリ,MUTSUNARI,清水沢,39.316463,140.573667
山内土渕,サンナイツチブチ,SANNAI TSUCHIBUCHI,平石上段,39.290106,140.629407
山内土渕,サンナイツチブチ,SANNAI TSUCHIBUCHI,平石下段,39.288789,140.630745
雄物川町大沢,オモノガワマチオオサワ,OMONOGAWAMACHI OSAWA,薮沢目,39.280023,140.398764
雄物川町今宿,オモノガワマチイマシュク,OMONOGAWAMACHI IMASHUKU,悪戸,39.288922,140.40669
雄物川町深井,オモノガワマチフカイ,OMONOGAWAMACHI FUKAI,深井,39.279286,140.408835
雄物川町深井,オモノガワマチフカイ,OMONOGAWAMACHI FUKAI,大深ケ,39.278409,140.40949
雄物川町南形,オモノガワマチナンカタ,OMONOGAWAMACHI NANKATA,叶川,39.278368,140.415447
雄物川町南形,オモノガワマチナンカタ,OMONOGAWAMACHI NANKATA,中道下,39.277511,140.41455
雄物川町南形,オモノガワマチナンカタ,OMONOGAWAMACHI NANKATA,下ノ谷地,39.274988,140.410568
雄物川町柏木,オモノガワマチカシワギ,OMONOGAWAMACHI KASHIWAGI,屋敷西,39.270675,140.408188
雄物川町道地,オモノガワマチドウジ,OMONOGAWAMACHI DOJI,道地,39.268874,140.407469
十文字町睦合,ジュウモンジマチムツアイ,JUMONJIMACHI MUTSUAI,真木,39.244091,140.423879
十文字町睦合,ジュウモンジマチムツアイ,JUMONJIMACHI MUTSUAI,上谷地,39.236253,140.437482
十文字町睦合,ジュウモンジマチムツアイ,JUMONJIMACHI MUTSUAI,大明神,39.237566,140.437685
十文字町睦合,ジュウモンジマチムツアイ,JUMONJIMACHI MUTSUAI,下谷地,39.244371,140.436796
十文字町睦合,ジュウモンジマチムツアイ,JUMONJIMACHI MUTSUAI,谷地境,39.242835,140.439304
十文字町谷地新田,ジュウモンジマチヤチシンデン,JUMONJIMACHI YACHISHINDEN,黄金原,39.252438,140.432559
雄物川町造山,オモノガワマチツクリヤマ,OMONOGAWAMACHI TSUKURIYAMA,志戸ケ池,39.269867,140.432926
雄物川町造山,オモノガワマチツクリヤマ,OMONOGAWAMACHI TSUKURIYAMA,造山,39.284393,140.429169
雄物川町砂子田,オモノガワマチスナゴタ,OMONOGAWAMACHI SUNAGOTA,中村,39.285771,140.448095
雄物川町砂子田,オモノガワマチスナゴタ,OMONOGAWAMACHI SUNAGOTA,小谷地,39.285092,140.448217
雄物川町東里,オモノガワマチトウサト,OMONOGAWAMACHI TOSATO,東里東,39.279111,140.452
雄物川町東里,オモノガワマチトウサト,OMONOGAWAMACHI TOSATO,松木,39.280032,140.450562
雄物川町東里,オモノガワマチトウサト,OMONOGAWAMACHI TOSATO,東里西,39.279254,140.447861
雄物川町東里,オモノガワマチトウサト,OMONOGAWAMACHI TOSATO,相川野,39.275355,140.451182
平鹿町樽見内,ヒラカマチタルミナイ,HIRAKAMACHI TARUMINAI,相川野,39.275008,140.452563
雄物川町東里,オモノガワマチトウサト,OMONOGAWAMACHI TOSATO,水尻,39.275026,140.4491
雄物川町東里,オモノガワマチトウサト,OMONOGAWAMACHI TOSATO,釘貫,39.274547,140.445209
雄物川町東里,オモノガワマチトウサト,OMONOGAWAMACHI TOSATO,柄内,39.273984,140.447488
雄物川町東里,オモノガワマチトウサト,OMONOGAWAMACHI TOSATO,水里,39.275703,140.445612
雄物川町東里,オモノガワマチトウサト,OMONOGAWAMACHI TOSATO,内配蒔,39.277282,140.445162
平鹿町樽見内,ヒラカマチタルミナイ,HIRAKAMACHI TARUMINAI,水尻,39.272167,140.449526
十文字町谷地新田,ジュウモンジマチヤチシンデン,JUMONJIMACHI YACHISHINDEN,明神野,39.252048,140.432215
十文字町睦合,ジュウモンジマチムツアイ,JUMONJIMACHI MUTSUAI,駒引,39.231182,140.440313
十文字町睦合,ジュウモンジマチムツアイ,JUMONJIMACHI MUTSUAI,宿屋布,39.230253,140.447659
十文字町睦合,ジュウモンジマチムツアイ,JUMONJIMACHI MUTSUAI,館前,39.22835,140.453642
十文字町睦合,ジュウモンジマチムツアイ,JUMONJIMACHI MUTSUAI,中野,39.222814,140.458883
十文字町植田,ジュウモンジマチウエダ,JUMONJIMACHI UEDA,生板倉,39.242703,140.46574
平鹿町樽見内,ヒラカマチタルミナイ,HIRAKAMACHI TARUMINAI,新処,39.269324,140.46028
平鹿町樽見内,ヒラカマチタルミナイ,HIRAKAMACHI TARUMINAI,笛吹田,39.26849,140.463211
平鹿町樽見内,ヒラカマチタルミナイ,HIRAKAMACHI TARUMINAI,三ッ屋,39.264331,140.463918
平鹿町樽見内,ヒラカマチタルミナイ,HIRAKAMACHI TARUMINAI,平清水,39.264795,140.47007
平鹿町浅舞,ヒラカマチアサマイ,HIRAKAMACHI ASAMAI,足附橋,39.272889,140.466336
平鹿町浅舞,ヒラカマチアサマイ,HIRAKAMACHI ASAMAI,豊前,39.278842,140.463957
平鹿町浅舞,ヒラカマチアサマイ,HIRAKAMACHI ASAMAI,前田表,39.277848,140.463685
平鹿町浅舞,ヒラカマチアサマイ,HIRAKAMACHI ASAMAI,丘見,39.2782,140.464424
平鹿町樽見内,ヒラカマチタルミナイ,HIRAKAMACHI TARUMINAI,婦気,39.282509,140.458911
平鹿町浅舞,ヒラカマチアサマイ,HIRAKAMACHI ASAMAI,大中嶋,39.290473,140.461115
平鹿町下鍋倉,ヒラカマチシモナベクラ,HIRAKAMACHI SHIMONABEKURA,上糸畑原,39.250659,140.481579
平鹿町下鍋倉,ヒラカマチシモナベクラ,HIRAKAMACHI SHIMONABEKURA,下詫宣,39.250464,140.487909
平鹿町下鍋倉,ヒラカマチシモナベクラ,HIRAKAMACHI SHIMONABEKURA,外沢見,39.250887,140.487897
十文字町植田,ジュウモンジマチウエダ,JUMONJIMACHI UEDA,田ノ村,39.231417,140.469933
十文字町越前,ジュウモンジマチエツゼン,JUMONJIMACHI ETSUZEN,宿尻,39.235353,140.479598
十文字町鼎,ジュウモンジマチカナエ,JUMONJIMACHI KANAE,村尻,39.230357,140.500408
十文字町鼎,ジュウモンジマチカナエ,JUMONJIMACHI KANAE,八幡野,39.224481,140.497037
十文字町植田,ジュウモンジマチウエダ,JUMONJIMACHI UEDA,古川端,39.220176,140.469529
十文字町仁井田,ジュウモンジマチニイダ,JUMONJIMACHI NIIDA,下川原,39.213311,140.515193
十文字町仁井田,ジュウモンジマチニイダ,JUMONJIMACHI NIIDA,杉ノ下,39.214306,140.515841
十文字町佐賀会,ジュウモンジマチサガエ,JUMONJIMACHI SAGAE,石川原,39.211643,140.514203
十文字町仁井田,ジュウモンジマチニイダ,JUMONJIMACHI NIIDA,大道北,39.218671,140.527692
十文字町,ジュウモンジマチアケボノチョウ,JUMONJIMACHI AKEBONOCHO,本町,39.223081,140.524025
十文字町仁井田,ジュウモンジマチニイダ,JUMONJIMACHI NIIDA,段ノ下,39.215907,140.525121
十文字町十五野新田,ジュウモンジマチジュウゴノシンデン,JUMONJIMACHI JUGONOSHINDEN,岡見,39.241032,140.509326
十文字町十五野新田,ジュウモンジマチジュウゴノシンデン,JUMONJIMACHI JUGONOSHINDEN,富沢屋布上,39.23701,140.510192
十文字町梨木,ジュウモンジマチナシノキ,JUMONJIMACHI NASHINOKI,沖野,39.230974,140.523931
十文字町十五野新田,ジュウモンジマチジュウゴノシンデン,JUMONJIMACHI JUGONOSHINDEN,堂ノ後,39.246393,140.510103
柳田,ヤナギダ,YANAGIDA,久右エ門沼新田,39.28367,140.551559
柳田,ヤナギダ,YANAGIDA,前田,39.274644,140.553008
柳田,ヤナギダ,YANAGIDA,石田,39.269442,140.549648
外目,ソトノメ,SOTONOME,檀森,39.266338,140.547713
外目,ソトノメ,SOTONOME,土白坂,39.270258,140.534791
外目,ソトノメ,SOTONOME,菖蒲谷地,39.264394,140.543654
平鹿町醍醐,ヒラカマチダイゴ,HIRAKAMACHI DAIGO,下油川,39.248616,140.535791
平鹿町醍醐,ヒラカマチダイゴ,HIRAKAMACHI DAIGO,道中後,39.250845,140.538975
平鹿町醍醐,ヒラカマチダイゴ,HIRAKAMACHI DAIGO,上油川,39.246023,140.53367
平鹿町醍醐,ヒラカマチダイゴ,HIRAKAMACHI DAIGO,下篭田西,39.23704,140.532756
平鹿町醍醐,ヒラカマチダイゴ,HIRAKAMACHI DAIGO,下二ッ又,39.234162,140.546488
平鹿町醍醐,ヒラカマチダイゴ,HIRAKAMACHI DAIGO,釜ノ川下沢田,39.233227,140.551495
平鹿町醍醐,ヒラカマチダイゴ,HIRAKAMACHI DAIGO,野中西,39.22735,140.539981
十文字町梨木,ジュウモンジマチナシノキ,JUMONJIMACHI NASHINOKI,堤ノ上,39.230866,140.530884
増田町増田,マスダマチマスダ,MASUDAMACHI MASUDA,一本柳,39.211753,140.533542
増田町増田,マスダマチマスダ,MASUDAMACHI MASUDA,福嶋道西,39.212226,140.544686
増田町増田,マスダマチマスダ,MASUDAMACHI MASUDA,福嶋,39.21198,140.544299
増田町荻袋,マスダマチオギノフクロ,MASUDAMACHI OGINOFUKURO,萱刈場,39.198068,140.580515
増田町荻袋,マスダマチオギノフクロ,MASUDAMACHI OGINOFUKURO,安養寺野,39.198728,140.578563
増田町亀田,マスダマチカメダ,MASUDAMACHI KAMEDA,樋場,39.211214,140.561276
増田町亀田,マスダマチカメダ,MASUDAMACHI KAMEDA,亀田南,39.22468,140.560565
平鹿町醍醐,ヒラカマチダイゴ,HIRAKAMACHI DAIGO,明沢妻ノ神,39.239651,140.559917
平鹿町醍醐,ヒラカマチダイゴ,HIRAKAMACHI DAIGO,亀井沢,39.250993,140.5563
平鹿町醍醐,ヒラカマチダイゴ,HIRAKAMACHI DAIGO,町尻,39.250006,140.554936
大屋寺内,オオヤテラウチ,OYA TERAUCHI,石田坂,39.263152,140.561656
大屋寺内,オオヤテラウチ,OYA TERAUCHI,長谷山甲,39.263158,140.557634
大屋寺内,オオヤテラウチ,OYA TERAUCHI,長谷山乙,39.267638,140.568712
大屋新町,オオヤシンマチ,OYA SHIMMACHI,白坂,39.272601,140.567887
十文字町睦合,ジュウモンジマチムツアイ,JUMONJIMACHI MUTSUAI,八幡前,39.229633,140.447749
十文字町植田,ジュウモンジマチウエダ,JUMONJIMACHI UEDA,一ツ屋,39.22042,140.47686
十文字町十五野新田,ジュウモンジマチジュウゴノシンデン,JUMONJIMACHI JUGONOSHINDEN,段ノ下,39.247498,140.502235
外目,ソトノメ,SOTONOME,前田,39.262251,140.542321
外目,ソトノメ,SOTONOME,五百刈,39.266789,140.534433
十文字町,ジュウモンジマチアケボノチョウ,JUMONJIMACHI AKEBONOCHO,通町,39.221438,140.523719
前郷,マエゴウ,MAEGO,諸子沢,39.312216,140.576768
平鹿町醍醐,ヒラカマチダイゴ,HIRAKAMACHI DAIGO,当面町,39.257897,140.539203
外目,ソトノメ,SOTONOME,桜,39.268996,140.53203
外目,ソトノメ,SOTONOME,館,39.260665,140.536494
