name,name_kana,name_romaji,nickname,latitude,longitude
青葉町,アオバマチ,AOBAMACHI,,40.200323,140.019083
字悪戸,,,,40.191721,140.060938
字一本木,,,,40.187885,140.06832
字上ノ山,,,,40.198912,140.118621
字上ノ山台,,,,40.201561,140.114288
字後谷地,,,,40.196908,140.023179
字鵜鳥,,,,40.198609,140.102416
字鵜鳥悪戸,,,,40.202905,140.089833
字鵜鳥川原,,,,40.205111,140.100861
字姥懐,,,,40.202608,140.125544
字大内田,,,,40.181215,140.035963
字大瀬儘下,,,,40.187796,140.034275
字大台野,,,,40.195655,140.148728
字大塚,,,,40.182007,140.044075
字大曲,,,,40.217293,140.095723
字大森山,,,,40.196067,139.997335
字海詠坂,,,,40.189774,140.000978
字柏子所,,,,40.17267,140.048952
字上関,,,,40.182133,140.068733
字上古川布,,,,40.185117,140.027666
字上谷地,,,,40.182771,140.072807
字上柳,,,,40.189438,140.042567
字臥竜山,,,,40.189063,140.014786
字狐森,,,,40.220348,140.09902
字九郎左エ門笹台,,,,40.15515,140.050855
字下内崎,,,,40.189657,140.046423
字五雲岱,,,,40.19222,140.008064
字権現台,,,,40.157912,140.046115
字彩霞長根,,,,40.194649,140.027953
字塞ノ神,,,,40.162955,140.044561
字塩干田,,,,40.178068,140.04313
字塩干田前,,,,40.177212,140.04698
字十洲崎,,,,40.18187,140.025783
字芝童森,,,,40.192503,140.022085
字下悪戸,,,,40.189954,140.048772
字下瀬,,,,40.186959,140.037097
字下関,,,,40.185146,140.06343
字下野,,,,40.189064,140.039891
字下古川布,,,,40.186083,140.043365
字下柳,,,,40.186037,140.039866
字寿域長根,,,,40.192001,140.026026
字昇平岱,,,,40.191849,140.019163
字新山前,,,,40.18491,140.055398
字砂留山,,,,40.200647,140.014999
字仙遊長根,,,,40.18785,140.012982
字袖又,,,,40.180157,140.040015
字外堤,,,,40.205548,140.125994
字高塙,,,,40.184245,140.048382
字田子向,,,,40.187476,140.026503
字田中谷地,,,,40.193142,140.13273
字田屋,,,,40.179553,140.04783
字鶴形,,,,40.206561,140.11555
字出戸後,,,,40.197082,140.025781
字寺向,,,,40.183463,140.053945
字東面,,,,40.218006,140.100953
字戸川向,,,,40.178006,140.038281
字戸草沢,,,,40.198919,140.121486
字轟,,,,40.217305,140.112869
字鳥屋場,,,,40.21023,140.144772
字鳥小屋,,,,40.196395,140.018907
浅内,アサナイ,ASANAI,,40.147141,140.018073
字中悪戸,,,,40.188735,140.052413
字長崎,,,,40.186522,140.022095
字中嶋,,,,40.193185,140.057136
字中関,,,,40.187028,140.066092
字中谷地,,,,40.184259,140.060029
字中柳,,,,40.187719,140.042754
字南陽崎,,,,40.186422,140.014354
字仁井田白山,,,,40.190114,140.054758
字西赤沼,,,,40.193101,140.039464
字西大瀬,,,,40.19146,140.033378
字沼ノ上,,,,40.188007,140.017563
字機織轌ノ目,,,,40.188577,140.062238
字腹鞁ノ沢,,,,40.172139,140.066624
字半戸沢,,,,40.20392,140.10883
字東赤沼,,,,40.193082,140.041339
字東大瀬,,,,40.192706,140.035337
字冷清水,,,,40.193014,140.102092
字藤山,,,,40.188464,140.03026
字古屋布,,,,40.169606,140.047165
字不老岱,,,,40.191472,140.014674
字鳳凰岱,,,,40.196881,140.011744
字坊ケ崎,,,,40.182026,140.029541
字豊祥岱,,,,40.193085,140.030508
字町後,,,,40.201233,140.123646
字松長布,,,,40.183795,140.035411
字宮ノ前,,,,40.18833,140.071153
字向田表,,,,40.195339,140.097216
字谷地上,,,,40.191321,140.115879
字養蚕,,,,40.195777,140.036192
字養蚕脇,,,,40.194504,140.037891
字若田,,,,40.2093,140.130081
天内,アマナイ,AMANAI,,40.246475,140.175812
万町,アラマチ,ARAMACHI,,40.214838,140.030113
磐,イワオ,IWAO,,40.252902,140.056253
追分町,オイワケマチ,OIWAKEMACHI,,40.203928,140.030502
扇田,オウギダ,OGIDA,,40.188947,140.091275
大手町,オオテマチ,OTEMACHI,,40.211477,140.023368
大町,オオマチ,OMACHI,,40.214716,140.025973
大森,オオモリ,OMORI,,40.140635,140.122052
落合,オチアイ,OCHIAI,,40.23143,140.025942
鰄渕,カイラゲフチ,KAIRAGEFUCHI,,40.190745,140.075183
上町,カンマチ,KAMMACHI,,40.211953,140.027082
河戸川,カワトガワ,KAWATOGAWA,,40.178845,140.01327
川反町,カワバタマチ,KAWABATAMACHI,,40.21504,140.023053
久喜沢,クキサワ,KUKISAWA,,40.255681,140.11995
景林町,ケイリンマチ,KEIRIMMACHI,,40.20666,140.020362
御指南町,ゴシナンマチ,GOSHINAMMACHI,,40.211919,140.035908
槐,サイカチ,SAIKACHI,,40.224529,140.124198
栄町,サカエマチ,SAKAEMACHI,,40.204156,140.025118
坂形,サカガタ,SAKAGATA,,40.269972,140.039867
産物,サンブツ,SAMBUTSU,,40.214707,140.099512
昭南町,ショウナンマチ,SHONAMMACHI,,40.202408,140.02094
末広町,スエヒロマチ,SUEHIROMACHI,,40.208345,140.017881
須田,スダ,SUDA,,40.246597,140.025211
住吉町,スミヨシマチ,SUMIYOSHIMACHI,,40.207195,140.025329
清助町,セイスケマチ,SEISUKEMACHI,,40.213405,140.01926
外荒巻,ソトアラマキ,SOTOARAMAKI,,40.260177,140.074479
竹生,タコウ,TAKO,,40.247991,140.042646
田床内,タドコナイ,TADOKONAI,,40.186539,140.109548
中和一丁目,チュウワ 1,CHUWA 1,,40.200739,140.028507
中和二丁目,チュウワ 2,CHUWA 2,,40.200451,140.032175
出戸本町,デトホンマチ,DETO HOMMACHI,,40.197761,140.027492
通町,トオリマチ,TORIMACHI,,40.2041,140.022406
常盤,トキワ,TOKIWA,,40.2995,140.163552
飛根,,,,40.214998,140.147329
富町,トミマチ,TOMIMACHI,,40.209789,140.031597
外割田,トワリダ,TOWARIDA,,40.243625,140.146814
中沢,ナカザワ,NAKAZAWA,,40.162074,140.076597
西通町,ニシドオリマチ,NISHIDORIMACHI,,40.208865,140.022235
荷八田,ニハタ,NIHATA,,40.214379,140.065174
能代町,ノシロマチ,NOSHIROMACHI,,40.208911,140.039932
萩の台,ハギノダイ,HAGINODAI,,40.204258,140.016874
畠町,ハタマチ,HATAMACHI,,40.209697,140.029102
花園町,ハナゾノマチ,HANAZONOMACHI,,40.200246,140.024604
浜通町,ハマドオリマチ,HAMADORIMACHI,,40.215977,140.018219
盤若町,ハンニャマチ,HANNYAMACHI,,40.210971,140.018494
東町,ヒガシマチ,HIGASHIMACHI,,40.207012,140.028741
比八田,ヒハタ,HIHATA,,40.251167,140.073517
檜山,ヒヤマ,HIYAMA,,40.168966,140.103363
日吉町,ヒヨシマチ,HIYOSHIMACHI,,40.213414,140.033435
吹越,フッコシ,FUKKOSHI,,40.202047,140.050595
二ツ井町,フタツイマチアソウ,FUTATSUIMACHI ASO,,40.105952,140.18638
二ツ井町麻生,フタツイマチアソウ,FUTATSUIMACHI ASO,,40.197411,140.273053
二ツ井町梅内,フタツイマチウメナイ,FUTATSUIMACHI UMENAI,,40.275256,140.193491
二ツ井町加護山,,,,40.224606,140.255143
二ツ井町苅又石,フタツイマチカリマタイシ,FUTATSUIMACHI KARIMATAISHI,,40.180169,140.194232
二ツ井町切石,フタツイマチキリイシ,FUTATSUIMACHI KIRIISHI,,40.203619,140.205806
二ツ井町小掛,フタツイマチコガケ,FUTATSUIMACHI KOGAKE,,40.167911,140.21665
二ツ井町小繋,フタツイマチコツナギ,FUTATSUIMACHI KOTSUNAGI,,40.214999,140.265641
二ツ井町駒形,フタツイマチコマガタ,FUTATSUIMACHI KOMAGATA,,40.200615,140.179794
二ツ井町田代,フタツイマチタシロ,FUTATSUIMACHI TASHIRO,,40.105829,140.231751
二ツ井町種,フタツイマチタネ,FUTATSUIMACHI TANE ,,40.221584,140.217732
二ツ井町荷上場,フタツイマチニアゲバ,FUTATSUIMACHI NIAGEBA,,40.229432,140.247354
二ツ井町濁川,フタツイマチニゴリカワ,FUTATSUIMACHI NIGORIKAWA,,40.102625,140.201308
二ツ井町仁鮒,フタツイマチニブナ,FUTATSUIMACHI NIBUNA,,40.17897,140.23513
朴瀬,ホノキセ,HONOKISE,,40.231469,140.084841
真壁地,マカベチ,MAKABECHI,,40.220574,140.053926
松美町,マツミマチ,MATSUMIMACHI,,40.203817,140.018496
緑町,ミドリマチ,MIDORIMACHI,,40.197613,140.034353
南元町,ミナミモトマチ,MINAMIMOTOMACHI,,40.20309,140.032244
向能代,ムカイノシロ,MUKAINOSHIRO,,40.222958,140.043277
明治町,メイジマチ,MEIJIMACHI,,40.200367,140.035546
母体,モタイ,MOTAI,,40.15771,140.157153
元町,モトマチ,MOTOMACHI,,40.206116,140.032539
柳町,ヤナギマチ,YANAGIMACHI,,40.209451,140.026296
若松町,ワカマツチョウ,WAKAMATSUCHO,,40.204561,140.028102
