name,name_kana,name_romaji,nickname,latitude,longitude
字刈和野,,,,39.542555,140.371977
朝日町,アサヒマチ,ASAHIMACHI,,39.468321,140.474663
飯田,イイダ,IIDA,,39.438225,140.483914
泉町,イズミチョウ,IZUMICHO,,39.471836,140.462324
板見内,イタミナイ,ITAMINAI,,39.482106,140.548481
内小友,ウチオトモ,UCHIOTOMO,,39.42825,140.417871
円行寺,エンギョウジ,ENGYOJI,,39.477454,140.300793
大神成,オオカンナリ,OKANNARI,,39.547243,140.641091
大沢郷宿,オオサワゴウシュク,OSAWAGOSHUKU,,39.502064,140.314451
大沢郷寺,オオサワゴウテラ,OSAWAGOTERA,,39.510334,140.345717
太田町永代,オオタチョウエイダイ,OTACHO EIDAI,,39.49282,140.670243
太田町太田,オオタチョウオオタ,OTACHO OTA,,39.546854,140.704224
太田町川口,オオタチョウカワグチ,OTACHO KAWAGUCHI,,39.498604,140.693643
太田町国見,オオタチョウクニミ,OTACHO KUNIMI,,39.525656,140.577077
太田町小神成,オオタチョウコガナリ,OTACHO KOGANARI,,39.525444,140.631728
太田町駒場,オオタチョウコマバ,OTACHO KOMABA,,39.504431,140.567876
太田町斉内,オオタチョウサイナイ,OTACHO SAINAI,,39.529245,140.613533
太田町中里,オオタチョウナカサト,OTACHO NAKASATO,,39.501385,140.582914
太田町東今泉,オオタチョウヒガシイマイズミ,OTACHO HIGASHIIMAIZUMI,,39.514678,140.62707
太田町横沢,オオタチョウヨコサワ,OTACHO YOKOSAWA,,39.505687,140.59941
大花町,オオハナチョウ,OHANACHO,,39.465463,140.483653
大曲,オオマガリ,OMAGARI,,39.441621,140.494624
大曲あけぼの町,オオマガリアケボノチョウ,OMAGARI AKEBONOCHO,,39.455225,140.470421
大曲飯田町,オオマガリイイダチョウ,OMAGARI IIDACHO,,39.44229,140.47851
大曲大町,オオマガリオオマチ,OMAGARI OMACHI,,39.459277,140.47916
大曲金谷町,オオマガリカナヤチョウ,OMAGARI KANAYACHO,,39.450186,140.473513
大曲上大町,オオマガリカミオオマチ,OMAGARI KAMIOMACHI,,39.457017,140.47886
大曲上栄町,オオマガリカミサカエチョウ,OMAGARI KAMISAKAECHO,,39.451281,140.477756
大曲川原町,オオマガリカワラチョウ,OMAGARI KAWARACHO,,39.459793,140.472779
大曲黒瀬町,オオマガリクロセチョウ,OMAGARI KUROSECHO,,39.46237,140.481875
大曲栄町,オオマガリサカエチョウ,OMAGARI SAKAECHO,,39.453872,140.478606
大曲白金町,オオマガリシロガネチョウ,OMAGARI SHIROGANECHO,,39.46479,140.471587
大曲住吉町,オオマガリスミヨシチョウ,OMAGARI SUMIYOSHICHO,,39.448138,140.487702
大曲須和町一丁目,オオマガリスワチョウ 1,OMAGARI SUWACHO 1,,39.456211,140.481905
大曲須和町二丁目,オオマガリスワチョウ 2,OMAGARI SUWACHO 2,,39.45549,140.485514
大曲須和町三丁目,オオマガリスワチョウ 3,OMAGARI SUWACHO 3,,39.459824,140.483293
大曲田町,オオマガリタマチ,OMAGARI TAMACHI,,39.452001,140.48338
大曲通町,オオマガリトオリマチ,OMAGARI TORIMACHI,,39.465439,140.478292
大曲戸巻町,オオマガリトマキチョウ,OMAGARI TOMAKICHO,,39.458426,140.492891
大曲中通町,オオマガリナカドオリマチ,OMAGARI NAKADORIMACHI,,39.461797,140.479043
大曲西根,オオマガリニシネ,OMAGARI NISHINE,,39.444943,140.442434
大曲花園町,オオマガリハナゾノチョウ,OMAGARI HANAZONOCHO,,39.45432,140.474062
大曲浜町,オオマガリハマチョウ,OMAGARI HAMACHO,,39.458432,140.475883
大曲日の出町一丁目,オオマガリヒノデチョウ 1,OMAGARI HINODECHO 1,,39.44686,140.476689
大曲日の出町二丁目,オオマガリヒノデチョウ 2,OMAGARI HINODECHO 2,,39.446693,140.480276
大曲福住町,オオマガリフクズミチョウ,OMAGARI FUKUZUMICHO,,39.464989,140.475099
大曲福見町,オオマガリフクミチョウ,OMAGARI FUKUMICHO,,39.458591,140.488472
大曲船場町一丁目,オオマガリフナバチョウ 1,OMAGARI FUNABACHO 1,,39.458304,140.46958
大曲船場町二丁目,オオマガリフナバチョウ 2,OMAGARI FUNABACHO 2,,39.462789,140.466409
大曲丸子町,オオマガリマルコチョウ,OMAGARI MARUKOCHO,,39.461476,140.489442
大曲丸の内町,オオマガリマルノウチマチ,OMAGARI MARUNOCHIMACHI,,39.462431,140.475143
大曲緑町,オオマガリミドリチョウ,OMAGARI MIDORICHO,,39.462242,140.469467
大曲若葉町,オオマガリワカバチョウ,OMAGARI WAKABACHO,,39.451867,140.487916
大巻,オオマキ,OMAKI,,39.555338,140.318703
小貫高畑,オヌキタカバタケ,ONUKITAKABATAKE,,39.448599,140.466426
角間川町,カクマガワマチ,KAKUMAGAWAMACHI,,39.388396,140.474441
金山沢,カネヤマサワ,KANEYAMASAWA,,39.5293,140.288361
上鴬野,,,,39.566121,140.565665
川目,カワノメ,KAWANOME,,39.432676,140.480615
北長野,キタナガノ,KITANAGANO,,39.551322,140.547884
北楢岡,キタナラオカ,KITANARAOKA,,39.511064,140.38066
北野目,キタノメ,KITANOME,,39.540117,140.353458
木原田,キハラダ,KIHARADA,,39.532832,140.281177
協和荒川,キョウワアラカワ,KYOWA ARAKAWA,,39.640826,140.397078
協和稲沢,キョウワイナザワ,KYOWA INAZAWA,,39.606139,140.413671
協和上淀川,キョウワカミヨドカワ,KYOWA KAMIYODOKAWA,,39.617921,140.305234
協和小種,キョウワコタネ,KYOWA KOTANE,,39.538201,140.259594
協和境,キョウワサカイ,KYOWA SAKAI,,39.617458,140.327303
協和下淀川,キョウワシモヨドカワ,KYOWA SHIMOYODOKAWA,,39.563361,140.263158
協和中淀川,キョウワナカヨドカワ,KYOWA NAKAYODOKAWA,,39.597065,140.277096
協和船岡,キョウワフナオカ,KYOWA FUNAOKA,,39.670597,140.356394
協和船沢,キョウワフネサワ,KYOWA FUNESAWA,,39.646556,140.282268
協和峰吉川,キョウワミネヨシカワ,KYOWA MINEYOSHIKAWA,,39.576764,140.327926
九升田,クショウダ,KUSHODA,,39.545205,140.315428
栗沢,クリサワ,KURISAWA,,39.549772,140.615602
上野田,コウズケタ,KOZUKETA,,39.454124,140.550481
強首,コワクビ,KOWAKUBI,,39.550455,140.289559
幸町,サイワイチョウ,SAIWAICHO,,39.470964,140.478348
佐野町,サノチョウ,SANOCHO,,39.47049,140.47133
清水,シミズ,SHIMIZU,,39.516338,140.551978
下鴬野,,,,39.572354,140.560153
下深井,シモフカイ,SHIMOFUKAI,,39.421472,140.508119
正手沢,ショウテザワ,SHOTEZAWA,,39.503683,140.275611
神宮寺,ジングウジ,JINGUJI,,39.497857,140.432686
杉山田,スギヤマダ,SUGIYAMADA,,39.521509,140.282966
高城,タカジョウ,TAKAJO,,39.54531,140.331552
高関上郷,タカゼキカミゴウ,TAKAZEKIKAMIGO,,39.483452,140.501151
高梨,タカナシ,TAKANASHI,,39.459732,140.514282
土川,ツチカワ,TSUCHIKAWA,,39.559768,140.451488
寺館,テラダテ,TERADATE,,39.55202,140.338122
戸地谷,トチヤ,TOCHIYA,,39.471858,140.500425
戸蒔,トマキ,TOMAKI,,39.454015,140.495861
豊岡,トヨオカ,TOYOKA,,39.566781,140.640635
豊川,トヨカワ,TOYOKAWA,,39.557932,140.581902
長戸呂,ナガトロ,NAGATORO,,39.509615,140.507703
長野,ナガノ,NAGANO,,39.538198,140.523403
南外,ナンガイアカハタ,NANGAI AKAHATA,,39.446206,140.350231
南外外小友,ナンガイソトオトモ,NANGAI SOTOTOMO,,39.424512,140.31323
南外南楢岡,,,,39.446744,140.295136
新谷地,ニイヤジ,NIIYAJI,,39.498709,140.488164
橋本,ハシモト,HASHIMOTO,,39.444867,140.52087
花館,ハナダテ,HANADATE,,39.480904,140.472938
花館上町,ハナダテカミチョウ,HANADATE KAMICHO,,39.472937,140.468528
花館中町,ハナダテナカマチ,HANADATE NAKAMACHI,,39.474907,140.464943
花館柳町,ハナダテヤナギマチ,HANADATE YANAGIMACHI,,39.477337,140.461343
東川,ヒガシカワ,HIGASHIKAWA,,39.447199,140.501096
蛭川,ヒルガワ,HIRUGAWA,,39.463451,140.441322
福田,フクダ,FUKUDA,,39.488217,140.529467
福田町,フクダチョウ,FUKUDACHO,,39.469324,140.484984
藤木,フジキ,FUJIKI,,39.411564,140.492194
富士見町,フジミチョウ,FUJIMICHO,,39.47227,140.474461
払田,ホッタ,HOTTA,,39.466536,140.54358
堀見内,ホリミナイ,HORIMINAI,,39.474879,140.523851
松倉,マツクラ,MATSUKURA,,39.517225,140.499164
美原町,ミハラチョウ,MIHARACHO,,39.468431,140.46404
鑓見内,ヤリミナイ,YARIMINAI,,39.514751,140.526116
横堀,ヨコボリ,YOKOBORI,,39.498329,140.542772
四ツ屋,ヨツヤ,YOTSUYA,,39.503414,140.477089
六郷西根,ロクゴウニシネ,ROKUGONISHINE,,39.42545,140.480051
若竹町,ワカタケチョウ,WAKATAKECHO,,39.467167,140.469223
和合,ワゴウ,WAGO,,39.438367,140.513196
太田町三本扇,オオタチョウサンボンオウギ,OTACHO SAMBONOGI,,39.489382,140.58644
神宮寺,ジングウジ,JINGUJI,宇留井谷地,39.520733,140.367585
刈和野,カリワノ,KARIWANO,山北ノ沢,39.559395,140.369763
刈和野,カリワノ,KARIWANO,一里塚東,39.547492,140.366598
刈和野,カリワノ,KARIWANO,愛宕下,39.545675,140.372373
北楢岡,キタナラオカ,KITANARAOKA,下船戸,39.527293,140.375944
刈和野,カリワノ,KARIWANO,愛宕町,39.54391,140.369885
刈和野,カリワノ,KARIWANO,川原田,39.548879,140.36912
刈和野,カリワノ,KARIWANO,沼田,39.547483,140.368538
北楢岡,キタナラオカ,KITANARAOKA,上船戸,39.522344,140.371139
北楢岡,キタナラオカ,KITANARAOKA,船戸,39.522897,140.371804
北野目,キタノメ,KITANOME,三条川原,39.53586,140.372097
刈和野,カリワノ,KARIWANO,小野,39.552171,140.372793
刈和野,カリワノ,KARIWANO,清光院後,39.543871,140.372809
刈和野,カリワノ,KARIWANO,上ノ台,39.548108,140.378985
刈和野,カリワノ,KARIWANO,上ノ台荒屋敷,39.550148,140.375653
北楢岡,キタナラオカ,KITANARAOKA,野際,39.529989,140.379593
北楢岡,キタナラオカ,KITANARAOKA,下狐堂,39.506328,140.379694
北楢岡,キタナラオカ,KITANARAOKA,下中野,39.513969,140.378893
北楢岡,キタナラオカ,KITANARAOKA,高花,39.510196,140.382116
刈和野,カリワノ,KARIWANO,大佐沢,39.549366,140.382169
刈和野,カリワノ,KARIWANO,田中蟻塚,39.554214,140.388106
刈和野,カリワノ,KARIWANO,加賀戸,39.534169,140.382121
刈和野,カリワノ,KARIWANO,水尺川向大道東,39.539708,140.382322
北楢岡,キタナラオカ,KITANARAOKA,上龍蔵台,39.523293,140.386529
刈和野,カリワノ,KARIWANO,高屋敷,39.532282,140.38702
北楢岡,キタナラオカ,KITANARAOKA,戸月,39.518448,140.383272
刈和野,カリワノ,KARIWANO,一ト鶴岱,39.544133,140.395969
内小友,ウチオトモ,UCHIOTOMO,西村,39.442917,140.386847
北楢岡,キタナラオカ,KITANARAOKA,龍蔵谷地,39.520618,140.386389
刈和野,カリワノ,KARIWANO,一ト鶴,39.542482,140.386601
北楢岡,キタナラオカ,KITANARAOKA,嶋,39.507863,140.389086
内小友,ウチオトモ,UCHIOTOMO,谷地田,39.445309,140.388465
内小友,ウチオトモ,UCHIOTOMO,森東,39.442091,140.388171
内小友,ウチオトモ,UCHIOTOMO,堂ノ前,39.436998,140.390964
内小友,ウチオトモ,UCHIOTOMO,上小出沢,39.418065,140.394027
内小友,ウチオトモ,UCHIOTOMO,中山,39.439778,140.393767
内小友,ウチオトモ,UCHIOTOMO,松木田,39.45357,140.404971
北楢岡,キタナラオカ,KITANARAOKA,沖田,39.502386,140.39597
土川,ツチカワ,TSUCHIKAWA,上雨堤,39.538318,140.399296
北楢岡,キタナラオカ,KITANARAOKA,北楢岡,39.500676,140.39857
北楢岡,キタナラオカ,KITANARAOKA,一本木,39.500449,140.394853
北楢岡,キタナラオカ,KITANARAOKA,小山田,39.499029,140.398994
内小友,ウチオトモ,UCHIOTOMO,ザラメキ,39.438663,140.3978
土川,ツチカワ,TSUCHIKAWA,日渡花立野,39.547468,140.398154
土川,ツチカワ,TSUCHIKAWA,半道寺西野,39.543232,140.402618
北楢岡,キタナラオカ,KITANARAOKA,金助谷地,39.502883,140.399472
神宮寺,ジングウジ,JINGUJI,八石高野,39.514079,140.403254
土川,ツチカワ,TSUCHIKAWA,刈布沢,39.548616,140.401381
北楢岡,キタナラオカ,KITANARAOKA,沼の上,39.498776,140.402123
内小友,ウチオトモ,UCHIOTOMO,家ノ沢,39.41814,140.406521
北楢岡,キタナラオカ,KITANARAOKA,町頭,39.499685,140.408447
北楢岡,キタナラオカ,KITANARAOKA,布田谷地,39.500554,140.405629
北楢岡,キタナラオカ,KITANARAOKA,下新屋,39.500432,140.407352
土川,ツチカワ,TSUCHIKAWA,上野,39.54029,140.409634
神宮寺,ジングウジ,JINGUJI,内大坪,39.50054,140.412105
神宮寺,ジングウジ,JINGUJI,大坪街道下入,39.499134,140.412975
土川,ツチカワ,TSUCHIKAWA,東前田,39.5393,140.412976
神宮寺,ジングウジ,JINGUJI,大坪街道下,39.498226,140.414143
神宮寺,ジングウジ,JINGUJI,大浦前,39.499484,140.416369
神宮寺,ジングウジ,JINGUJI,本郷下,39.490656,140.420608
神宮寺,ジングウジ,JINGUJI,釜ヶ渕南,39.488894,140.417969
内小友,ウチオトモ,UCHIOTOMO,泉沢,39.433306,140.417668
神宮寺,ジングウジ,JINGUJI,荒屋,39.49732,140.420088
神宮寺,ジングウジ,JINGUJI,屋敷南,39.488825,140.422621
神宮寺,ジングウジ,JINGUJI,下栗谷田,39.495295,140.421983
花館,ハナダテ,HANADATE,間倉洲崎,39.486938,140.450163
神宮寺,ジングウジ,JINGUJI,本郷野,39.49466,140.425479
神宮寺,ジングウジ,JINGUJI,神宮寺,39.489857,140.426657
神宮寺,ジングウジ,JINGUJI,西田,39.498548,140.428953
神宮寺,ジングウジ,JINGUJI,蓮沼,39.49321,140.427177
神宮寺,ジングウジ,JINGUJI,家後,39.491178,140.427404
神宮寺,ジングウジ,JINGUJI,宮田,39.500768,140.428609
内小友,ウチオトモ,UCHIOTOMO,浅川,39.427535,140.427443
内小友,ウチオトモ,UCHIOTOMO,太田,39.424106,140.434431
神宮寺,ジングウジ,JINGUJI,館ノ北,39.492525,140.42994
内小友,ウチオトモ,UCHIOTOMO,下伊岡,39.429932,140.429622
神宮寺,ジングウジ,JINGUJI,切欠,39.499057,140.432267
内小友,ウチオトモ,UCHIOTOMO,明通,39.429743,140.435402
神宮寺,ジングウジ,JINGUJI,上高野,39.506524,140.432319
内小友,ウチオトモ,UCHIOTOMO,北太田,39.424603,140.435498
神宮寺,ジングウジ,JINGUJI,館ノ西,39.489992,140.435794
内小友,ウチオトモ,UCHIOTOMO,元木,39.419748,140.434492
神宮寺,ジングウジ,JINGUJI,福島家下,39.498265,140.440325
神宮寺,ジングウジ,JINGUJI,笹倉,39.511842,140.441946
内小友,ウチオトモ,UCHIOTOMO,中沢,39.435249,140.442658
神宮寺,ジングウジ,JINGUJI,福島,39.498732,140.439026
神宮寺,ジングウジ,JINGUJI,大面,39.499234,140.439112
内小友,ウチオトモ,UCHIOTOMO,七頭,39.4217,140.440698
神宮寺,ジングウジ,JINGUJI,館ノ越,39.48941,140.441363
内小友,ウチオトモ,UCHIOTOMO,上余り目,39.426238,140.444184
神宮寺,ジングウジ,JINGUJI,坊ヶ沢堂ノ後,39.502906,140.442589
花館,ハナダテ,HANADATE,豊後野,39.495509,140.445416
内小友,ウチオトモ,UCHIOTOMO,下田谷地,39.410787,140.443113
大曲西根,オオマガリニシネ,OMAGARI NISHINE,下成沢,39.447689,140.444365
内小友,ウチオトモ,UCHIOTOMO,九十九沢,39.412953,140.447779
神宮寺,ジングウジ,JINGUJI,蒲家下,39.497683,140.44692
内小友,ウチオトモ,UCHIOTOMO,山根,39.430951,140.445936
大曲西根,オオマガリニシネ,OMAGARI NISHINE,杉矢崎,39.450005,140.449841
花館,ハナダテ,HANADATE,間倉,39.488117,140.449617
内小友,ウチオトモ,UCHIOTOMO,四ツ村,39.418122,140.449552
大曲西根,オオマガリニシネ,OMAGARI NISHINE,仁応治,39.4375,140.445718
神宮寺,ジングウジ,JINGUJI,蒲,39.497785,140.449735
内小友,ウチオトモ,UCHIOTOMO,馬場,39.422621,140.448442
大曲西根,オオマガリニシネ,OMAGARI NISHINE,本田,39.441589,140.449732
神宮寺,ジングウジ,JINGUJI,八幡,39.500891,140.448806
内小友,ウチオトモ,UCHIOTOMO,東後谷地,39.416166,140.449609
内小友,ウチオトモ,UCHIOTOMO,中尻引,39.43267,140.451605
内小友,ウチオトモ,UCHIOTOMO,仙北屋,39.421327,140.452402
内小友,ウチオトモ,UCHIOTOMO,新処,39.411624,140.449775
大曲西根,オオマガリニシネ,OMAGARI NISHINE,鳥居,39.45541,140.450921
神宮寺,ジングウジ,JINGUJI,長山下,39.504106,140.45068
蛭川,ヒルガワ,HIRUGAWA,上屋敷,39.466863,140.450153
内小友,ウチオトモ,UCHIOTOMO,南尻引,39.427727,140.449613
蛭川,ヒルガワ,HIRUGAWA,下屋敷,39.468602,140.451941
神宮寺,ジングウジ,JINGUJI,上蒲,39.492447,140.452641
大曲西根,オオマガリニシネ,OMAGARI NISHINE,中西根,39.445812,140.452756
内小友,ウチオトモ,UCHIOTOMO,館前,39.42933,140.45284
内小友,ウチオトモ,UCHIOTOMO,中田宮西,39.415927,140.452292
大曲西根,オオマガリニシネ,OMAGARI NISHINE,西道地野,39.45515,140.454243
蛭川,ヒルガワ,HIRUGAWA,吉兵エ野,39.465097,140.453769
神宮寺,ジングウジ,JINGUJI,藤原,39.499741,140.452913
神宮寺,ジングウジ,JINGUJI,長山,39.50573,140.458693
大曲西根,オオマガリニシネ,OMAGARI NISHINE,下太夫塚,39.446233,140.45701
大曲西根,オオマガリニシネ,OMAGARI NISHINE,中嶋,39.436488,140.458781
内小友,ウチオトモ,UCHIOTOMO,上中田,39.410822,140.455936
大曲西根,オオマガリニシネ,OMAGARI NISHINE,上嶋,39.432035,140.455682
大曲西根,オオマガリニシネ,OMAGARI NISHINE,小館,39.44862,140.454411
内小友,ウチオトモ,UCHIOTOMO,三ツ屋,39.40926,140.458118
内小友,ウチオトモ,UCHIOTOMO,中田宮東,39.415203,140.456136
内小友,ウチオトモ,UCHIOTOMO,宮北,39.41488,140.456999
大曲西根,オオマガリニシネ,OMAGARI NISHINE,中道地野,39.457267,140.457742
内小友,ウチオトモ,UCHIOTOMO,田出沼,39.430629,140.458922
大曲西根,オオマガリニシネ,OMAGARI NISHINE,新堀,39.443336,140.459982
大曲西根,オオマガリニシネ,OMAGARI NISHINE,元木,39.448644,140.459517
内小友,ウチオトモ,UCHIOTOMO,宮前,39.421558,140.460709
内小友,ウチオトモ,UCHIOTOMO,上高花,39.411422,140.460406
神宮寺,ジングウジ,JINGUJI,関口,39.507921,140.463264
花館,ハナダテ,HANADATE,中野下川原,39.480104,140.459971
内小友,ウチオトモ,UCHIOTOMO,宮後,39.424667,140.460816
四ツ屋,ヨツヤ,YOTSUYA,長者屋敷,39.499797,140.463976
花館,ハナダテ,HANADATE,上中野,39.482788,140.464055
大曲西根,オオマガリニシネ,OMAGARI NISHINE,川原崎,39.436639,140.462732
内小友,ウチオトモ,UCHIOTOMO,下高花,39.41551,140.461903
花館,ハナダテ,HANADATE,大戸下川原,39.48531,140.466164
内小友,ウチオトモ,UCHIOTOMO,中土,39.414929,140.463238
四ツ屋,ヨツヤ,YOTSUYA,砂崎,39.496776,140.465726
大曲西根,オオマガリニシネ,OMAGARI NISHINE,瀬下,39.448963,140.463347
花館,ハナダテ,HANADATE,下中野,39.480102,140.463962
内小友,ウチオトモ,UCHIOTOMO,宮林,39.419005,140.46262
内小友,ウチオトモ,UCHIOTOMO,宮下,39.422401,140.465775
大曲西根,オオマガリニシネ,OMAGARI NISHINE,新堀下,39.441531,140.463823
神宮寺,ジングウジ,JINGUJI,金葛砂崎,39.503091,140.466447
内小友,ウチオトモ,UCHIOTOMO,伊豆沼,39.420019,140.467491
大曲西根,オオマガリニシネ,OMAGARI NISHINE,大嶋東,39.435412,140.47027
内小友,ウチオトモ,UCHIOTOMO,桶沼,39.410424,140.46634
角間川町,カクマガワマチ,KAKUMAGAWAMACHI,南沼ノ上,39.384536,140.469478
花館,ハナダテ,HANADATE,上大戸下川原,39.490726,140.473174
花館,ハナダテ,HANADATE,葛野,39.475892,140.472059
角間川町,カクマガワマチ,KAKUMAGAWAMACHI,布晒,39.379105,140.4696
花館,ハナダテ,HANADATE,萩台,39.479462,140.471912
角間川町,カクマガワマチ,KAKUMAGAWAMACHI,古川敷,39.373461,140.468345
内小友,ウチオトモ,UCHIOTOMO,中嶋,39.42389,140.47257
角間川町,カクマガワマチ,KAKUMAGAWAMACHI,門目,39.372368,140.470429
角間川町,カクマガワマチ,KAKUMAGAWAMACHI,後野,39.390614,140.470276
花館,ハナダテ,HANADATE,上佐渡,39.473354,140.471232
角間川町,カクマガワマチ,KAKUMAGAWAMACHI,小萩立,39.386585,140.47145
花館,ハナダテ,HANADATE,西台,39.484863,140.474161
角間川町,カクマガワマチ,KAKUMAGAWAMACHI,木内,39.390035,140.471377
角間川町,カクマガワマチ,KAKUMAGAWAMACHI,東沼敷,39.375802,140.471184
内小友,ウチオトモ,UCHIOTOMO,沼口,39.420247,140.474102
角間川町,カクマガワマチ,KAKUMAGAWAMACHI,柳中島,39.401031,140.471477
角間川町,カクマガワマチ,KAKUMAGAWAMACHI,大中島,39.404982,140.476208
角間川町,カクマガワマチ,KAKUMAGAWAMACHI,中木内,39.386551,140.472887
角間川町,カクマガワマチ,KAKUMAGAWAMACHI,長田,39.3918,140.471819
角間川町,カクマガワマチ,KAKUMAGAWAMACHI,二本杉,39.400788,140.474834
角間川町,カクマガワマチ,KAKUMAGAWAMACHI,萩谷地,39.393031,140.473014
松倉,マツクラ,MATSUKURA,塞ノ神,39.51492,140.476017
角間川町,カクマガワマチ,KAKUMAGAWAMACHI,平中島,39.405709,140.473761
角間川町,カクマガワマチ,KAKUMAGAWAMACHI,愛宕,39.399448,140.47557
松倉,マツクラ,MATSUKURA,大川原,39.510082,140.474032
角間川町,カクマガワマチ,KAKUMAGAWAMACHI,小中島,39.404658,140.476417
花館,ハナダテ,HANADATE,上大戸,39.490473,140.479852
花館,ハナダテ,HANADATE,下殿屋敷,39.476343,140.477053
花館,ハナダテ,HANADATE,唐関,39.484493,140.479206
花館,ハナダテ,HANADATE,中台,39.480147,140.47932
小貫高畑,オヌキタカバタケ,ONUKITAKABATAKE,曽四川,39.439854,140.479224
角間川町,カクマガワマチ,KAKUMAGAWAMACHI,北小中島,39.405091,140.478493
四ツ屋,ヨツヤ,YOTSUYA,上水呑場,39.499731,140.480176
角間川町,カクマガワマチ,KAKUMAGAWAMACHI,西上町,39.401847,140.477188
川目,カワノメ,KAWANOME,町北,39.436953,140.478105
角間川町,カクマガワマチ,KAKUMAGAWAMACHI,町頭,39.400882,140.478559
花館,ハナダテ,HANADATE,常保寺,39.481987,140.484556
藤木,フジキ,FUJIKI,西八圭,39.411354,140.48207
花館,ハナダテ,HANADATE,田ノ尻,39.474086,140.479019
角間川町,カクマガワマチ,KAKUMAGAWAMACHI,西中上町,39.406565,140.480356
川目,カワノメ,KAWANOME,草紙川,39.435715,140.479227
四ツ屋,ヨツヤ,YOTSUYA,小又,39.514526,140.47878
飯田,イイダ,IIDA,家ノ前,39.438528,140.480694
角間川町,カクマガワマチ,KAKUMAGAWAMACHI,中町頭,39.402245,140.480936
川目,カワノメ,KAWANOME,町東,39.432444,140.483338
角間川町,カクマガワマチ,KAKUMAGAWAMACHI,東中上町,39.405144,140.481242
角間川町,カクマガワマチ,KAKUMAGAWAMACHI,中前田,39.398787,140.481583
角間川町,カクマガワマチ,KAKUMAGAWAMACHI,北中野,39.391514,140.481978
川目,カワノメ,KAWANOME,中嶋,39.428527,140.483761
飯田,イイダ,IIDA,屋舗通,39.444899,140.482372
角間川町,カクマガワマチ,KAKUMAGAWAMACHI,東本町,39.407711,140.481891
新谷地,ニイヤジ,NIIYAJI,水呑場,39.494038,140.481726
飯田,イイダ,IIDA,堰東,39.441906,140.483428
新谷地,ニイヤジ,NIIYAJI,下川原,39.499631,140.482652
角間川町,カクマガワマチ,KAKUMAGAWAMACHI,八幡前,39.401307,140.482648
角間川町,カクマガワマチ,KAKUMAGAWAMACHI,下中町,39.405874,140.482769
新谷地,ニイヤジ,NIIYAJI,丹波窪,39.493618,140.483606
高関上郷,タカゼキカミゴウ,TAKAZEKIKAMIGO,二ツ屋,39.491927,140.485595
飯田,イイダ,IIDA,続橋通,39.437399,140.484704
角間川町,カクマガワマチ,KAKUMAGAWAMACHI,下葛野,39.394257,140.482717
角間川町,カクマガワマチ,KAKUMAGAWAMACHI,西葛野,39.39187,140.483436
藤木,フジキ,FUJIKI,東八圭,39.410333,140.484589
角間川町,カクマガワマチ,KAKUMAGAWAMACHI,大浦町,39.40326,140.483311
新谷地,ニイヤジ,NIIYAJI,上台,39.496479,140.484028
飯田,イイダ,IIDA,大道端,39.432136,140.485895
高関上郷,タカゼキカミゴウ,TAKAZEKIKAMIGO,向田,39.483923,140.485494
藤木,フジキ,FUJIKI,大保,39.417048,140.484304
角間川町,カクマガワマチ,KAKUMAGAWAMACHI,四上町,39.399829,140.483722
角間川町,カクマガワマチ,KAKUMAGAWAMACHI,巽中野,39.382534,140.484698
四ツ屋,ヨツヤ,YOTSUYA,草刈野,39.504378,140.485958
角間川町,カクマガワマチ,KAKUMAGAWAMACHI,中野,39.385702,140.484964
松倉,マツクラ,MATSUKURA,松倉,39.517721,140.48954
花館,ハナダテ,HANADATE,鶴田,39.480705,140.485258
角間川町,カクマガワマチ,KAKUMAGAWAMACHI,道東,39.394342,140.487005
六郷西根,ロクゴウニシネ,ROKUGONISHINE,沼口下段,39.425026,140.487032
新谷地,ニイヤジ,NIIYAJI,吉清館,39.499779,140.486333
藤木,フジキ,FUJIKI,下野中,39.417389,140.488745
高関上郷,タカゼキカミゴウ,TAKAZEKIKAMIGO,新屋敷,39.490326,140.487548
新谷地,ニイヤジ,NIIYAJI,了徳,39.502243,140.486011
高関上郷,タカゼキカミゴウ,TAKAZEKIKAMIGO,野際,39.487426,140.485435
六郷西根,ロクゴウニシネ,ROKUGONISHINE,福米地,39.423038,140.489114
新谷地,ニイヤジ,NIIYAJI,小萱場,39.499677,140.488614
戸地谷,トチヤ,TOCHIYA,大和田,39.468636,140.492444
戸地谷,トチヤ,TOCHIYA,川前,39.465595,140.492868
大曲,オオマガリ,OMAGARI,扇田,39.436749,140.489656
四ツ屋,ヨツヤ,YOTSUYA,小萱場,39.503574,140.489702
飯田,イイダ,IIDA,大槻,39.445997,140.489608
四ツ屋,ヨツヤ,YOTSUYA,下新谷地,39.490301,140.493967
藤木,フジキ,FUJIKI,甲大久保,39.402164,140.48924
四ツ屋,ヨツヤ,YOTSUYA,下原野,39.494796,140.489264
藤木,フジキ,FUJIKI,乙新藤木,39.409554,140.488242
藤木,フジキ,FUJIKI,乙大久保,39.406124,140.489943
藤木,フジキ,FUJIKI,追分,39.426169,140.489757
高関上郷,タカゼキカミゴウ,TAKAZEKIKAMIGO,堂ノ後,39.489574,140.489954
花館,ハナダテ,HANADATE,杉本,39.473176,140.4894
大曲,オオマガリ,OMAGARI,小貫,39.432497,140.494597
藤木,フジキ,FUJIKI,新田,39.414367,140.491935
大曲,オオマガリ,OMAGARI,柳田,39.441956,140.494604
藤木,フジキ,FUJIKI,甲上総川,39.423407,140.494694
藤木,フジキ,FUJIKI,甲新藤木,39.410445,140.491923
四ツ屋,ヨツヤ,YOTSUYA,上原野,39.494248,140.49291
戸蒔,トマキ,TOMAKI,大槻,39.45256,140.493014
高関上郷,タカゼキカミゴウ,TAKAZEKIKAMIGO,杉本,39.474801,140.493149
藤木,フジキ,FUJIKI,乙本田,39.420544,140.495923
藤木,フジキ,FUJIKI,八幡腰,39.413873,140.493377
藤木,フジキ,FUJIKI,乙上総川,39.425183,140.492908
戸蒔,トマキ,TOMAKI,松ノ木,39.45432,140.4937
戸地谷,トチヤ,TOCHIYA,勧農地,39.472721,140.493835
東川,ヒガシカワ,HIGASHIKAWA,佐戸,39.450401,140.494209
戸地谷,トチヤ,TOCHIYA,畑田,39.474943,140.495743
四ツ屋,ヨツヤ,YOTSUYA,中台,39.504999,140.495567
四ツ屋,ヨツヤ,YOTSUYA,八幡野,39.50319,140.495781
大曲,オオマガリ,OMAGARI,荒町,39.445328,140.49396
大曲,オオマガリ,OMAGARI,西田,39.441497,140.495694
藤木,フジキ,FUJIKI,扇合,39.40892,140.497235
高関上郷,タカゼキカミゴウ,TAKAZEKIKAMIGO,卯時田,39.479902,140.496168
高関上郷,タカゼキカミゴウ,TAKAZEKIKAMIGO,田中,39.485593,140.495423
高関上郷,タカゼキカミゴウ,TAKAZEKIKAMIGO,桜田,39.482944,140.494449
四ツ屋,ヨツヤ,YOTSUYA,新屋敷,39.501781,140.498306
戸蒔,トマキ,TOMAKI,錨,39.453275,140.496902
高梨,タカナシ,TAKANASHI,水里,39.462497,140.500212
藤木,フジキ,FUJIKI,甲本藤木,39.410307,140.49641
東川,ヒガシカワ,HIGASHIKAWA,屋敷後,39.449198,140.497574
四ツ屋,ヨツヤ,YOTSUYA,川口,39.505594,140.499959
下深井,シモフカイ,SHIMOFUKAI,樋渡道の上,39.421147,140.501162
高関上郷,タカゼキカミゴウ,TAKAZEKIKAMIGO,上野,39.486129,140.501257
四ツ屋,ヨツヤ,YOTSUYA,下古道,39.492909,140.498332
藤木,フジキ,FUJIKI,丙一本木,39.40569,140.499128
東川,ヒガシカワ,HIGASHIKAWA,東田,39.446189,140.499298
四ツ屋,ヨツヤ,YOTSUYA,中古道,39.498245,140.497867
東川,ヒガシカワ,HIGASHIKAWA,前田表,39.447681,140.497568
大曲,オオマガリ,OMAGARI,上高畑,39.443091,140.500378
四ツ屋,ヨツヤ,YOTSUYA,西下瀬,39.493728,140.502377
戸地谷,トチヤ,TOCHIYA,沖田,39.469431,140.500601
高関上郷,タカゼキカミゴウ,TAKAZEKIKAMIGO,大村,39.482889,140.498656
四ツ屋,ヨツヤ,YOTSUYA,上古道,39.497627,140.500457
松倉,マツクラ,MATSUKURA,鷹ノ巣,39.51823,140.499404
藤木,フジキ,FUJIKI,小船橋,39.402643,140.500352
大曲,オオマガリ,OMAGARI,古四王際,39.438501,140.500003
藤木,フジキ,FUJIKI,谷地,39.40342,140.502445
下深井,シモフカイ,SHIMOFUKAI,石堂,39.424543,140.500982
四ツ屋,ヨツヤ,YOTSUYA,諸又,39.489864,140.500098
大曲,オオマガリ,OMAGARI,高畑谷地,39.439292,140.502198
戸地谷,トチヤ,TOCHIYA,花園,39.476969,140.503821
高関上郷,タカゼキカミゴウ,TAKAZEKIKAMIGO,十二木,39.48412,140.501288
四ツ屋,ヨツヤ,YOTSUYA,中下瀬,39.492626,140.506386
藤木,フジキ,FUJIKI,三五郎,39.415925,140.501849
下深井,シモフカイ,SHIMOFUKAI,上総川,39.417642,140.502216
和合,ワゴウ,WAGO,宝門清水,39.442445,140.504291
藤木,フジキ,FUJIKI,丙板杭,39.40071,140.503347
東川,ヒガシカワ,HIGASHIKAWA,堤下,39.448116,140.502636
下深井,シモフカイ,SHIMOFUKAI,北田,39.425749,140.503721
高梨,タカナシ,TAKANASHI,田茂木,39.462482,140.505237
下深井,シモフカイ,SHIMOFUKAI,番城目,39.416055,140.505772
和合,ワゴウ,WAGO,田中,39.442148,140.502832
高関上郷,タカゼキカミゴウ,TAKAZEKIKAMIGO,横張田,39.487171,140.50581
四ツ屋,ヨツヤ,YOTSUYA,掵田,39.502599,140.504233
四ツ屋,ヨツヤ,YOTSUYA,擶ノ木,39.498934,140.504803
大曲,オオマガリ,OMAGARI,開谷地,39.43196,140.506549
長戸呂,ナガトロ,NAGATORO,本郷,39.510848,140.505303
四ツ屋,ヨツヤ,YOTSUYA,下前村,39.500018,140.508362
下深井,シモフカイ,SHIMOFUKAI,桜田,39.424609,140.505677
藤木,フジキ,FUJIKI,乙板杭,39.398265,140.506077
和合,ワゴウ,WAGO,坪立,39.440231,140.508979
高梨,タカナシ,TAKANASHI,大嶋,39.4557,140.507189
下深井,シモフカイ,SHIMOFUKAI,高田,39.422437,140.509708
下深井,シモフカイ,SHIMOFUKAI,北下深井,39.422704,140.511856
藤木,フジキ,FUJIKI,一本柳谷地,39.408207,140.507352
四ツ屋,ヨツヤ,YOTSUYA,上前村,39.505378,140.510664
高梨,タカナシ,TAKANASHI,金堀,39.458382,140.510609
下深井,シモフカイ,SHIMOFUKAI,西根百年,39.428423,140.508544
四ツ屋,ヨツヤ,YOTSUYA,川崎,39.492431,140.51054
堀見内,ホリミナイ,HORIMINAI,元田茂木,39.464833,140.508539
長戸呂,ナガトロ,NAGATORO,柳原,39.510784,140.509316
長戸呂,ナガトロ,NAGATORO,古川端,39.512169,140.509756
下深井,シモフカイ,SHIMOFUKAI,中谷地,39.41803,140.506105
高梨,タカナシ,TAKANASHI,米打橋,39.459354,140.514679
鑓見内,ヤリミナイ,YARIMINAI,野中,39.521603,140.513867
和合,ワゴウ,WAGO,荻ノ目,39.439008,140.511878
高関上郷,タカゼキカミゴウ,TAKAZEKIKAMIGO,西中谷地,39.483267,140.510274
橋本,ハシモト,HASHIMOTO,富慶,39.448868,140.511939
四ツ屋,ヨツヤ,YOTSUYA,上百瀬,39.517325,140.513271
四ツ屋,ヨツヤ,YOTSUYA,水木田,39.512331,140.511974
四ツ屋,ヨツヤ,YOTSUYA,上嘉町,39.499368,140.513315
下深井,シモフカイ,SHIMOFUKAI,中深井怒,39.417687,140.514562
橋本,ハシモト,HASHIMOTO,稲荷,39.44126,140.513683
下深井,シモフカイ,SHIMOFUKAI,南谷地,39.416949,140.513049
堀見内,ホリミナイ,HORIMINAI,中田茂木,39.470077,140.509997
堀見内,ホリミナイ,HORIMINAI,上田茂木,39.470022,140.513537
下深井,シモフカイ,SHIMOFUKAI,白山,39.418781,140.516111
下深井,シモフカイ,SHIMOFUKAI,鰌沼,39.424482,140.512768
四ツ屋,ヨツヤ,YOTSUYA,前田,39.503416,140.511364
四ツ屋,ヨツヤ,YOTSUYA,谷地,39.504862,140.518202
大曲,オオマガリ,OMAGARI,於倉谷地,39.430311,140.513824
和合,ワゴウ,WAGO,落合,39.44026,140.515865
高関上郷,タカゼキカミゴウ,TAKAZEKIKAMIGO,上谷地,39.484833,140.511442
下深井,シモフカイ,SHIMOFUKAI,百年,39.424972,140.514742
四ツ屋,ヨツヤ,YOTSUYA,切上,39.502037,140.515898
四ツ屋,ヨツヤ,YOTSUYA,下百瀬,39.514139,140.515231
高関上郷,タカゼキカミゴウ,TAKAZEKIKAMIGO,沖谷地,39.490405,140.516097
下深井,シモフカイ,SHIMOFUKAI,中深井沢田,39.420501,140.515075
福田,フクダ,FUKUDA,碇,39.484444,140.515064
高梨,タカナシ,TAKANASHI,麻生田,39.457102,140.517372
下深井,シモフカイ,SHIMOFUKAI,新百年,39.422311,140.51659
鑓見内,ヤリミナイ,YARIMINAI,相野,39.512577,140.51617
鑓見内,ヤリミナイ,YARIMINAI,石持,39.517197,140.519069
高関上郷,タカゼキカミゴウ,TAKAZEKIKAMIGO,上関根,39.488506,140.516602
鑓見内,ヤリミナイ,YARIMINAI,前田,39.514436,140.521348
高関上郷,タカゼキカミゴウ,TAKAZEKIKAMIGO,谷地,39.489564,140.518743
四ツ屋,ヨツヤ,YOTSUYA,東田,39.499323,140.519657
鑓見内,ヤリミナイ,YARIMINAI,幕林,39.522464,140.521177
清水,シミズ,SHIMIZU,南大吹,39.499312,140.521231
和合,ワゴウ,WAGO,菖蒲関,39.439479,140.521212
長野,ナガノ,NAGANO,続橋,39.531096,140.524889
鑓見内,ヤリミナイ,YARIMINAI,小鳥田,39.522475,140.527066
鑓見内,ヤリミナイ,YARIMINAI,館ノ内,39.517679,140.524042
高関上郷,タカゼキカミゴウ,TAKAZEKIKAMIGO,半在家,39.4919,140.517399
長野,ナガノ,NAGANO,高瀬,39.526544,140.524739
長野,ナガノ,NAGANO,下川原,39.526618,140.528509
長野,ナガノ,NAGANO,開,39.529517,140.525735
長野,ナガノ,NAGANO,小豆田,39.534242,140.528034
長野,ナガノ,NAGANO,狐塚,39.532097,140.529166
鑓見内,ヤリミナイ,YARIMINAI,水上,39.522048,140.52965
長野,ナガノ,NAGANO,二日町,39.540395,140.530897
長野,ナガノ,NAGANO,高畑,39.538717,140.533167
長野,ナガノ,NAGANO,六日町,39.542601,140.534291
長野,ナガノ,NAGANO,小合田,39.536849,140.533803
長野,ナガノ,NAGANO,太田袋,39.533329,140.533723
長野,ナガノ,NAGANO,九日町,39.545249,140.535002
長野,ナガノ,NAGANO,一ノ坪,39.539819,140.536501
長野,ナガノ,NAGANO,小豆瀬,39.548279,140.538676
長野,ナガノ,NAGANO,紫嶋,39.543071,140.540911
長野,ナガノ,NAGANO,柳田,39.545563,140.540083
長野,ナガノ,NAGANO,漆原,39.548192,140.542183
北長野,キタナガノ,KITANAGANO,板屋,39.551122,140.542558
長野,ナガノ,NAGANO,新山,39.541093,140.542851
北長野,キタナガノ,KITANAGANO,茶畑,39.546711,140.546067
上鴬野,,,古館,39.558121,140.54558
北長野,キタナガノ,KITANAGANO,道ノ下,39.553578,140.549294
上鴬野,,,後村,39.560845,140.55058
北長野,キタナガノ,KITANAGANO,道ノ上,39.550733,140.547699
北長野,キタナガノ,KITANAGANO,蓬田,39.543145,140.549068
北長野,キタナガノ,KITANAGANO,谷地中,39.547088,140.551285
上鴬野,,,石持,39.55996,140.551291
上鴬野,,,新屋敷,39.557444,140.55192
北長野,キタナガノ,KITANAGANO,道女木,39.54648,140.555171
北長野,キタナガノ,KITANAGANO,鍛治屋敷,39.555269,140.553464
豊川,トヨカワ,TOYOKAWA,土目木,39.545043,140.554459
上鴬野,,,高橋,39.5605,140.556821
下鴬野,,,上村,39.569614,140.557945
北長野,キタナガノ,KITANAGANO,袴腰,39.552076,140.555541
下鴬野,,,長瀬,39.575961,140.556869
豊川,トヨカワ,TOYOKAWA,坂ノ上,39.542805,140.554244
豊川,トヨカワ,TOYOKAWA,坂ノ上川端,39.542542,140.556834
豊川,トヨカワ,TOYOKAWA,谷地中,39.545177,140.557361
豊川,トヨカワ,TOYOKAWA,一本柳,39.543634,140.557493
下鴬野,,,大谷,39.562153,140.557415
北長野,キタナガノ,KITANAGANO,白田,39.552391,140.559162
豊川,トヨカワ,TOYOKAWA,大宮田,39.549235,140.559273
上鴬野,,,中道,39.563761,140.562062
北長野,キタナガノ,KITANAGANO,袴田,39.550625,140.557254
下鴬野,,,下中嶋,39.578086,140.563854
下鴬野,,,大新田,39.574049,140.561391
下鴬野,,,羽場,39.574324,140.565284
上鴬野,,,熊野,39.562556,140.561251
上鴬野,,,吉田,39.565071,140.56389
北長野,キタナガノ,KITANAGANO,手呂越観音堂,39.55763,140.564931
下鴬野,,,上中嶋,39.577947,140.566865
上鴬野,,,四ツ屋,39.561169,140.567871
上鴬野,,,田向,39.570461,140.571269
上鴬野,,,新関,39.572624,140.56955
上鴬野,,,小沢田,39.574038,140.571565
上鴬野,,,大沢田,39.572793,140.573917
上鴬野,,,上遠藤,39.573745,140.578025
刈和野,カリワノ,KARIWANO,天神前,39.550997,140.36984
刈和野,カリワノ,KARIWANO,浮島,39.543939,140.381071
神宮寺,ジングウジ,JINGUJI,下川原前開,39.496302,140.414057
神宮寺,ジングウジ,JINGUJI,上栗谷田,39.497243,140.426763
神宮寺,ジングウジ,JINGUJI,明徳,39.500767,140.446025
花館,ハナダテ,HANADATE,下大戸,39.486032,140.471166
花館,ハナダテ,HANADATE,中大戸,39.486207,140.475537
上鴬野,,,木揚場,39.575701,140.571352
上鴬野,,,小八卦,39.571458,140.576232
上鴬野,,,嶋越,39.565157,140.568827
下鴬野,,,古川端,39.57744,140.557922
北長野,キタナガノ,KITANAGANO,新山中田,39.556168,140.559217
長野,ナガノ,NAGANO,新町,39.538569,140.530638
長野,ナガノ,NAGANO,中川原,39.538217,140.527656
四ツ屋,ヨツヤ,YOTSUYA,草刈野上川原,39.506428,140.49062
高関上郷,タカゼキカミゴウ,TAKAZEKIKAMIGO,下関根,39.487228,140.507169
花館,ハナダテ,HANADATE,西石田,39.473518,140.483936
花館,ハナダテ,HANADATE,東石田,39.473424,140.486671
花館,ハナダテ,HANADATE,安本,39.4731,140.48107
戸地谷,トチヤ,TOCHIYA,嶋田,39.473566,140.501124
戸地谷,トチヤ,TOCHIYA,下谷地,39.472156,140.50856
戸地谷,トチヤ,TOCHIYA,中谷地,39.478223,140.507836
角間川町,カクマガワマチ,KAKUMAGAWAMACHI,稲荷中島,39.405931,140.477554
藤木,フジキ,FUJIKI,乙本藤木,39.41352,140.494745
六郷西根,ロクゴウニシネ,ROKUGONISHINE,大保,39.419669,140.484848
下深井,シモフカイ,SHIMOFUKAI,相布,39.426274,140.497928
下深井,シモフカイ,SHIMOFUKAI,板口端,39.424645,140.496003
内小友,ウチオトモ,UCHIOTOMO,宮西,39.424236,140.45748
内小友,ウチオトモ,UCHIOTOMO,裏地,39.42499,140.45441
内小友,ウチオトモ,UCHIOTOMO,荒町,39.427354,140.456258
内小友,ウチオトモ,UCHIOTOMO,上伊岡,39.430001,140.420036
川目,カワノメ,KAWANOME,月山,39.428861,140.490159
大曲,オオマガリ,OMAGARI,北村,39.435661,140.495406
大曲,オオマガリ,OMAGARI,相野,39.428844,140.496482
大曲,オオマガリ,OMAGARI,西小貫谷地,39.431309,140.504313
大曲,オオマガリ,OMAGARI,下笑ノ口,39.442197,140.489341
飯田,イイダ,IIDA,笑ノ口後,39.444184,140.485568
大曲西根,オオマガリニシネ,OMAGARI NISHINE,林西,39.443812,140.455389
戸蒔,トマキ,TOMAKI,谷地添,39.450334,140.501799
高梨,タカナシ,TAKANASHI,下沖田,39.450544,140.515218
戸蒔,トマキ,TOMAKI,福田,39.457074,140.496915
高梨,タカナシ,TAKANASHI,福田,39.455211,140.503328
大曲西根,オオマガリニシネ,OMAGARI NISHINE,上野,39.459128,140.450345
大曲西根,オオマガリニシネ,OMAGARI NISHINE,上寺野,39.462413,140.456653
堀見内,ホリミナイ,HORIMINAI,下田茂木,39.466258,140.509932
高関上郷,タカゼキカミゴウ,TAKAZEKIKAMIGO,東中谷地,39.483055,140.512455
六郷西根,ロクゴウニシネ,ROKUGONISHINE,沼福田,39.419852,140.488403
川目,カワノメ,KAWANOME,上総川,39.429367,140.485094
北楢岡,キタナラオカ,KITANARAOKA,道目木,39.517457,140.37802
神宮寺,ジングウジ,JINGUJI,中川原,39.489371,140.444345
神宮寺,ジングウジ,JINGUJI,館ノ南,39.487782,140.440119
四ツ屋,ヨツヤ,YOTSUYA,機織,39.505833,140.474233
長野,ナガノ,NAGANO,水上野,39.523181,140.510956
四ツ屋,ヨツヤ,YOTSUYA,中嶋,39.510917,140.51309
長戸呂,ナガトロ,NAGATORO,馬場田,39.509049,140.510577
新谷地,ニイヤジ,NIIYAJI,虎ノ口,39.499095,140.494077
新谷地,ニイヤジ,NIIYAJI,千刈久保,39.495611,140.488345
四ツ屋,ヨツヤ,YOTSUYA,水呑場中川原,39.496406,140.477606
高関上郷,タカゼキカミゴウ,TAKAZEKIKAMIGO,蕨野,39.486163,140.482211
高関上郷,タカゼキカミゴウ,TAKAZEKIKAMIGO,高屋敷,39.485797,140.490317
高関上郷,タカゼキカミゴウ,TAKAZEKIKAMIGO,中貫,39.47546,140.487752
戸地谷,トチヤ,TOCHIYA,赤関,39.467959,140.505794
戸蒔,トマキ,TOMAKI,東,39.458615,140.496497
高梨,タカナシ,TAKANASHI,沼田,39.46074,140.493971
蛭川,ヒルガワ,HIRUGAWA,石山下,39.463317,140.451211
北長野,キタナガノ,KITANAGANO,野口前,39.548625,140.546837
北長野,キタナガノ,KITANAGANO,館郷,39.55137,140.544482
北長野,キタナガノ,KITANAGANO,熊野堂,39.558957,140.557469
上鴬野,,,向飛田,39.562374,140.55489
上鴬野,,,沼向,39.560714,140.545542
下鴬野,,,遠藤,39.581937,140.558266
刈和野,カリワノ,KARIWANO,本町,39.545404,140.368005
北楢岡,キタナラオカ,KITANARAOKA,茨野,39.508343,140.379143
北楢岡,キタナラオカ,KITANARAOKA,上中野,39.517807,140.378793
北楢岡,キタナラオカ,KITANARAOKA,長丁場,39.526311,140.378296
北楢岡,キタナラオカ,KITANARAOKA,中嶋,39.527725,140.382047
刈和野,カリワノ,KARIWANO,北ノ沢島山,39.556744,140.375883
刈和野,カリワノ,KARIWANO,百人畑,39.537444,140.383388
北楢岡,キタナラオカ,KITANARAOKA,向堀野,39.493267,140.396049
北楢岡,キタナラオカ,KITANARAOKA,小路袋,39.501382,140.392003
北楢岡,キタナラオカ,KITANARAOKA,方尺坊,39.504831,140.392803
土川,ツチカワ,TSUCHIKAWA,下西野,39.542151,140.406586
神宮寺,ジングウジ,JINGUJI,海草沼谷地,39.512365,140.422807
神宮寺,ジングウジ,JINGUJI,荒屋入,39.496351,140.420451
神宮寺,ジングウジ,JINGUJI,新屋野,39.494615,140.42023
神宮寺,ジングウジ,JINGUJI,薬師,39.50019,140.435298
神宮寺,ジングウジ,JINGUJI,中川原道南,39.488311,140.433933
神宮寺,ジングウジ,JINGUJI,上新川中嶋,39.487193,140.434174
神宮寺,ジングウジ,JINGUJI,鶴ヶ沢出口,39.503882,140.446197
神宮寺,ジングウジ,JINGUJI,高野,39.504516,140.439458
神宮寺,ジングウジ,JINGUJI,坊ヶ沢,39.500874,140.441913
神宮寺,ジングウジ,JINGUJI,蒲向古川端,39.495912,140.449932
神宮寺,ジングウジ,JINGUJI,館ノ内,39.49109,140.437312
神宮寺,ジングウジ,JINGUJI,館ノ東,39.490989,140.442672
蛭川,ヒルガワ,HIRUGAWA,大方寺,39.466271,140.443364
神宮寺,ジングウジ,JINGUJI,萩原,39.497591,140.452739
神宮寺,ジングウジ,JINGUJI,金葛古川敷,39.498016,140.454555
神宮寺,ジングウジ,JINGUJI,蒲古川敷,39.490178,140.459059
鑓見内,ヤリミナイ,YARIMINAI,大根田,39.5191,140.526386
長野,ナガノ,NAGANO,戸呂端,39.530635,140.529117
清水,シミズ,SHIMIZU,北大吹,39.500636,140.520323
刈和野,カリワノ,KARIWANO,中道,39.546165,140.366585
刈和野,カリワノ,KARIWANO,湯田,39.552883,140.376705
内小友,ウチオトモ,UCHIOTOMO,下小出沢,39.425774,140.388656
内小友,ウチオトモ,UCHIOTOMO,東沢,39.429791,140.393666
内小友,ウチオトモ,UCHIOTOMO,塞ノ神,39.432476,140.401458
内小友,ウチオトモ,UCHIOTOMO,小出沢尻,39.433894,140.392846
内小友,ウチオトモ,UCHIOTOMO,桃ノ沢,39.440002,140.396137
内小友,ウチオトモ,UCHIOTOMO,長持沢,39.440526,140.40398
内小友,ウチオトモ,UCHIOTOMO,荒山台,39.431411,140.415503
内小友,ウチオトモ,UCHIOTOMO,七十刈,39.431008,140.412097
内小友,ウチオトモ,UCHIOTOMO,地蔵田,39.429208,140.414573
内小友,ウチオトモ,UCHIOTOMO,荒山台下り,39.430477,140.416997
内小友,ウチオトモ,UCHIOTOMO,鳥海沢,39.433465,140.425801
内小友,ウチオトモ,UCHIOTOMO,中伊岡,39.438438,140.423782
内小友,ウチオトモ,UCHIOTOMO,石持,39.413473,140.418911
内小友,ウチオトモ,UCHIOTOMO,福田,39.41126,140.428707
内小友,ウチオトモ,UCHIOTOMO,高寺,39.412674,140.426542
内小友,ウチオトモ,UCHIOTOMO,上深山,39.402978,140.418772
内小友,ウチオトモ,UCHIOTOMO,下深山,39.41048,140.412683
内小友,ウチオトモ,UCHIOTOMO,岡崎,39.416489,140.438239
内小友,ウチオトモ,UCHIOTOMO,大明神,39.414622,140.440587
内小友,ウチオトモ,UCHIOTOMO,落合,39.420574,140.437866
内小友,ウチオトモ,UCHIOTOMO,宮南,39.412712,140.462806
角間川町,カクマガワマチ,KAKUMAGAWAMACHI,元道巻,39.400114,140.477267
角間川町,カクマガワマチ,KAKUMAGAWAMACHI,東元道巻,39.398729,140.48001
角間川町,カクマガワマチ,KAKUMAGAWAMACHI,前田,39.398376,140.483436
角間川町,カクマガワマチ,KAKUMAGAWAMACHI,艮,39.408367,140.483204
角間川町,カクマガワマチ,KAKUMAGAWAMACHI,西本町,39.408235,140.480779
角間川町,カクマガワマチ,KAKUMAGAWAMACHI,町小中島,39.40779,140.47929
大曲,オオマガリ,OMAGARI,前村,39.42989,140.494313
大曲,オオマガリ,OMAGARI,上笑ノ口,39.442873,140.486039
大曲,オオマガリ,OMAGARI,中良野,39.452693,140.489944
藤木,フジキ,FUJIKI,中野中,39.412856,140.486043
藤木,フジキ,FUJIKI,上野中,39.411418,140.488071
藤木,フジキ,FUJIKI,丙大久保,39.407204,140.488529
藤木,フジキ,FUJIKI,街道下,39.411805,140.49432
大曲,オオマガリ,OMAGARI,南浦,39.428114,140.49665
大曲,オオマガリ,OMAGARI,東大槻,39.44795,140.493033
大曲,オオマガリ,OMAGARI,下高畑,39.446554,140.495079
内小友,ウチオトモ,UCHIOTOMO,小出沢,39.429145,140.388429
大曲,オオマガリ,OMAGARI,福辺内,39.455193,140.488909
藤木,フジキ,FUJIKI,乙糠塚,39.419773,140.491742
藤木,フジキ,FUJIKI,甲糠塚,39.418091,140.492766
戸蒔,トマキ,TOMAKI,谷地中,39.450755,140.505744
下深井,シモフカイ,SHIMOFUKAI,樋渡道の下,39.422606,140.496409
藤木,フジキ,FUJIKI,甲板杭,39.399636,140.506283
堀見内,ホリミナイ,HORIMINAI,下田茂木添,39.467651,140.506877
堀見内,ホリミナイ,HORIMINAI,南谷地村,39.472504,140.517856
花館,ハナダテ,HANADATE,上殿屋敷,39.476922,140.482675
花館,ハナダテ,HANADATE,中貫,39.476514,140.484483
高関上郷,タカゼキカミゴウ,TAKAZEKIKAMIGO,九日田,39.482002,140.490279
高関上郷,タカゼキカミゴウ,TAKAZEKIKAMIGO,中屋敷,39.480015,140.489887
高関上郷,タカゼキカミゴウ,TAKAZEKIKAMIGO,不動堂,39.487151,140.491403
高関上郷,タカゼキカミゴウ,TAKAZEKIKAMIGO,諸又,39.487682,140.496754
四ツ屋,ヨツヤ,YOTSUYA,水呑場,39.493742,140.47652
高関上郷,タカゼキカミゴウ,TAKAZEKIKAMIGO,西台,39.478746,140.493812
内小友,ウチオトモ,UCHIOTOMO,寺山,39.419697,140.445099
藤木,フジキ,FUJIKI,中島,39.413314,140.489487
戸地谷,トチヤ,TOCHIYA,沼田,39.465208,140.488729
戸地谷,トチヤ,TOCHIYA,天ケ沢,39.463902,140.49634
四ツ屋,ヨツヤ,YOTSUYA,下嘉町,39.498336,140.507427
高関上郷,タカゼキカミゴウ,TAKAZEKIKAMIGO,向高関,39.484072,140.504142
高関上郷,タカゼキカミゴウ,TAKAZEKIKAMIGO,堅田,39.480898,140.504918
高関上郷,タカゼキカミゴウ,TAKAZEKIKAMIGO,南中谷地,39.478197,140.506321
高関上郷,タカゼキカミゴウ,TAKAZEKIKAMIGO,鳥屋場,39.489727,140.512997
高関上郷,タカゼキカミゴウ,TAKAZEKIKAMIGO,野瀬,39.476798,140.497868
