name,name_kana,name_romaji,nickname,latitude,longitude
相生町一丁目,アイオイチョウ 1,AIOICHO 1,,38.91877,139.843169
相生町二丁目,アイオイチョウ 2,AIOICHO 2,,38.919137,139.84123
相沢,アイサワ,AISAWA,,38.875652,139.948233
赤剥,アカハゲ,AKAHAGE,,38.987142,139.998034
あきほ町,アキホチョウ,AKIHOCHO,,38.889958,139.8514
曙町一丁目,アケボノチョウ 1,AKEBONOCHO 1,,38.920132,139.860723
曙町二丁目,アケボノチョウ 2,AKEBONOCHO 2,,38.919456,139.864472
字荒町,,,,38.854657,139.959221
字稲荷沢,,,,38.858067,139.966925
字内町,,,,38.858615,139.9599
字扇谷地,,,,38.893948,139.859521
字片町,,,,38.861915,139.957652
字金谷,,,,38.86257,139.957281
字北町,,,,38.861673,139.959624
字蔵小路,,,,38.857272,139.957982
字古湊,,,,38.951336,139.825008
字肴町,,,,38.858575,139.956388
字鷺谷地,,,,38.894557,139.856758
字下瀬,,,,38.912364,139.827368
字真学寺沢,,,,38.853999,139.966436
字心光寺沢,,,,38.863039,139.969533
字新町,,,,38.859659,139.955455
字新屋敷,,,,38.860075,139.959733
字総光寺沢,,,,38.860353,139.967427
字外山越,,,,38.85732,139.975583
字仲町,,,,38.856832,139.961023
字中森,,,,38.865566,139.962901
字西田,,,,38.854603,139.955088
字仁助谷地,,,,38.898209,139.865051
旭新町,アサヒシンマチ,ASAHISHIMMACHI,,38.923591,139.851035
字朴ノ木沢,,,,38.863953,139.963788
字本町,,,,38.857032,139.95688
字南新屋敷,,,,38.85331,139.961748
字南町,,,,38.855114,139.960396
字妙香寺沢,,,,38.856336,139.966642
字元新屋敷,,,,38.85456,139.961425
字山田,,,,38.85847,139.953465
飛鳥,アスカ,ASUKA,,38.885965,139.925645
東町一丁目,アズマチョウ 1,AZUMACHO 1,,38.908973,139.861193
東町二丁目,アズマチョウ 2,AZUMACHO 2,,38.906516,139.860482
飯森山一丁目,イイモリヤマ 1,IIMORIYAMA 1,,38.89615,139.820407
飯森山二丁目,イイモリヤマ 2,IIMORIYAMA 2,,38.889983,139.823592
飯森山三丁目,イイモリヤマ 3,IIMORIYAMA 3,,38.894455,139.817739
石名坂,イシナザカ,ISHINAZAKA,,38.883406,139.941932
石橋,イシバシ,ISHIBASHI,,38.902796,139.912976
泉興野,イズミコウヤ,IZUMIKOYA,,38.896597,139.92041
泉町,イズミチョウ,IZUMICHO,,38.931547,139.843632
板戸,イタド,ITADO,,38.866367,139.857561
市条,イチジョウ,ICHIJO,,38.960674,139.944273
一番町,イチバンチョウ,ICHIBANCHO,,38.915106,139.842037
入船町,イリフネチョウ,IRIFUNECHO,,38.908233,139.830942
臼ケ沢,ウスガサワ,USUGASAWA,,38.827466,139.985144
漆曽根,ウルシゾネ,URUSHIZONE,,38.929238,139.884374
駅東一丁目,エキヒガシ 1,EKIHIGASHI 1,,38.924911,139.845833
駅東二丁目,エキヒガシ 2,EKIHIGASHI 2,,38.924728,139.848682
円能寺,エンノウジ,ENNOJI,,38.939813,139.908
生石,オイシ,OISHI,,38.923434,139.94659
大川渡,オオカワド,OKAWADO,,38.801432,139.999323
大久保,オオクボ,OKUBO,,38.976945,139.918779
大島田,オオシマダ,OSHIMADA,,38.955377,139.915786
大多新田,オオタシンデン,OTASHINDEN,,38.918227,139.868659
大槻新田,オオツキシンデン,OTSUKISHINDEN,,38.91591,139.920379
大豊田,オオトヨダ,OTOYODA,,38.968757,139.917421
大沼新田,オオヌマシンデン,ONUMASHINDEN,,38.827113,139.970728
大野新田,オオノシンデン,ONOSHINDEN,,38.899812,139.880638
大浜一丁目,オオハマ 1,OHAMA 1,,38.926449,139.821397
大浜二丁目,オオハマ 2,OHAMA 2,,38.93068,139.81654
大町,オオマチ,OMACHI,,38.90388,139.872008
大宮,オオミヤ,OMIYA,,38.892267,139.863504
大宮町一丁目,オオミヤチョウ 1,OMIYACHO 1,,38.889425,139.857263
大宮町二丁目,オオミヤチョウ 2,OMIYACHO 2,,38.885141,139.853971
大宮町三丁目,オオミヤチョウ 3,OMIYACHO 3,,38.883855,139.860338
大宮町四丁目,オオミヤチョウ 4,OMIYACHO 4,,38.886782,139.862252
大蕨,オオワラビ,OWARABI,,38.972057,139.989005
岡島田,オカシマダ,OKASHIMADA,,38.950552,139.919323
荻島,オギジマ,OGIJIMA,,38.918312,139.886674
落野目,オチノメ,OCHINOME,,38.881769,139.844757
御成町,オナリチョウ,ONARICHO,,38.924198,139.841479
小見,オミ,OMI,,38.888741,139.955749
卸町,オロシマチ,OROSHIMACHI,,38.886499,139.856332
柏谷沢,カシヤザワ,KASHIYAZAWA,,38.782827,140.040274
勝保関,ガツボゼキ,GATSUBOZEKI,,38.905003,139.884082
門田,カドタ,KADOTA,,38.857607,139.876278
上青沢,カミアオサワ,KAMIAOSAWA,,38.956482,140.045361
上北目,カミキタメ,KAMIKITAME,,38.888797,139.975453
上黒川,カミクロカワ,KAMIKUROKAWA,,39.000114,140.004031
上興野,カミコウヤ,KAMIKOYA,,38.941403,139.889787
上野曽根,カミノソネ,KAMINOSONE,,38.944394,139.882697
上本町,カミホンチョウ,KAMIHONCHO,,38.911837,139.841068
上餅山,カミモチヤマ,KAMIMOCHIYAMA,,38.884177,139.968483
上安田,カミヤスダ,KAMIYASUDA,,38.950083,139.905305
上安町一丁目,カミヤスチョウ 1,KAMIYASUCHO 1,,38.927679,139.860405
上安町二丁目,カミヤスチョウ 2,KAMIYASUCHO 2,,38.927533,139.863619
上安町三丁目,カミヤスチョウ 3,KAMIYASUCHO 3,,38.929175,139.866071
亀ケ崎一丁目,カメガサキ 1,KAMEGASAKI 1,,38.908678,139.841457
亀ケ崎二丁目,カメガサキ 2,KAMEGASAKI 2,,38.907142,139.845476
亀ケ崎三丁目,カメガサキ 3,KAMEGASAKI 3,,38.903417,139.845307
亀ケ崎四丁目,カメガサキ 4,KAMEGASAKI 4,,38.900976,139.842555
亀ケ崎五丁目,カメガサキ 5,KAMEGASAKI 5,,38.899028,139.849414
亀ケ崎六丁目,カメガサキ 6,KAMEGASAKI 6,,38.898092,139.845568
亀ケ崎七丁目,カメガサキ 7,KAMEGASAKI 7,,38.897041,139.849129
刈穂,カリホ,KARIHO,,38.959374,139.908372
刈屋,カリヤ,KARIYA,,38.97474,139.906463
観音寺,カンノンジ,KANNONJI,,38.972323,139.939367
木川,キガワ,KIGAWA,,38.864229,139.87804
北青沢,キタアオサワ,KITAAOSAWA,,38.974081,140.036578
北今町,キタイママチ,KITAIMAMACHI,,38.924018,139.834904
北里町,キタザトチョウ,KITAZATOCHO,,38.925864,139.835185
北沢,キタザワ,KITAZAWA,,38.932415,139.941774
北仁田,キタジンデン,KITAJINDEN,,38.975473,139.931003
北新橋一丁目,キタシンバシ 1,KITASHIMBASHI 1,,38.923361,139.855577
北新橋二丁目,キタシンバシ 2,KITASHIMBASHI 2,,38.925602,139.85605
北新町一丁目,キタシンマチ 1,KITASHIMMACHI 1,,38.924012,139.832005
北新町二丁目,キタシンマチ 2,KITASHIMMACHI 2,,38.923648,139.828464
北千日町,キタセンニチチョウ,KITASENNICHICHO,,38.934427,139.83857
北千日堂前,キタセンニチドウマエ,KITASENNICHIDOMAE,,38.934447,139.835457
北平沢,キタヘイザワ,KITAHEIZAWA,,38.948237,139.937898
北俣,キタマタ,KITAMATA,,38.92274,140.041146
城輪,キノワ,KINOWA,,38.962889,139.905372
京田一丁目,キョウデン 1,KYODEN 1,,38.879758,139.839387
京田二丁目,キョウデン 2,KYODEN 2,,38.878187,139.83707
京田三丁目,キョウデン 3,KYODEN 3,,38.876787,139.83453
京田四丁目,キョウデン 4,KYODEN 4,,38.873258,139.837341
草津,クサツ,KUSATSU,,39.017263,140.033422
久保田,クボタ,KUBOTA,,38.925428,139.904096
熊手島,クマテジマ,KUMATEJIMA,,38.903506,139.892865
熊野田,クマノダ,KUMANODA,,38.914924,139.891994
黒森,クロモリ,KUROMORI,,38.849358,139.815434
こあら一丁目,コアラ 1,KOARA 1,,38.915783,139.862749
こあら二丁目,コアラ 2,KOARA 2,,38.914572,139.861456
こあら三丁目,コアラ 3,KOARA 3,,38.911795,139.862215
古荒新田,コアラシンデン,KOARASHINDEN,,38.913998,139.867189
小泉,コイズミ,KOIZUMI,,38.971194,139.930974
広栄町一丁目,コウエイチョウ 1,KOEICHO 1,,38.865855,139.844703
広栄町二丁目,コウエイチョウ 2,KOEICHO 2,,38.861969,139.845487
広栄町三丁目,コウエイチョウ 3,KOEICHO 3,,38.865058,139.847425
郡山,コオリヤマ,KORIYAMA,,38.906265,139.925308
こがね町一丁目,コガネチョウ 1,KOGANECHO 1,,38.902261,139.858655
こがね町二丁目,コガネチョウ 2,KOGANECHO 2,,38.897609,139.856606
寿町,コトブキチョウ,KOTOBUKICHO,,38.920384,139.835893
小林,コバヤシ,KOBAYASHI,,38.814902,140.050214
小牧,コマギ,KOMAGI,,38.892697,139.882582
小牧新田,コマギシンデン,KOMAGISHINDEN,,38.898977,139.896093
古湊町,コミナトチョウ,KOMINATOCHO,,38.947606,139.827037
幸町一丁目,サイワイチョウ 1,SAIWAICHO 1,,38.923079,139.84558
幸町二丁目,サイワイチョウ 2,SAIWAICHO 2,,38.923714,139.843655
境興野,サカイコウヤ,SAKAIKOYA,,38.940616,139.918911
酒井新田,サカイシンデン,SAKAISHINDEN,,38.938949,139.841992
栄町,サカエチョウ,SAKAECHO,,38.923564,139.837993
坂野辺新田,サカノベシンデン,SAKANOBESHINDEN,,38.872482,139.818628
桜林,サクラバヤシ,SAKURABAYASHI,,38.904712,139.918514
桜林興野,サクラバヤシコウヤ,SAKURABAYASHIKOYA,,38.908706,139.92045
砂越,サゴシ,SAGOSHI,,38.889419,139.900037
砂越緑町一丁目,サゴシミドリチョウ 1,SAGOSHIMIDORICHO 1,,38.894917,139.911435
砂越緑町二丁目,サゴシミドリチョウ 2,SAGOSHIMIDORICHO 2,,38.894597,139.911104
砂越緑町三丁目,サゴシミドリチョウ 3,SAGOSHIMIDORICHO 3,,38.894176,139.910788
砂越緑町四丁目,サゴシミドリチョウ 4,SAGOSHIMIDORICHO 4,,38.893873,139.910433
砂越緑町五丁目,サゴシミドリチョウ 5,SAGOSHIMIDORICHO 5,,38.893536,139.91015
砂越緑町六丁目,サゴシミドリチョウ 6,SAGOSHIMIDORICHO 6,,38.893221,139.909853
山居町一丁目,サンキョマチ 1,SANKYOMACHI 1,,38.911826,139.836074
山居町二丁目,サンキョマチ 2,SANKYOMACHI 2,,38.910517,139.833508
三之宮,サンノミヤ,SANNOMIYA,,38.898643,139.934377
地見興屋,ジミコウヤ,JIMIKOYA,,38.819027,139.996581
下青沢,シモアオサワ,SHIMOAOSAWA,,38.958785,139.993613
下黒川,シモクロカワ,SHIMOKUROKAWA,,39.000982,139.985022
下餅山,シモモチヤマ,SHIMOMOCHIYAMA,,38.882501,139.955009
下安町,シモヤスチョウ,SHIMOYASUCHO,,38.928801,139.856271
十里塚,ジュウリヅカ,JURIZUKA,,38.879968,139.806349
常禅寺,ジョウゼンジ,JOZENJI,,38.95665,139.966829
新出,シンデ,SHINDE,,38.987542,139.976691
新橋一丁目,シンバシ 1,SHIMBASHI 1,,38.921014,139.855112
新橋二丁目,シンバシ 2,SHIMBASHI 2,,38.918055,139.854265
新橋三丁目,シンバシ 3,SHIMBASHI 3,,38.917078,139.851657
新橋四丁目,シンバシ 4,SHIMBASHI 4,,38.915216,139.853689
新橋五丁目,シンバシ 5,SHIMBASHI 5,,38.914384,139.85688
末広町,スエヒロチョウ,SUEHIROCHO,,38.90933,139.849426
住吉町,スミヨシチョウ,SUMIYOSHICHO,,38.928871,139.835397
関,セキ,SEKI,,38.930091,139.91574
芹田,セツダ,SETSUDA,,38.981823,139.926284
千石町一丁目,センゴクチョウ 1,SENGOKUCHO 1,,38.908328,139.837681
千石町二丁目,センゴクチョウ 2,SENGOKUCHO 2,,38.904436,139.838903
千日町,センニチチョウ,SENNICHICHO,,38.929185,139.839451
曽根田,ソネダ,SONEDA,,38.931739,139.903428
高砂,タカサゴ,TAKASAGO,,38.945764,139.817298
高砂一丁目,タカサゴ 1,TAKASAGO 1,,38.941614,139.825564
高砂二丁目,タカサゴ 2,TAKASAGO 2,,38.941889,139.822034
高砂三丁目,タカサゴ 3,TAKASAGO 3,,38.942706,139.824279
高砂四丁目,タカサゴ 4,TAKASAGO 4,,38.945409,139.824713
高見台一丁目,タカミダイ 1,TAKAMIDAI 1,,38.902675,139.820716
高見台二丁目,タカミダイ 2,TAKAMIDAI 2,,38.901064,139.819686
竹田,タケダ,TAKEDA,,38.857834,139.946393
田沢,タザワ,TAZAWA,,38.872841,139.988
楯山,タテヤマ,TATEYAMA,,38.863948,140.055561
中央西町,チュウオウニシマチ,CHUO NISHIMACHI,,38.920119,139.838099
中央東町,チュウオウヒガシマチ,CHUO HIGASHIMACHI,,38.919639,139.839566
千代田,チヨダ,CHIYODA,,38.99451,139.886021
塚渕,,,,38.980972,139.91233
土崎,ツチザキ,TSUCHIZAKI,,38.911777,139.875148
土渕,ツチブチ,TSUCHIBUCHI,,38.864301,139.976199
堤町,ツツミチョウ,TSUTSUMICHO,,38.905381,139.832842
局,ツボネ,TSUBONE,,38.852332,139.882832
鶴田,ツルタ,TSURUTA,,38.941484,139.875042
手蔵田,テグラダ,TEGURADA,,38.912252,139.907025
寺田,テラダ,TERADA,,38.95133,139.933383
天神堂,テンジンドウ,TENJINDO,,38.898145,139.915137
東栄町,トウエイチョウ,TOEICHO,,38.914575,139.847307
飛島,トビシマ,TOBISHIMA,,39.195004,139.54973
豊里,トヨサト,TOYOSATO,,38.944685,139.845652
豊原,トヨハラ,TOYOHARA,,38.963019,139.895572
泥沢,ドロザワ,DOROZAWA,,38.986999,140.018514
中北目,ナカキタメ,NAKAKITAME,,38.892811,139.964907
中野新田,ナカノシンデン,NAKANOSHINDEN,,38.910859,139.886037
中野曽根,ナカノソネ,NAKANOSONE,,38.932446,139.878017
中野俣,ナカノマタ,NAKANOMATA,,38.893918,140.052498
中野目,ナカノメ,NAKANOME,,38.902531,139.932049
中牧田,ナカマキタ,NAKAMAKITA,,38.870413,139.942666
中町一丁目,ナカマチ 1,NAKAMACHI 1,,38.916342,139.838187
中町二丁目,ナカマチ 2,NAKAMACHI 2,,38.916857,139.835897
中町三丁目,ナカマチ 3,NAKAMACHI 3,,38.91759,139.833968
楢橋,ナラハシ,NARAHASHI,,38.893931,139.946085
成興野,ナリコウヤ,NARIKOYA,,38.800566,140.016329
新青渡,ニイアオド,NIIAODO,,38.92618,139.895194
新井田町,ニイダマチ,NIIDAMACHI,,38.914513,139.844503
新堀,ニイボリ,NIIBORI,,38.873784,139.879045
錦町一丁目,ニシキチョウ 1,NISHIKICHO 1,,38.882279,139.835527
錦町二丁目,ニシキチョウ 2,NISHIKICHO 2,,38.882246,139.833179
錦町三丁目,ニシキチョウ 3,NISHIKICHO 3,,38.883289,139.831634
錦町四丁目,ニシキチョウ 4,NISHIKICHO 4,,38.877617,139.831147
錦町五丁目,ニシキチョウ 5,NISHIKICHO 5,,38.87753,139.832759
西坂本,ニシサカモト,NISHISAKAMOTO,,38.847097,139.995836
西野町,ニシノマチ,NISHINOMACHI,,38.937294,139.838542
二番町,ニバンチョウ,NIBANCHO,,38.915599,139.840044
庭田,ニワタ,NIWATA,,38.957635,139.887446
布目,ヌノメ,NUNOME,,38.936781,139.898324
橋本,ハシモト,HASHIMOTO,,38.981672,139.934892
浜田一丁目,ハマダ 1,HAMADA 1,,38.917632,139.846743
浜田二丁目,ハマダ 2,HAMADA 2,,38.919959,139.850266
浜中,ハマナカ,HAMANAKA,,38.83348,139.796075
浜松町,ハママツチョウ,HAMAMATSUCHO,,38.937068,139.820851
茨野新田,バラノシンデン,BARANOSHINDEN,,38.898914,139.907492
東泉町一丁目,ヒガシイズミチョウ 1,HIGASHIIZUMICHO 1,,38.928833,139.845197
東泉町二丁目,ヒガシイズミチョウ 2,HIGASHIIZUMICHO 2,,38.927978,139.85048
東泉町三丁目,ヒガシイズミチョウ 3,HIGASHIIZUMICHO 3,,38.931368,139.847753
東泉町四丁目,ヒガシイズミチョウ 4,HIGASHIIZUMICHO 4,,38.931476,139.852534
東泉町五丁目,ヒガシイズミチョウ 5,HIGASHIIZUMICHO 5,,38.934225,139.850831
東泉町六丁目,ヒガシイズミチョウ 6,HIGASHIIZUMICHO 6,,38.935677,139.851919
東大町一丁目,ヒガシオオマチ 1,HIGASHIOMACHI 1,,38.910709,139.855762
東大町二丁目,ヒガシオオマチ 2,HIGASHIOMACHI 2,,38.907888,139.855295
東大町三丁目,ヒガシオオマチ 3,HIGASHIOMACHI 3,,38.905003,139.860792
東中の口町,ヒガシナカノクチマチ,HIGASHINAKANOKUCHIMACHI,,38.910926,139.845415
東両羽町,ヒガシリョウウチョウ,HIGASHIRYOUCHO,,38.893863,139.850401
光ケ丘一丁目,ヒカリガオカ 1,HIKARIGAOKA 1,,38.928546,139.831356
光ケ丘二丁目,ヒカリガオカ 2,HIKARIGAOKA 2,,38.92663,139.828224
光ケ丘三丁目,ヒカリガオカ 3,HIKARIGAOKA 3,,38.933149,139.829307
光ケ丘四丁目,ヒカリガオカ 4,HIKARIGAOKA 4,,38.936325,139.82745
光ケ丘五丁目,ヒカリガオカ 5,HIKARIGAOKA 5,,38.935391,139.824028
引地,ヒキジ,HIKIJI,,38.870472,139.950704
日の出町一丁目,ヒノデチョウ 1,HINODECHO 1,,38.917565,139.860125
日の出町二丁目,ヒノデチョウ 2,HINODECHO 2,,38.917389,139.863635
日吉町一丁目,ヒヨシチョウ 1,HIYOSHICHO 1,,38.920813,139.832059
日吉町二丁目,ヒヨシチョウ 2,HIYOSHICHO 2,,38.918727,139.830681
広岡新田,ヒロオカシンデン,HIROKASHINDEN,,38.825604,139.806983
広野,ヒロノ,HIRONO,,38.849795,139.844046
広野新田,ヒロノシンデン,HIRONOSHINDEN,,38.828571,139.838027
福岡,,,,38.831822,139.855914
福山,フクヤマ,FUKUYAMA,,38.988267,139.952142
藤塚,フジツカ,FUJITSUKA,,38.956834,139.857087
富士見町一丁目,フジミチョウ 1,FUJIMICHO 1,,38.923977,139.859691
富士見町二丁目,フジミチョウ 2,FUJIMICHO 2,,38.923198,139.862245
富士見町三丁目,フジミチョウ 3,FUJIMICHO 3,,38.922004,139.865252
船場町一丁目,フナバチョウ 1,FUNABACHO 1,,38.917585,139.82875
船場町二丁目,フナバチョウ 2,FUNABACHO 2,,38.915127,139.82994
麓,フモト,FUMOTO,,38.976224,139.948128
古青渡,フルアオド,FURUAODO,,38.934653,139.905666
法連寺,ホウレンジ,HORENJI,,38.964341,139.929299
穂積,ホヅミ,HOZUMI,,38.97177,139.862008
堀野内,ホリノウチ,HORINOCHI,,38.898667,139.92575
本川,ホンガワ,HONGAWA,,38.903744,139.905718
本町一丁目,ホンチョウ 1,HONCHO 1,,38.912458,139.838693
本町二丁目,ホンチョウ 2,HONCHO 2,,38.913714,139.836849
本町三丁目,ホンチョウ 3,HONCHO 3,,38.914756,139.833966
前川,マエカワ,MAEKAWA,,38.945293,139.913224
牧曽根,マキソネ,MAKISONE,,38.935592,139.872647
升田,マスダ,MASUDA,,39.021238,140.049361
松原南,マツバラミナミ,MATSUBARAMINAMI,,38.900289,139.853628
松美町,マツミチョウ,MATSUMICHO,,38.941592,139.83068
丸沼,マルヌマ,MARUNUMA,,38.874673,139.895743
政所,マンドコロ,MANDOKORO,,38.959603,139.920704
みずほ一丁目,ミズホ 1,MIZUHO 1,,38.905671,139.849007
みずほ二丁目,ミズホ 2,MIZUHO 2,,38.903104,139.853129
緑ケ丘一丁目,ミドリガオカ 1,MIDORIGAOKA 1,,38.899699,139.814764
緑ケ丘二丁目,ミドリガオカ 2,MIDORIGAOKA 2,,38.894083,139.808718
緑町,ミドリチョウ,MIDORICHO,,38.912001,139.852464
南新町一丁目,ミナミシンマチ 1,MINAMISHIMMACHI 1,,38.9204,139.827684
南新町二丁目,ミナミシンマチ 2,MINAMISHIMMACHI 2,,38.920505,139.825129
南千日町,ミナミセンニチチョウ,MINAMISENNICHICHO,,38.925875,139.838747
南平沢,ミナミヘイザワ,MINAMIHEIZAWA,,38.944399,139.939907
宮内,ミヤウチ,MIYAUCHI,,38.985363,139.878839
宮海,ミヤウミ,MIYAUMI,,38.966125,139.838186
宮野浦,ミヤノウラ,MIYANORA,,38.909394,139.807616
宮野浦一丁目,ミヤノウラ 1,MIYANORA 1,,38.906637,139.817202
宮野浦二丁目,ミヤノウラ 2,MIYANORA 2,,38.906265,139.81364
宮野浦三丁目,ミヤノウラ 3,MIYANORA 3,,38.910158,139.813777
茗ケ沢,ミョウガサワ,MYOGASAWA,,38.874116,139.971605
本楯,モトタテ,MOTOTATE,,38.971029,139.886217
保岡,ヤスオカ,YASUOKA,,38.956539,139.871871
安田,ヤスダ,YASUDA,,38.947611,139.896528
山楯,ヤマダテ,YAMADATE,,38.904488,139.945679
山寺,ヤマデラ,YAMADERA,,38.8417,139.965548
山元,ヤマモト,YAMAMOTO,,38.839768,140.054312
山谷,ヤマヤ,YAMAYA,,38.908695,139.977802
山谷新田,ヤマヤシンデン,YAMAYASHINDEN,,38.909784,139.965697
遊摺部,ユスルベ,YUSURUBE,,38.888443,139.871656
ゆたか一丁目,ユタカ 1,YUTAKA 1,,38.934267,139.843267
ゆたか二丁目,ユタカ 2,YUTAKA 2,,38.937213,139.845568
ゆたか三丁目,ユタカ 3,YUTAKA 3,,38.937413,139.8496
横代,ヨコダイ,YOKODAI,,38.923758,139.918354
吉田,ヨシダ,YOSHIDA,,38.948172,139.873247
吉田新田,ヨシダシンデン,YOSHIDASHINDEN,,38.936809,139.861452
四ツ興野,ヨツゴヤ,YOTSUGOYA,,38.905486,139.867155
米島,ヨネシマ,YONESHIMA,,38.983173,139.89901
両羽町,リョウウチョウ,RYOUCHO,,38.894215,139.844318
若竹町一丁目,ワカタケチョウ 1,WAKATAKECHO 1,,38.906349,139.835369
若竹町二丁目,ワカタケチョウ 2,WAKATAKECHO 2,,38.901744,139.837504
若浜町,ワカハマチョウ,WAKAHAMACHO,,38.914016,139.849926
若原町,ワカハラチョウ,WAKAHARACHO,,38.898594,139.840162
若宮町一丁目,ワカミヤチョウ 1,WAKAMIYACHO 1,,38.901774,139.813093
若宮町二丁目,ワカミヤチョウ 2,WAKAMIYACHO 2,,38.899671,139.810431
北浜町,キタハマチョウ,KITAHAMACHO,,38.943775,139.82913
浜中,ハマナカ,HAMANAKA,七窪,38.810311,139.774632
浜中,ハマナカ,HAMANAKA,西割,38.812418,139.775851
浜中,ハマナカ,HAMANAKA,八窪,38.806605,139.783659
浜中,ハマナカ,HAMANAKA,上村,38.824715,139.779989
浜中,ハマナカ,HAMANAKA,下村,38.828542,139.782431
浜中,ハマナカ,HAMANAKA,分散山,38.821354,139.782619
浜中,ハマナカ,HAMANAKA,十二森,38.809549,139.785882
浜中,ハマナカ,HAMANAKA,村北分散,38.833681,139.787025
浜中,ハマナカ,HAMANAKA,村東,38.822341,139.790259
浜中,ハマナカ,HAMANAKA,八間山,38.856387,139.797764
浜中,ハマナカ,HAMANAKA,東割,38.836423,139.805
十里塚,ジュウリヅカ,JURIZUKA,村東山南,38.871573,139.801534
広岡新田,ヒロオカシンデン,HIROKASHINDEN,前林,38.823228,139.80328
浜中,ハマナカ,HAMANAKA,粮畑,38.816557,139.797417
十里塚,ジュウリヅカ,JURIZUKA,高砂子,38.88011,139.798679
十里塚,ジュウリヅカ,JURIZUKA,村東山北,38.885612,139.806021
黒森,クロモリ,KUROMORI,境山,38.847649,139.809533
黒森,クロモリ,KUROMORI,葭葉山,38.855977,139.8126
浜中,ハマナカ,HAMANAKA,小浜山,38.844367,139.808778
坂野辺新田,サカノベシンデン,SAKANOBESHINDEN,地続山,38.867542,139.816477
浜中,ハマナカ,HAMANAKA,船付場,38.830631,139.806892
宮野浦,ミヤノウラ,MIYANORA,飯森山西,38.893274,139.813044
十里塚,ジュウリヅカ,JURIZUKA,村東山,38.880943,139.814696
浜中,ハマナカ,HAMANAKA,細縄,38.826855,139.80892
浜中,ハマナカ,HAMANAKA,砂沼,38.836509,139.811484
浜中,ハマナカ,HAMANAKA,小浜,38.838301,139.812911
浜中,ハマナカ,HAMANAKA,沼中瀬,38.825933,139.813319
黒森,クロモリ,KUROMORI,村中,38.848593,139.817924
坂野辺新田,サカノベシンデン,SAKANOBESHINDEN,西狢山,38.881656,139.820724
黒森,クロモリ,KUROMORI,草刈谷地,38.849853,139.819579
坂野辺新田,サカノベシンデン,SAKANOBESHINDEN,葉萱,38.860293,139.819343
宮海,ミヤウミ,MIYAUMI,南浜,38.963372,139.832182
宮野浦,ミヤノウラ,MIYANORA,出羽台,38.898126,139.821551
黒森,クロモリ,KUROMORI,鏥,38.855351,139.821552
宮野浦,ミヤノウラ,MIYANORA,実取,38.895349,139.821285
黒森,クロモリ,KUROMORI,十二ノ木,38.841961,139.820661
坂野辺新田,サカノベシンデン,SAKANOBESHINDEN,坂野辺,38.87218,139.823693
黒森,クロモリ,KUROMORI,一ノ木,38.848511,139.821485
坂野辺新田,サカノベシンデン,SAKANOBESHINDEN,一番割,38.867725,139.824651
坂野辺新田,サカノベシンデン,SAKANOBESHINDEN,二番割,38.872219,139.824538
坂野辺新田,サカノベシンデン,SAKANOBESHINDEN,東狢山,38.880979,139.828722
坂野辺新田,サカノベシンデン,SAKANOBESHINDEN,稲荷,38.889354,139.826638
坂野辺新田,サカノベシンデン,SAKANOBESHINDEN,古川,38.874625,139.828516
坂野辺新田,サカノベシンデン,SAKANOBESHINDEN,四角割,38.862348,139.827698
宮海,ミヤウミ,MIYAUMI,明治,38.949902,139.83758
宮野浦,ミヤノウラ,MIYANORA,試田,38.894463,139.828766
広野,ヒロノ,HIRONO,杓子,38.829324,139.838082
広野,ヒロノ,HIRONO,奥井,38.872027,139.832105
新町,シンマチ,SHIMMACHI,光ヶ丘,38.932757,139.832382
宮海,ミヤウミ,MIYAUMI,新林,38.959871,139.84098
広野,ヒロノ,HIRONO,三本柳,38.834359,139.835068
宮海,ミヤウミ,MIYAUMI,治八郎畑,38.952438,139.835487
北千日堂前,キタセンニチドウマエ,KITASENNICHIDOMAE,松境,38.934271,139.834732
広野,ヒロノ,HIRONO,下中村,38.865524,139.836954
豊里,トヨサト,TOYOSATO,芦原,38.944381,139.839347
酒井新田,サカイシンデン,SAKAISHINDEN,水口,38.94076,139.835876
広野,ヒロノ,HIRONO,上中村,38.855078,139.841393
宮海,ミヤウミ,MIYAUMI,砂飛,38.974802,139.839852
豊里,トヨサト,TOYOSATO,上割,38.946142,139.840729
豊里,トヨサト,TOYOSATO,大割,38.945312,139.840044
宮海,ミヤウミ,MIYAUMI,南砂畑,38.967224,139.842736
落野目,オチノメ,OCHINOME,新田,38.879362,139.846877
宮海,ミヤウミ,MIYAUMI,向砂畑,38.97253,139.842798
広野,ヒロノ,HIRONO,上割,38.872409,139.842449
広野,ヒロノ,HIRONO,大日塚,38.846106,139.845291
宮海,ミヤウミ,MIYAUMI,村東,38.9787,139.845889
広野,ヒロノ,HIRONO,中曽美,38.86011,139.844802
豊里,トヨサト,TOYOSATO,下藤塚,38.949609,139.8451
広野,ヒロノ,HIRONO,末広,38.849136,139.845629
広野,ヒロノ,HIRONO,福岡,38.825814,139.849687
広野,ヒロノ,HIRONO,興屋,38.830733,139.843925
広野,ヒロノ,HIRONO,上通,38.842221,139.850968
宮海,ミヤウミ,MIYAUMI,林内,38.96941,139.848797
宮海,ミヤウミ,MIYAUMI,古川,38.955274,139.846541
広野,ヒロノ,HIRONO,十五軒,38.857827,139.847285
豊里,トヨサト,TOYOSATO,家脇,38.948063,139.847034
広野,ヒロノ,HIRONO,榎橋,38.854652,139.847585
藤塚,フジツカ,FUJITSUKA,下谷地,38.950686,139.850975
広野,ヒロノ,HIRONO,下通,38.848718,139.849824
藤塚,フジツカ,FUJITSUKA,南畑,38.952829,139.849026
広野,ヒロノ,HIRONO,中通,38.845321,139.851709
宮海,ミヤウミ,MIYAUMI,安政,38.962339,139.85289
藤塚,フジツカ,FUJITSUKA,元和里,38.956099,139.852195
藤塚,フジツカ,FUJITSUKA,中畑,38.959363,139.854524
宮海,ミヤウミ,MIYAUMI,日向,38.972261,139.855733
広野,ヒロノ,HIRONO,大渕,38.848554,139.85564
藤塚,フジツカ,FUJITSUKA,北畑,38.963306,139.855652
穂積,ホヅミ,HOZUMI,砂畑,38.966763,139.855507
吉田新田,ヨシダシンデン,YOSHIDASHINDEN,落シ端,38.937614,139.858978
穂積,ホヅミ,HOZUMI,下市神,38.971475,139.856675
穂積,ホヅミ,HOZUMI,上市神,38.976287,139.862358
大宮,オオミヤ,OMIYA,一貫野,38.889461,139.859844
吉田新田,ヨシダシンデン,YOSHIDASHINDEN,南割,38.933421,139.862097
吉田新田,ヨシダシンデン,YOSHIDASHINDEN,九五田,38.93576,139.861662
穂積,ホヅミ,HOZUMI,土手下,38.975138,139.861128
板戸,イタド,ITADO,北前,38.863966,139.865824
大宮,オオミヤ,OMIYA,槇野,38.889817,139.866959
板戸,イタド,ITADO,福岡,38.86227,139.863779
落野目,オチノメ,OCHINOME,杉之崎,38.873213,139.864145
吉田新田,ヨシダシンデン,YOSHIDASHINDEN,堰中瀬,38.940083,139.862433
保岡,ヤスオカ,YASUOKA,家際,38.947565,139.862724
落野目,オチノメ,OCHINOME,刈分,38.874075,139.8703
吉田新田,ヨシダシンデン,YOSHIDASHINDEN,土井東,38.941692,139.864907
大町,オオマチ,OMACHI,下切添,38.905733,139.86594
吉田新田,ヨシダシンデン,YOSHIDASHINDEN,東割,38.937961,139.86607
保岡,ヤスオカ,YASUOKA,屋敷添,38.950945,139.866214
大町,オオマチ,OMACHI,下割,38.906181,139.868757
落野目,オチノメ,OCHINOME,十寸穂,38.87295,139.868045
大多新田,オオタシンデン,OTASHINDEN,村添,38.917981,139.867916
遊摺部,ユスルベ,YUSURUBE,中通,38.890416,139.871658
宮内,ミヤウチ,MIYAUCHI,六ツ新田,38.983758,139.868353
穂積,ホヅミ,HOZUMI,元屋敷,38.981063,139.869498
千代田,チヨダ,CHIYODA,西谷地,38.998775,139.869582
保岡,ヤスオカ,YASUOKA,境田,38.951069,139.870267
保岡,ヤスオカ,YASUOKA,柳原,38.954926,139.870732
遊摺部,ユスルベ,YUSURUBE,千代世,38.898786,139.872489
大町,オオマチ,OMACHI,出雲,38.90763,139.873359
遊摺部,ユスルベ,YUSURUBE,南畑,38.882378,139.87515
土崎,ツチザキ,TSUCHIZAKI,堰西,38.912576,139.873457
土崎,ツチザキ,TSUCHIZAKI,屋敷添,38.911852,139.875159
局,ツボネ,TSUBONE,惣田,38.849824,139.87868
遊摺部,ユスルベ,YUSURUBE,村立,38.884116,139.877357
門田,カドタ,KADOTA,寿福,38.858295,139.880402
遊摺部,ユスルベ,YUSURUBE,南五丁野,38.882254,139.878799
局,ツボネ,TSUBONE,局,38.851397,139.883036
勝保関,ガツボゼキ,GATSUBOZEKI,百野,38.906027,139.879489
新堀,ニイボリ,NIIBORI,豊森,38.873772,139.879649
局,ツボネ,TSUBONE,未谷地,38.855557,139.880257
勝保関,ガツボゼキ,GATSUBOZEKI,前,38.904503,139.88064
勝保関,ガツボゼキ,GATSUBOZEKI,後口,38.905235,139.882103
勝保関,ガツボゼキ,GATSUBOZEKI,上割符,38.902715,139.886969
大野新田,オオノシンデン,ONOSHINDEN,村南,38.899027,139.884462
大野新田,オオノシンデン,ONOSHINDEN,高田,38.899926,139.882675
小牧,コマギ,KOMAGI,南五丁野,38.885632,139.883488
局,ツボネ,TSUBONE,南田,38.85099,139.882668
本楯,モトタテ,MOTOTATE,通伝,38.966973,139.883061
門田,カドタ,KADOTA,台ノ上,38.856584,139.883962
大町,オオマチ,OMACHI,大野,38.897012,139.888379
局,ツボネ,TSUBONE,立野,38.854012,139.884341
小牧,コマギ,KOMAGI,西畑,38.893359,139.886715
勝保関,ガツボゼキ,GATSUBOZEKI,北波加伊,38.903298,139.887648
本楯,モトタテ,MOTOTATE,前田,38.966525,139.891954
茨野新田,バラノシンデン,BARANOSHINDEN,村北,38.899892,139.900972
寺田,テラダ,TERADA,沖,38.957372,139.9268
法連寺,ホウレンジ,HORENJI,茅針谷地,38.964961,139.92806
小泉,コイズミ,KOIZUMI,北豊田,38.97324,139.927492
小泉,コイズミ,KOIZUMI,後田,38.97134,139.935972
市条,イチジョウ,ICHIJO,荒瀬,38.966031,139.932089
北仁田,キタジンデン,KITAJINDEN,川除,38.977397,139.932568
北仁田,キタジンデン,KITAJINDEN,広面,38.975937,139.933274
北仁田,キタジンデン,KITAJINDEN,石田,38.975259,139.93456
寺田,テラダ,TERADA,道ノ上,38.956828,139.935153
市条,イチジョウ,ICHIJO,水上,38.96448,139.935619
市条,イチジョウ,ICHIJO,横枕,38.961893,139.933799
市条,イチジョウ,ICHIJO,村ノ前,38.96316,139.932461
小泉,コイズミ,KOIZUMI,道南,38.970215,139.935204
小泉,コイズミ,KOIZUMI,前田,38.969339,139.937496
市条,イチジョウ,ICHIJO,畑ケ中,38.963346,139.935577
観音寺,カンノンジ,KANNONJI,町後,38.971223,139.939697
小泉,コイズミ,KOIZUMI,上川原,38.967849,139.938582
市条,イチジョウ,ICHIJO,上川原,38.966113,139.940803
観音寺,カンノンジ,KANNONJI,町,38.968584,139.940238
麓,フモト,FUMOTO,雪車田,38.982558,139.942919
麓,フモト,FUMOTO,坂ノ下,38.976512,139.944272
麓,フモト,FUMOTO,村ノ下,38.978374,139.944416
観音寺,カンノンジ,KANNONJI,古楯,38.97423,139.943611
麓,フモト,FUMOTO,天神堂,38.980247,139.944455
麓,フモト,FUMOTO,荒町,38.969027,139.944745
麓,フモト,FUMOTO,横道,38.968588,139.946522
麓,フモト,FUMOTO,緑沢,38.966457,139.945877
麓,フモト,FUMOTO,麓野,38.978717,139.946981
麓,フモト,FUMOTO,楯ノ腰,38.97115,139.946729
麓,フモト,FUMOTO,上川原,38.968022,139.947394
常禅寺,ジョウゼンジ,JOZENJI,西田,38.967428,139.954598
常禅寺,ジョウゼンジ,JOZENJI,上野山,38.968858,139.955984
常禅寺,ジョウゼンジ,JOZENJI,上川原,38.967733,139.957676
北仁田,キタジンデン,KITAJINDEN,堂脇,38.976389,139.935377
北仁田,キタジンデン,KITAJINDEN,上曽田,38.973709,139.936799
北仁田,キタジンデン,KITAJINDEN,五百地,38.972849,139.936518
麓,フモト,FUMOTO,楯山,38.974337,139.946332
市条,イチジョウ,ICHIJO,八森,38.963112,139.941274
法連寺,ホウレンジ,HORENJI,与作新田,38.965656,139.934201
法連寺,ホウレンジ,HORENJI,村前,38.963966,139.929973
法連寺,ホウレンジ,HORENJI,村ノ前,38.964098,139.931985
観音寺,カンノンジ,KANNONJI,前田,38.971743,139.939771
宮内,ミヤウチ,MIYAUCHI,南谷地,38.988416,139.868492
宮海,ミヤウミ,MIYAUMI,中砂畑,38.969302,139.842766
吉田新田,ヨシダシンデン,YOSHIDASHINDEN,宮ノ西,38.939812,139.858758
牧曽根,マキソネ,MAKISONE,梵天塚,38.933905,139.867288
牧曽根,マキソネ,MAKISONE,西興野,38.934826,139.866991
酒井新田,サカイシンデン,SAKAISHINDEN,道ノ下,38.9412,139.836926
豊里,トヨサト,TOYOSATO,下西割,38.94543,139.835555
豊里,トヨサト,TOYOSATO,堂脇,38.947428,139.8395
漆曽根,ウルシゾネ,URUSHIZONE,向谷地,38.916645,139.864781
黒森,クロモリ,KUROMORI,小浜,38.844355,139.81701
黒森,クロモリ,KUROMORI,砂土端,38.845751,139.81922
黒森,クロモリ,KUROMORI,泊山,38.846252,139.816429
黒森,クロモリ,KUROMORI,川前,38.848708,139.819753
黒森,クロモリ,KUROMORI,谷地中,38.856991,139.820588
浜中,ハマナカ,HAMANAKA,稗畑,38.832666,139.812187
門田,カドタ,KADOTA,宮ノ前,38.856706,139.879101
木川,キガワ,KIGAWA,アラコウヤ,38.867076,139.877379
板戸,イタド,ITADO,苗岡,38.863472,139.86374
宮野浦,ミヤノウラ,MIYANORA,山手,38.890153,139.816898
坂野辺新田,サカノベシンデン,SAKANOBESHINDEN,下割,38.88591,139.835966
市条,イチジョウ,ICHIJO,山本,38.962426,139.93609
寺田,テラダ,TERADA,堂田,38.956963,139.934053
常禅寺,ジョウゼンジ,JOZENJI,西ノ沢,38.967933,139.954493
穂積,ホヅミ,HOZUMI,大割,38.970708,139.856141
観音寺,カンノンジ,KANNONJI,寺ノ下,38.970934,139.942744
広野,ヒロノ,HIRONO,土橋,38.843026,139.848284
酒井新田,サカイシンデン,SAKAISHINDEN,山ノ下,38.936388,139.840092
