name,name_kana,name_romaji,nickname,latitude,longitude
相生町,アイオイチョウ,AIOICHO,,38.259076,140.337672
青田一丁目,アオタ 1,AOTA 1,,38.22547,140.329118
青田二丁目,アオタ 2,AOTA 2,,38.22618,140.334657
青田三丁目,アオタ 3,AOTA 3,,38.223266,140.332035
青田四丁目,アオタ 4,AOTA 4,,38.22371,140.328611
青田五丁目,アオタ 5,AOTA 5,,38.222154,140.329651
青田南,アオタミナミ,AOTAMINAMI,,38.220714,140.32707
明石堂,アカシドウ,AKASHIDO,,38.228951,140.292897
あかねケ丘一丁目,アカネガオカ 1,AKANEGAOKA 1,,38.250198,140.311308
あかねケ丘二丁目,アカネガオカ 2,AKANEGAOKA 2,,38.245721,140.310193
あかねケ丘三丁目,アカネガオカ 3,AKANEGAOKA 3,,38.242139,140.309268
あけぼの一丁目,アケボノ 1,AKEBONO 1,,38.313451,140.362092
あけぼの二丁目,アケボノ 2,AKEBONO 2,,38.313547,140.359751
あこや町一丁目,アコヤチョウ 1,AKOYACHO 1,,38.240038,140.350896
あこや町二丁目,アコヤチョウ 2,AKOYACHO 2,,38.24231,140.352468
あこや町三丁目,アコヤチョウ 3,AKOYACHO 3,,38.240395,140.354958
旭が丘,アサヒガオカ,ASAHIGAOKA,,38.227021,140.33055
あさひ町,アサヒマチ,ASAHIMACHI,,38.243303,140.363634
あずま町,アズマチョウ,AZUMACHO,,38.238828,140.337376
阿弥陀,,,,38.250965,140.271179
荒楯町一丁目,アラタテチョウ 1,ARATATECHO 1,,38.233512,140.333223
荒楯町二丁目,アラタテチョウ 2,ARATATECHO 2,,38.231137,140.333144
飯沢,イイザワ,IIZAWA,,38.240955,140.302226
飯田一丁目,イイダ 1,IIDA 1,,38.216253,140.324533
飯田二丁目,イイダ 2,IIDA 2,,38.216442,140.327945
飯田三丁目,イイダ 3,IIDA 3,,38.213973,140.330905
飯田四丁目,イイダ 4,IIDA 4,,38.213849,140.326862
飯田五丁目,イイダ 5,IIDA 5,,38.211435,140.32522
飯田西一丁目,イイダニシ 1,IIDANISHI 1,,38.216726,140.322626
飯田西二丁目,イイダニシ 2,IIDANISHI 2,,38.215582,140.318019
飯田西三丁目,イイダニシ 3,IIDANISHI 3,,38.212867,140.317382
飯田西四丁目,イイダニシ 4,IIDANISHI 4,,38.213296,140.320837
飯田西五丁目,イイダニシ 5,IIDANISHI 5,,38.211747,140.321342
飯塚口,イイヅカグチ,IIZUKAGUCHI,,38.257641,140.303537
石関,イシゼキ,ISHIZEKI,,38.252847,140.305489
石寺,,,,38.228057,140.285808
五十鈴一丁目,イスズ 1,ISUZU 1,,38.271661,140.353291
五十鈴二丁目,イスズ 2,ISUZU 2,,38.273776,140.354458
五十鈴三丁目,イスズ 3,ISUZU 3,,38.276069,140.355874
泉町,イズミチョウ,IZUMICHO,,38.274231,140.345019
五日町,イツカマチ,ITSUKAMACHI,,38.244882,140.323463
鋳物町,イモノマチ,IMONOMACHI,,38.232243,140.28879
印役町一丁目,インヤクマチ 1,INYAKUMACHI 1,,38.263459,140.349619
印役町二丁目,インヤクマチ 2,INYAKUMACHI 2,,38.263595,140.3532
印役町三丁目,インヤクマチ 3,INYAKUMACHI 3,,38.265184,140.351542
印役町四丁目,インヤクマチ 4,INYAKUMACHI 4,,38.267624,140.35191
印役町五丁目,インヤクマチ 5,INYAKUMACHI 5,,38.268321,140.347729
内表東,ウチオモテヒガシ,UCHIOMOTEHIGASHI,,38.292127,140.305905
内城,,,,38.2674,140.268717
馬洗場,,,,38.310451,140.312794
梅野木前,ウメノキマエ,UMENOKIMAE,,38.282696,140.312931
上江,,,,38.274457,140.286008
上町一丁目,ウワマチ 1,UWAMACHI 1,,38.242691,140.320654
上町二丁目,ウワマチ 2,UWAMACHI 2,,38.245375,140.319388
上町三丁目,ウワマチ 3,UWAMACHI 3,,38.24207,140.316703
上町四丁目,ウワマチ 4,UWAMACHI 4,,38.244274,140.314332
上町五丁目,ウワマチ 5,UWAMACHI 5,,38.241571,140.313334
江俣一丁目,エマタ 1,EMATA 1,,38.274316,140.323403
江俣二丁目,エマタ 2,EMATA 2,,38.278095,140.323108
江俣三丁目,エマタ 3,EMATA 3,,38.275204,140.320199
江俣四丁目,エマタ 4,EMATA 4,,38.276889,140.316847
江俣五丁目,エマタ 5,EMATA 5,,38.278922,140.313606
円応寺町,エンノウジマチ,ENNOJIMACHI,,38.267026,140.344137
追散,,,,38.269749,140.302154
大字青野,,,,38.284609,140.382142
大字青柳,,,,38.299448,140.351406
大字今塚,,,,38.291894,140.32397
大字岩波,,,,38.211356,140.357264
大字内表,,,,38.294926,140.296223
大字江俣,,,,38.288303,140.311736
大字大森,,,,38.308732,140.395661
大字風間,,,,38.295527,140.381874
大字柏倉,,,,38.221614,140.232111
大字片谷地,,,,38.21321,140.304964
大字上椹沢,,,,38.26509,140.296033
大字上桜田,,,,38.216968,140.348279
大字上反田,,,,38.269387,140.256185
大字上東山,,,,38.282926,140.432696
大字上宝沢,,,,38.212072,140.42069
大字神尾,,,,38.191511,140.367854
大字切畑,,,,38.281604,140.400441
大字黒沢,,,,38.191542,140.302004
大字下東山,,,,38.297457,140.412232
大字下宝沢,,,,38.23179,140.4011
大字釈迦堂,,,,38.240127,140.385814
大字十文字,,,,38.309579,140.373946
大字常明寺,,,,38.266185,140.245765
大字陣場,,,,38.282679,140.303854
大字陣場新田,,,,38.282854,140.298328
大字菅沢,,,,38.225443,140.272772
大字鮨洗,,,,38.291153,140.282324
大字関沢,,,,38.219552,140.454969
大字高沢,,,,38.257437,140.441562
大字滝平,,,,38.267906,140.222431
大字津金沢,,,,38.204067,140.290669
大字土坂,,,,38.202836,140.382413
大字中桜田,,,,38.210506,140.342288
大字中里,,,,38.302105,140.383865
大字中野,,,,38.307506,140.306733
大字中野目,,,,38.332889,140.311796
大字七浦,,,,38.303221,140.339276
大字滑川,,,,38.242188,140.407245
大字成安,,,,38.318395,140.316989
大字二位田,,,,38.222092,140.287115
大字新山,,,,38.230241,140.425661
大字西中野,,,,38.300421,140.299268
大字沼木,,,,38.246405,140.290597
大字灰塚,,,,38.329213,140.321558
大字長谷堂,,,,38.197865,140.262624
大字八森,,,,38.212684,140.384187
大字平清水,,,,38.22812,140.371488
大字船町,,,,38.309414,140.290169
大字古館,,,,38.263651,140.261576
大字前明石,,,,38.2309,140.299658
大字松原,,,,38.198056,140.295032
大字見崎,,,,38.299854,140.320545
大字南館,,,,38.234244,140.298705
大字妙見寺,,,,38.23656,140.376621
大字向新田,,,,38.313681,140.290095
大字村木沢,,,,38.248809,140.228903
大字門伝,,,,38.231639,140.216171
大字谷柏,,,,38.217657,140.295434
大字山寺,,,,38.309795,140.456248
大字芳沢,,,,38.260373,140.226524
大字吉野宿,,,,38.286116,140.291759
大字吉原,,,,38.227328,140.303314
大字若木,,,,38.26222,140.254126
大手町,オオテマチ,OTEMACHI,,38.256605,140.333623
大道端,オオミチバタ,OMICHIBATA,,38.242988,140.274468
沖町,オキマチ,OKIMACHI,,38.28946,140.328563
小立一丁目,オダチ 1,ODACHI 1,,38.228608,140.339998
小立二丁目,オダチ 2,ODACHI 2,,38.229786,140.342762
小立三丁目,オダチ 3,ODACHI 3,,38.228239,140.344046
小立四丁目,オダチ 4,ODACHI 4,,38.226136,140.345912
落合町,オチアイマチ,OCHIAIMACHI,,38.282211,140.348911
御手作,オテサク,OTESAKU,,38.219958,140.277188
表蔵王,オモテザオウ,OMOTEZAO,,38.18924,140.312742
替所,,,,38.263563,140.26832
篭田一丁目,カゴタ 1,KAGOTA 1,,38.240152,140.321344
篭田二丁目,カゴタ 2,KAGOTA 2,,38.237471,140.320116
篭田三丁目,カゴタ 3,KAGOTA 3,,38.237778,140.317742
霞城町,カジョウマチ,KAJOMACHI,,38.255488,140.328125
春日町,カスガチョウ,KASUGACHO,,38.252708,140.319179
香澄町一丁目,カスミチョウ 1,KASUMICHO 1,,38.249424,140.329646
香澄町二丁目,カスミチョウ 2,KASUMICHO 2,,38.24862,140.332306
香澄町三丁目,カスミチョウ 3,KASUMICHO 3,,38.245563,140.330707
金石田,カナイシダ,KANAISHIDA,,38.266821,140.292011
上桜田一丁目,カミサクラダ 1,KAMISAKURADA 1,,38.22319,140.342472
上桜田二丁目,カミサクラダ 2,KAMISAKURADA 2,,38.222785,140.34467
上桜田三丁目,カミサクラダ 3,KAMISAKURADA 3,,38.219843,140.345736
上桜田四丁目,カミサクラダ 4,KAMISAKURADA 4,,38.219061,140.342424
上桜田五丁目,カミサクラダ 5,KAMISAKURADA 5,,38.219354,140.33978
上柳,カミヤナギ,KAMIYANAGI,,38.295318,140.347092
上山家町,カミヤンベマチ,KAMIYAMBEMACHI,,38.258505,140.388982
北江俣,キタエマタ,KITAEMATA,,38.283815,140.308922
北志戸田,,,,38.283681,140.284755
北田,キタダ,KITADA,,38.30875,140.305882
北町一丁目,キタマチ 1,KITAMACHI 1,,38.268239,140.331471
北町二丁目,キタマチ 2,KITAMACHI 2,,38.269411,140.329065
北町三丁目,キタマチ 3,KITAMACHI 3,,38.272827,140.327073
北町四丁目,キタマチ 4,KITAMACHI 4,,38.272651,140.332697
北山形一丁目,キタヤマガタ 1,KITAYAMAGATA 1,,38.263301,140.330788
北山形二丁目,キタヤマガタ 2,KITAYAMAGATA 2,,38.26586,140.329484
木の実町,キノミチョウ,KINOMICHO,,38.252108,140.334211
木ノ目田,キノメダ,KINOMEDA,,38.25123,140.289837
行才,ギョウサイ,GYOSAI,,38.288162,140.308184
京旦,,,,38.228328,140.30078
清住町一丁目,キヨズミマチ 1,KIYOZUMIMACHI 1,,38.254848,140.316938
清住町二丁目,キヨズミマチ 2,KIYOZUMIMACHI 2,,38.256309,140.313066
清住町三丁目,キヨズミマチ 3,KIYOZUMIMACHI 3,,38.252824,140.31389
久保田一丁目,クボタ 1,KUBOTA 1,,38.2487,140.31829
久保田二丁目,クボタ 2,KUBOTA 2,,38.249628,140.315387
久保田三丁目,クボタ 3,KUBOTA 3,,38.24635,140.315424
江南一丁目,コウナン 1,KONAN 1,,38.269962,140.321062
江南二丁目,コウナン 2,KONAN 2,,38.271736,140.321403
江南三丁目,コウナン 3,KONAN 3,,38.272484,140.316237
江南四丁目,コウナン 4,KONAN 4,,38.273981,140.312477
黄金,コガネ,KOGANE,,38.265089,140.303517
小姓町,コショウマチ,KOSHOMACHI,,38.247219,140.341309
小白川町,コジラカワマチ,KOJIRAKAWAMACHI,,38.249103,140.367713
小白川町一丁目,コジラカワマチ 1,KOJIRAKAWAMACHI 1,,38.246206,140.350657
小白川町二丁目,コジラカワマチ 2,KOJIRAKAWAMACHI 2,,38.249212,140.351846
小白川町三丁目,コジラカワマチ 3,KOJIRAKAWAMACHI 3,,38.247622,140.357991
小白川町四丁目,コジラカワマチ 4,KOJIRAKAWAMACHI 4,,38.245027,140.357429
小白川町五丁目,コジラカワマチ 5,KOJIRAKAWAMACHI 5,,38.245088,140.36772
寿町,コトブキチョウ,KOTOBUKICHO,,38.235304,140.338131
小荷駄町,コニダマチ,KONIDAMACHI,,38.239457,140.340888
後明,,,,38.271398,140.256777
こも石,コモイシ,KOMOISHI,,38.296182,140.390534
才津,,,,38.246356,140.270125
幸町,サイワイチョウ,SAIWAICHO,,38.245434,140.327414
蔵王飯田,ザオウイイダ,ZAO IIDA,,38.209064,140.332877
蔵王上野,ザオウウワノ,ZAO UWANO,,38.175729,140.330987
蔵王温泉,ザオウオンセン,ZAO ONSEN,,38.174319,140.41791
蔵王成沢,ザオウナリサワ,ZAO NARISAWA,,38.200878,140.328794
蔵王野際,,,,38.198376,140.327525
蔵王半郷,ザオウハンゴウ,ZAO HANGO,,38.187585,140.32526
蔵王堀田,ザオウホッタ,ZAO HOTTA,,38.172013,140.353699
蔵王松ケ丘,ザオウマツガオカ,ZAO MATSUGAOKA,,38.19637,140.309506
蔵王松ケ丘一丁目,ザオウマツガオカ 1,ZAO MATSUGAOKA 1,,38.19943,140.312665
蔵王松ケ丘二丁目,ザオウマツガオカ 2,ZAO MATSUGAOKA 2,,38.191095,140.3088
蔵王南成沢,ザオウミナミナリサワ,ZAO MINAMINARISAWA,,38.196714,140.31593
蔵王美原,,,,38.198763,140.310476
蔵王山田,ザオウヤマダ,ZAO YAMADA,,38.191007,140.33207
早乙女,サオトメ,SAOTOME,,38.276835,140.362241
境田町,サカイダマチ,SAKAIDAMACHI,,38.297551,140.329975
栄原,サカエバラ,SAKAEBARA,,38.289743,140.345511
肴町,サカナマチ,SAKANAMACHI,,38.261749,140.330151
桜ケ丘,サクラガオカ,SAKURAGAOKA,,38.252559,140.263091
佐倉宿,,,,38.23179,140.278769
桜田西一丁目,サクラダニシ 1,SAKURADANISHI 1,,38.221296,140.317034
桜田西二丁目,サクラダニシ 2,SAKURADANISHI 2,,38.219551,140.316966
桜田西三丁目,サクラダニシ 3,SAKURADANISHI 3,,38.220678,140.313475
桜田西四丁目,サクラダニシ 4,SAKURADANISHI 4,,38.218057,140.315218
桜田西五丁目,サクラダニシ 5,SAKURADANISHI 5,,38.222102,140.309588
桜田東一丁目,サクラダヒガシ 1,SAKURADAHIGASHI 1,,38.220715,140.320781
桜田東二丁目,サクラダヒガシ 2,SAKURADAHIGASHI 2,,38.220821,140.32319
桜田東三丁目,サクラダヒガシ 3,SAKURADAHIGASHI 3,,38.217925,140.321652
桜田東四丁目,サクラダヒガシ 4,SAKURADAHIGASHI 4,,38.219046,140.325523
桜田南,サクラダミナミ,SAKURADAMINAMI,,38.215621,140.312947
桜町,サクラチョウ,SAKURACHO,,38.252826,140.331422
三社,サンシャ,SANSHA,,38.315593,140.303014
島,シマ,SHIMA,,38.287546,140.314883
嶋北一丁目,シマキタ 1,SHIMAKITA 1,,38.286195,140.322981
嶋北二丁目,シマキタ 2,SHIMAKITA 2,,38.28655,140.319665
嶋北三丁目,シマキタ 3,SHIMAKITA 3,,38.289987,140.321881
嶋北四丁目,シマキタ 4,SHIMAKITA 4,,38.287421,140.317808
嶋南一丁目,シマミナミ 1,SHIMAMINAMI 1,,38.280566,140.322586
嶋南二丁目,シマミナミ 2,SHIMAMINAMI 2,,38.280663,140.319607
嶋南三丁目,シマミナミ 3,SHIMAMINAMI 3,,38.281244,140.317083
嶋南四丁目,シマミナミ 4,SHIMAMINAMI 4,,38.281864,140.315077
下条町一丁目,シモジョウマチ 1,SHIMOJOMACHI 1,,38.263117,140.326888
下条町二丁目,シモジョウマチ 2,SHIMOJOMACHI 2,,38.262425,140.322957
下条町三丁目,シモジョウマチ 3,SHIMOJOMACHI 3,,38.267021,140.32272
下条町四丁目,シモジョウマチ 4,SHIMOJOMACHI 4,,38.266032,140.325989
下条町五丁目,シモジョウマチ 5,SHIMOJOMACHI 5,,38.269912,140.325916
下田,シモダ,SHIMODA,,38.324928,140.307694
下柳,シモヤナギ,SHIMOYANAGI,,38.291768,140.34957
城南町一丁目,ジョウナンマチ 1,JONAMMACHI 1,,38.250868,140.326111
城南町二丁目,ジョウナンマチ 2,JONAMMACHI 2,,38.252367,140.326661
城南町三丁目,ジョウナンマチ 3,JONAMMACHI 3,,38.251646,140.321894
城北町一丁目,ジョウホクマチ 1,JOHOKUMACHI 1,,38.258444,140.330236
城北町二丁目,ジョウホクマチ 2,JOHOKUMACHI 2,,38.259942,140.32953
白川,シラカワ,SHIRAKAWA,,38.316041,140.309655
城西町一丁目,シロニシマチ 1,SHIRONISHIMACHI 1,,38.255978,140.324077
城西町二丁目,シロニシマチ 2,SHIRONISHIMACHI 2,,38.255339,140.321802
城西町三丁目,シロニシマチ 3,SHIRONISHIMACHI 3,,38.256958,140.31801
城西町四丁目,シロニシマチ 4,SHIRONISHIMACHI 4,,38.25956,140.32112
城西町五丁目,シロニシマチ 5,SHIRONISHIMACHI 5,,38.260599,140.314076
城森,シロモリ,SHIROMORI,,38.241588,140.260748
新開一丁目,シンカイ 1,SHINKAI 1,,38.303116,140.360104
新開二丁目,シンカイ 2,SHINKAI 2,,38.305332,140.361643
新開三丁目,シンカイ 3,SHINKAI 3,,38.305766,140.358501
陣場一丁目,ジンバ 1,JIMBA 1,,38.277246,140.31053
陣場二丁目,ジンバ 2,JIMBA 2,,38.277256,140.305696
陣場三丁目,ジンバ 3,JIMBA 3,,38.278696,140.30242
陣場南,ジンバミナミ,JIMBAMINAMI,,38.275084,140.309003
末広町,スエヒロチョウ,SUEHIROCHO,,38.238822,140.323821
菅原,,,,38.271976,140.310365
すげさわの丘,スゲサワノオカ,SUGESAWANOKA,,38.223582,140.268615
鈴川町一丁目,スズカワマチ 1,SUZUKAWAMACHI 1,,38.263651,140.355497
鈴川町二丁目,スズカワマチ 2,SUZUKAWAMACHI 2,,38.267,140.35576
鈴川町三丁目,スズカワマチ 3,SUZUKAWAMACHI 3,,38.270301,140.357426
鈴川町四丁目,スズカワマチ 4,SUZUKAWAMACHI 4,,38.269985,140.360401
砂田,スナダ,SUNADA,,38.259733,140.291433
砂塚,スナヅカ,SUNAZUKA,,38.259898,140.307581
諏訪町一丁目,スワマチ 1,SUWAMACHI 1,,38.2452,140.339655
諏訪町二丁目,スワマチ 2,SUWAMACHI 2,,38.244006,140.339344
瀬波一丁目,セナミ 1,SENAMI 1,,38.280662,140.309167
瀬波二丁目,セナミ 2,SENAMI 2,,38.279933,140.306421
瀬波三丁目,セナミ 3,SENAMI 3,,38.28344,140.307125
千石,センゴク,SENGOKU,,38.293529,140.362716
双月新町,ソウツキシンチョウ,SOTSUKISHINCHO,,38.256309,140.362054
双月町,ソウツキマチ,SOTSUKIMACHI,,38.254023,140.364237
双月町一丁目,ソウツキマチ 1,SOTSUKIMACHI 1,,38.258885,140.35309
双月町二丁目,ソウツキマチ 2,SOTSUKIMACHI 2,,38.260993,140.353813
双月町三丁目,ソウツキマチ 3,SOTSUKIMACHI 3,,38.258162,140.356609
双月町四丁目,ソウツキマチ 4,SOTSUKIMACHI 4,,38.254958,140.354301
反町,ソリマチ,SORIMACHI,,38.246127,140.265796
大師堂,ダイシドウ,DAISHIDO,,38.218787,140.271733
大野目一丁目,ダイノメ 1,DAINOME 1,,38.274898,140.35873
大野目二丁目,ダイノメ 2,DAINOME 2,,38.278672,140.357475
大野目三丁目,ダイノメ 3,DAINOME 3,,38.281709,140.35886
大野目四丁目,ダイノメ 4,DAINOME 4,,38.28069,140.360293
大野目町,,,,38.286023,140.356814
高木,タカギ,TAKAGI,,38.23344,140.284776
高田,タカダ,TAKADA,,38.307174,140.320447
高堂,タカドウ,TAKADO,,38.240533,140.310357
高堂一丁目,タカドウ 1,TAKADO 1,,38.238647,140.310713
高堂二丁目,タカドウ 2,TAKADO 2,,38.239148,140.307474
高原町,タカハラマチ,TAKAHARAMACHI,,38.275453,140.372357
立谷川一丁目,タチヤガワ 1,TACHIYAGAWA 1,,38.312286,140.384144
立谷川二丁目,タチヤガワ 2,TACHIYAGAWA 2,,38.31315,140.379885
立谷川三丁目,タチヤガワ 3,TACHIYAGAWA 3,,38.313088,140.373478
伊達城一丁目,ダテジョウ 1,DATEJO 1,,38.309037,140.362094
伊達城二丁目,ダテジョウ 2,DATEJO 2,,38.308289,140.358577
伊達城三丁目,ダテジョウ 3,DATEJO 3,,38.310744,140.359352
立道,,,,38.274235,140.304233
田吹,,,,38.235034,140.277319
檀野前,ダンノマエ,DANNOMAE,,38.296439,140.32196
近田,チカダ,CHIKADA,,38.289227,140.36585
千歳一丁目,チトセ 1,CHITOSE 1,,38.279793,140.338724
千歳二丁目,チトセ 2,CHITOSE 2,,38.281198,140.341958
千代田,チヨダ,CHIYODA,,38.26216,140.300622
塚野目,,,,38.312481,140.3076
辻,,,,38.255765,140.270685
土屋倉,,,,38.267735,140.262429
鉄砲町一丁目,テッポウマチ 1,TEPPOMACHI 1,,38.238667,140.329544
鉄砲町二丁目,テッポウマチ 2,TEPPOMACHI 2,,38.237824,140.333554
鉄砲町三丁目,テッポウマチ 3,TEPPOMACHI 3,,38.2352,140.32909
寺西,テラニシ,TERANISHI,,38.296654,140.363929
天神台,テンジンダイ,TENJINDAI,,38.269348,140.290654
天神町,テンジンチョウ,TENJINCHO,,38.307593,140.326033
十日町一丁目,トウカマチ 1,TOKAMACHI 1,,38.247795,140.334797
十日町二丁目,トウカマチ 2,TOKAMACHI 2,,38.247022,140.337241
十日町三丁目,トウカマチ 3,TOKAMACHI 3,,38.243905,140.335497
十日町四丁目,トウカマチ 4,TOKAMACHI 4,,38.244364,140.333028
藤治屋敷,トウジヤシキ,TOJIYASHIKI,,38.306198,140.314314
塔の前,トウノマエ,TONOMAE,,38.284139,140.367794
銅町一丁目,ドウマチ 1,DOMACHI 1,,38.273645,140.338238
銅町二丁目,ドウマチ 2,DOMACHI 2,,38.272225,140.341686
銅谷口,ドウヤグチ,DOYAGUCHI,,38.295643,140.309365
富神台,トガミダイ,TOGAMIDAI,,38.239068,140.281054
富神前,トガミマエ,TOGAMIMAE,,38.236155,140.26229
富の中一丁目,トミノジュウ 1,TOMINOJU 1,,38.236896,140.303943
富の中二丁目,トミノジュウ 2,TOMINOJU 2,,38.234193,140.303896
富の中三丁目,トミノジュウ 3,TOMINOJU 3,,38.23395,140.307547
富の中四丁目,トミノジュウ 4,TOMINOJU 4,,38.23173,140.307093
百目鬼,ドメキ,DOMEKI,,38.225247,140.277876
豊風,,,,38.2971,140.373335
樋越,トヨゴシ,TOYOGOSHI,,38.287037,140.326371
豊原,,,,38.267788,140.308881
鳥居ケ丘,トリイガオカ,TORIIGAOKA,,38.229342,140.333037
中江,,,,38.27728,140.287326
長表,,,,38.294931,140.319843
中桜田一丁目,ナカサクラダ 1,NAKASAKURADA 1,,38.218685,140.33091
中桜田二丁目,ナカサクラダ 2,NAKASAKURADA 2,,38.217816,140.3352
中桜田三丁目,ナカサクラダ 3,NAKASAKURADA 3,,38.215095,140.334403
中田,,,,38.319983,140.311358
長苗代,ナガナワシロ,NAGANAWASHIRO,,38.245608,140.303507
中沼,ナカヌマ,NAKANUMA,,38.250723,140.296587
長町,ナガマチ,NAGAMACHI,,38.29233,140.332826
長町一丁目,ナガマチ 1,NAGAMACHI 1,,38.286857,140.338407
長町二丁目,ナガマチ 2,NAGAMACHI 2,,38.287869,140.340866
長町三丁目,ナガマチ 3,NAGAMACHI 3,,38.293016,140.340001
長町四丁目,ナガマチ 4,NAGAMACHI 4,,38.294079,140.337026
中道,,,,38.300622,140.323142
中屋敷,,,,38.238323,140.275768
七十刈,ナナジュウガリ,NANAJUGARI,,38.298104,140.321145
七日町一丁目,ナヌカマチ 1,NANUKAMACHI 1,,38.25309,140.337767
七日町二丁目,ナヌカマチ 2,NANUKAMACHI 2,,38.252397,140.340123
七日町三丁目,ナヌカマチ 3,NANUKAMACHI 3,,38.254591,140.341333
七日町四丁目,ナヌカマチ 4,NANUKAMACHI 4,,38.253138,140.344142
七日町五丁目,ナヌカマチ 5,NANUKAMACHI 5,,38.249966,140.342866
並柳,ナミヤナギ,NAMIYANAGI,,38.263395,140.257153
成沢西一丁目,ナリサワニシ 1,NARISAWANISHI 1,,38.211176,140.316023
成沢西二丁目,ナリサワニシ 2,NARISAWANISHI 2,,38.210668,140.312784
成沢西三丁目,ナリサワニシ 3,NARISAWANISHI 3,,38.207707,140.313623
成沢西四丁目,ナリサワニシ 4,NARISAWANISHI 4,,38.206465,140.317568
成沢西五丁目,ナリサワニシ 5,NARISAWANISHI 5,,38.208467,140.319462
南栄町一丁目,ナンエイチョウ 1,NANEICHO 1,,38.234411,140.321539
南栄町二丁目,ナンエイチョウ 2,NANEICHO 2,,38.231864,140.320662
南栄町三丁目,ナンエイチョウ 3,NANEICHO 3,,38.229378,140.320889
西江俣,ニシエマタ,NISHIEMATA,,38.276603,140.313216
錦町,ニシキチョウ,NISHIKICHO,,38.260132,140.334671
西越,ニシゴシ,NISHIGOSHI,,38.289771,140.362428
西崎,ニシザキ,NISHIZAKI,,38.262542,140.306992
西田一丁目,ニシタ 1,NISHITA 1,,38.263144,140.318889
西田二丁目,ニシタ 2,NISHITA 2,,38.264283,140.314331
西田三丁目,ニシタ 3,NISHITA 3,,38.266691,140.314828
西田四丁目,ニシタ 4,NISHITA 4,,38.267295,140.319185
西田五丁目,ニシタ 5,NISHITA 5,,38.269757,140.315423
西二位田,,,,38.223165,140.282901
西前明石,,,,38.225005,140.296761
西見田,ニシミダ,NISHIMIDA,,38.255298,140.28888
沼の辺町,ヌマノベマチ,NUMANOBEMACHI,,38.263763,140.363817
馬合,,,,38.309661,140.316803
白山一丁目,ハクサン 1,HAKUSAN 1,,38.227774,140.31824
白山二丁目,ハクサン 2,HAKUSAN 2,,38.224708,140.316864
白山三丁目,ハクサン 3,HAKUSAN 3,,38.226683,140.322056
羽黒堂,ハグロドウ,HAGURODO,,38.245908,140.297014
旅篭町一丁目,ハタゴマチ 1,HATAGOMACHI 1,,38.255632,140.336241
旅篭町二丁目,ハタゴマチ 2,HATAGOMACHI 2,,38.255437,140.339126
旅篭町三丁目,ハタゴマチ 3,HATAGOMACHI 3,,38.257205,140.340605
八幡前,ハチマンマエ,HACHIMAMMAE,,38.300659,140.312439
服部,,,,38.301347,140.316335
花岡,ハナオカ,HANAOKA,,38.293301,140.369463
花楯一丁目,ハナタテ 1,HANATATE 1,,38.270268,140.350918
花楯二丁目,ハナタテ 2,HANATATE 2,,38.274535,140.350716
浜崎,ハマザキ,HAMAZAKI,,38.284782,140.358936
東青田一丁目,ヒガシアオタ 1,HIGASHIAOTA 1,,38.225489,140.337489
東青田二丁目,ヒガシアオタ 2,HIGASHIAOTA 2,,38.224441,140.34039
東青田三丁目,ヒガシアオタ 3,HIGASHIAOTA 3,,38.221393,140.338458
東青田四丁目,ヒガシアオタ 4,HIGASHIAOTA 4,,38.222787,140.335307
東青田五丁目,ヒガシアオタ 5,HIGASHIAOTA 5,,38.220511,140.333991
東篭野町,ヒガシカゴノマチ,HIGASHIKAGONOMACHI,,38.298975,140.304798
東黒沢,,,,38.19141,140.305351
東志戸田,ヒガシシトダ,HIGASHISHITODA,,38.278483,140.293826
東二位田,ヒガシニイダ,HIGASHINIIDA,,38.220522,140.292067
東原町一丁目,ヒガシハラマチ 1,HIGASHIHARAMACHI 1,,38.248122,140.346242
東原町二丁目,ヒガシハラマチ 2,HIGASHIHARAMACHI 2,,38.245016,140.344632
東原町三丁目,ヒガシハラマチ 3,HIGASHIHARAMACHI 3,,38.242196,140.342836
東原町四丁目,ヒガシハラマチ 4,HIGASHIHARAMACHI 4,,38.242059,140.347059
東半郷,ヒガシハンゴウ,HIGASHIHANGO,,38.188761,140.322399
東古館,ヒガシフルダテ,HIGASHIFURUDATE,,38.265007,140.274993
東山形一丁目,ヒガシヤマガタ 1,HIGASHIYAMAGATA 1,,38.24204,140.372477
東山形二丁目,ヒガシヤマガタ 2,HIGASHIYAMAGATA 2,,38.240606,140.374206
桧町一丁目,ヒノキチョウ 1,HINOKICHO 1,,38.276341,140.336827
桧町二丁目,ヒノキチョウ 2,HINOKICHO 2,,38.276459,140.332768
桧町三丁目,ヒノキチョウ 3,HINOKICHO 3,,38.276566,140.329689
桧町四丁目,ヒノキチョウ 4,HINOKICHO 4,,38.276568,140.32613
平久保,ヒラクボ,HIRAKUBO,,38.286624,140.353463
平清水一丁目,ヒラシミズ 1,HIRASHIMIZU 1,,38.230946,140.346241
平清水二丁目,ヒラシミズ 2,HIRASHIMIZU 2,,38.228726,140.348718
深町一丁目,フカマチ 1,FUKAMACHI 1,,38.23516,140.317202
深町二丁目,フカマチ 2,FUKAMACHI 2,,38.233721,140.316876
深町三丁目,フカマチ 3,FUKAMACHI 3,,38.231449,140.316072
藤沢川,フジサワガワ,FUJISAWAGAWA,,38.26125,140.271044
舞台,,,,38.256647,140.260985
双葉町一丁目,フタバチョウ 1,FUTABACHO 1,,38.24822,140.325078
双葉町二丁目,フタバチョウ 2,FUTABACHO 2,,38.248655,140.32091
平田,ヘイダ,HEIDA,,38.270977,140.286145
防原町,ボウバラマチ,BOBARAMACHI,,38.23882,140.392181
穂積,ホヅミ,HOZUMI,,38.283533,140.364298
本町一丁目,ホンチョウ 1,HONCHO 1,,38.250543,140.336267
本町二丁目,ホンチョウ 2,HONCHO 2,,38.250209,140.339054
前田町,マエタマチ,MAETAMACHI,,38.237109,140.349709
松栄,マツエイ,MATSUEI,,38.240462,140.296239
松栄一丁目,マツエイ 1,MATSUEI 1,,38.237688,140.295268
松栄二丁目,マツエイ 2,MATSUEI 2,,38.238745,140.290209
松波一丁目,マツナミ 1,MATSUNAMI 1,,38.238436,140.358597
松波二丁目,マツナミ 2,MATSUNAMI 2,,38.240797,140.36111
松波三丁目,マツナミ 3,MATSUNAMI 3,,38.241805,140.36782
松波四丁目,マツナミ 4,MATSUNAMI 4,,38.238877,140.366789
松波五丁目,マツナミ 5,MATSUNAMI 5,,38.237434,140.369933
松見町,マツミチョウ,MATSUMICHO,,38.230653,140.339161
松山一丁目,マツヤマ 1,MATSUYAMA 1,,38.23411,140.346672
松山二丁目,マツヤマ 2,MATSUYAMA 2,,38.233467,140.350422
松山三丁目,マツヤマ 3,MATSUYAMA 3,,38.236728,140.353763
馬見ケ崎一丁目,マミガサキ 1,MAMIGASAKI 1,,38.281124,140.333973
馬見ケ崎二丁目,マミガサキ 2,MAMIGASAKI 2,,38.281238,140.329797
馬見ケ崎三丁目,マミガサキ 3,MAMIGASAKI 3,,38.281292,140.326218
馬見ケ崎四丁目,マミガサキ 4,MAMIGASAKI 4,,38.284555,140.327915
見崎川原,ミサキカワラ,MISAKIKAWARA,,38.30144,140.331541
三日町一丁目,ミッカマチ 1,MIKKAMACHI 1,,38.24128,140.3362
三日町二丁目,ミッカマチ 2,MIKKAMACHI 2,,38.242841,140.338597
緑町一丁目,ミドリチョウ 1,MIDORICHO 1,,38.257173,140.345599
緑町二丁目,ミドリチョウ 2,MIDORICHO 2,,38.256565,140.34994
緑町三丁目,ミドリチョウ 3,MIDORICHO 3,,38.251525,140.347481
緑町四丁目,ミドリチョウ 4,MIDORICHO 4,,38.253041,140.351693
南一番町,ミナミ1バンチョウ,MINAMI 1-BANCHO,,38.23301,140.327798
南二番町,ミナミ2バンチョウ,MINAMI 2-BANCHO,,38.229554,140.326186
南三番町,ミナミ3バンチョウ,MINAMI 3-BANCHO,,38.231505,140.324281
南四番町,ミナミ4バンチョウ,MINAMI 4-BANCHO,,38.234016,140.324737
南石関,ミナミイシゼキ,MINAMIISHIZEKI,,38.249911,140.304417
南志戸田,ミナミシトダ,MINAMISHITODA,,38.272257,140.29344
南反田,,,,38.269091,140.274369
南館一丁目,ミナミダテ 1,MINAMIDATE 1,,38.238184,140.315751
南館二丁目,ミナミダテ 2,MINAMIDATE 2,,38.238356,140.313671
南館三丁目,ミナミダテ 3,MINAMIDATE 3,,38.234041,140.312963
南館四丁目,ミナミダテ 4,MINAMIDATE 4,,38.234821,140.310774
南館五丁目,ミナミダテ 5,MINAMIDATE 5,,38.236523,140.307968
南館西,ミナミダテニシ,MINAMIDATENISHI,,38.237416,140.299291
南原町一丁目,ミナミハラマチ 1,MINAMIHARAMACHI 1,,38.238075,140.345611
南原町二丁目,ミナミハラマチ 2,MINAMIHARAMACHI 2,,38.235827,140.341694
南原町三丁目,ミナミハラマチ 3,MINAMIHARAMACHI 3,,38.232466,140.343099
南半郷,ミナミハンゴウ,MINAMIHANGO,,38.184794,140.31713
南松原一丁目,ミナミマツバラ 1,MINAMIMATSUBARA 1,,38.200128,140.308789
南松原二丁目,ミナミマツバラ 2,MINAMIMATSUBARA 2,,38.197651,140.307532
みのりが丘,ミノリガオカ,MINORIGAOKA,,38.248871,140.245471
美畑町,ミハタチョウ,MIHATACHO,,38.23654,140.323978
みはらしの丘一丁目,ミハラシノオカ 1,MIHARASHINOKA 1,,38.193731,140.29258
みはらしの丘二丁目,ミハラシノオカ 2,MIHARASHINOKA 2,,38.188963,140.293221
みはらしの丘三丁目,ミハラシノオカ 3,MIHARASHINOKA 3,,38.18787,140.286977
みはらしの丘四丁目,ミハラシノオカ 4,MIHARASHINOKA 4,,38.183262,140.289204
みはらしの丘五丁目,ミハラシノオカ 5,MIHARASHINOKA 5,,38.183928,140.292107
宮浦,ミヤウラ,MIYAURA,,38.258097,140.300481
宮町一丁目,ミヤマチ 1,MIYAMACHI 1,,38.264011,140.334833
宮町二丁目,ミヤマチ 2,MIYAMACHI 2,,38.267153,140.335164
宮町三丁目,ミヤマチ 3,MIYAMACHI 3,,38.270277,140.335966
宮町四丁目,ミヤマチ 4,MIYAMACHI 4,,38.267185,140.339854
宮町五丁目,ミヤマチ 5,MIYAMACHI 5,,38.262847,140.338703
明神前,ミョウジンマエ,MYOJIMMAE,,38.243705,140.291092
六日町,ムイカマチ,MUIKAMACHI,,38.258602,140.342109
元木一丁目,モトキ 1,MOTOKI 1,,38.226071,140.325352
元木二丁目,モトキ 2,MOTOKI 2,,38.223969,140.322905
元木三丁目,モトキ 3,MOTOKI 3,,38.223505,140.317166
本屋敷,,,,38.291736,140.318233
門前,,,,38.215659,140.269125
薬師町一丁目,ヤクシマチ 1,YAKUSHIMACHI 1,,38.262376,140.342347
薬師町二丁目,ヤクシマチ 2,YAKUSHIMACHI 2,,38.262702,140.346351
谷地前,ヤチマエ,YACHIMAE,,38.211689,140.268188
八ツ口,,,,38.294339,140.315315
柳田,,,,38.262619,140.284073
やよい一丁目,ヤヨイ 1,YAYOI 1,,38.253498,140.30816
やよい二丁目,ヤヨイ 2,YAYOI 2,,38.256167,140.309023
山家本町一丁目,ヤンベホンチョウ 1,YAMBEHONCHO 1,,38.264065,140.366165
山家本町二丁目,ヤンベホンチョウ 2,YAMBEHONCHO 2,,38.26554,140.365864
山家町一丁目,ヤンベマチ 1,YAMBEMACHI 1,,38.265055,140.358647
山家町二丁目,ヤンベマチ 2,YAMBEMACHI 2,,38.264442,140.360621
八日町一丁目,ヨウカマチ 1,YOKAMACHI 1,,38.243466,140.329711
八日町二丁目,ヨウカマチ 2,YOKAMACHI 2,,38.241588,140.329995
横井,ヨコイ,YOKOI,,38.28219,140.290232
横道,ヨコミチ,YOKOMICHI,,38.254512,140.296202
芳野,ヨシノ,YOSHINO,,38.280209,140.355381
吉原一丁目,ヨシハラ 1,YOSHIHARA 1,,38.229395,140.315313
吉原二丁目,ヨシハラ 2,YOSHIHARA 2,,38.229754,140.311213
吉原三丁目,ヨシハラ 3,YOSHIHARA 3,,38.230074,140.306605
吉原南,ヨシハラミナミ,YOSHIHARAMINAMI,,38.222699,140.311374
流通センター一丁目,リュウツウセンター 1,RYUTSUSENTA 1,,38.291565,140.352249
流通センター二丁目,リュウツウセンター 2,RYUTSUSENTA 2,,38.290939,140.355413
流通センター三丁目,リュウツウセンター 3,RYUTSUSENTA 3,,38.289392,140.3587
流通センター四丁目,リュウツウセンター 4,RYUTSUSENTA 4,,38.294472,140.359253
若葉町,ワカバチョウ,WAKABACHO,,38.240817,140.325261
若宮,ワカミヤ,WAKAMIYA,,38.229214,140.303711
若宮一丁目,ワカミヤ 1,WAKAMIYA 1,,38.227283,140.312212
若宮二丁目,ワカミヤ 2,WAKAMIYA 2,,38.225288,140.311582
若宮三丁目,ワカミヤ 3,WAKAMIYA 3,,38.226078,140.306365
若宮四丁目,ワカミヤ 4,WAKAMIYA 4,,38.227947,140.306691
和合町一丁目,ワゴウマチ 1,WAGOMACHI 1,,38.261787,140.358876
和合町二丁目,ワゴウマチ 2,WAGOMACHI 2,,38.259704,140.357956
和合町三丁目,ワゴウマチ 3,WAGOMACHI 3,,38.260146,140.361584
割田,,,,38.303767,140.323322
大字下反田,,,,38.273146,140.267424
くぬぎざわ西,クヌギザワニシ,KUNUGIZAWANISHI,,38.270523,140.278733
大字志戸田,,,,38.279319,140.280287
西原二丁目,ニシハラ 2,NISHIHARA 2,,38.266342,140.280834
西原一丁目,ニシハラ 1,NISHIHARA 1,,38.264487,140.281117
大字下椹沢,,,,38.267488,140.285208
飯塚町,イイヅカマチ,IIZUKAMACHI,,38.258058,140.281706
大字渋江,,,,38.319425,140.327704
大字漆山,,,,38.314587,140.343542
大字千手堂,,,,38.312016,140.3352
