name,name_kana,name_romaji,nickname,latitude,longitude
御前南五丁目,ゴゼンミナミ 5,GOZEMMINAMI 5,,37.384863,140.328639
御前南四丁目,ゴゼンミナミ 4,GOZEMMINAMI 4,,37.383386,140.328952
御前南三丁目,ゴゼンミナミ 3,GOZEMMINAMI 3,,37.381028,140.329662
御前南二丁目,ゴゼンミナミ 2,GOZEMMINAMI 2,,37.381483,140.333184
御前南一丁目,ゴゼンミナミ 1,GOZEMMINAMI 1,,37.384607,140.333866
南二丁目,ミナミ 2,MINAMI 2,,37.367407,140.371978
南一丁目,ミナミ 1,MINAMI 1,,37.372968,140.373299
田村町川曲,タムラマチカワマガリ,TAMURAMACHI KAWAMAGARI,,37.331662,140.498014
田村町栃本,タムラマチトチモト,TAMURAMACHI TOCHIMOTO,,37.29226,140.49593
田村町糠塚,タムラマチヌカヅカ,TAMURAMACHI NUKAZUKA,,37.297194,140.518569
田村町栃山神,タムラマチトチヤマカミ,TAMURAMACHI TOCHIYAMAKAMI,,37.321785,140.482553
三穂田町下守屋,ミホタマチシモモリヤ,MIHOTAMACHI SHIMOMORIYA,,37.354567,140.225219
湖南町三代,コナンマチミヨ,KONAMMACHI MIYO,,37.356517,140.115461
中田町中津川,ナカタマチナカツガワ,NAKATAMACHI NAKATSUGAWA,,37.345897,140.522136
中田町牛縊本郷,ナカタマチウシクビリホンゴウ,NAKATAMACHI USHIKUBIRIHONGO,,37.378324,140.496633
中田町下枝,ナカタマチシタエダ,NAKATAMACHI SHITAEDA,,37.352797,140.484544
田村町上道渡,タムラマチカミミチワタシ,TAMURAMACHI KAMIMICHIWATASHI,,37.330377,140.471037
田村町下道渡,タムラマチシモミチワタシ,TAMURAMACHI SHIMOMICHIWATASHI,,37.332523,140.452484
田村町金沢,タムラマチカネザワ,TAMURAMACHI KANEZAWA,,37.340808,140.441401
田村町東山二丁目,タムラマチヒガシヤマ 2,TAMURAMACHI HIGASHIYAMA 2,,37.339353,140.420919
田村町東山一丁目,タムラマチヒガシヤマ 1,TAMURAMACHI HIGASHIYAMA 1,,37.338921,140.417099
田村町山中,タムラマチサンチュウ,TAMURAMACHI SANCHU,,37.336165,140.396716
田村町守山,タムラマチモリヤマ,TAMURAMACHI MORIYAMA,,37.327226,140.402652
田村町正直,タムラマチショウジキ,TAMURAMACHI SHOJIKI,,37.338725,140.389906
田村町御代田,タムラマチミヨダ,TAMURAMACHI MIYODA,,37.338421,140.381528
富田町,トミタマチ,TOMITAMACHI,,37.414993,140.345014
長者一丁目,チョウジャ 1,CHOJA 1,,37.398158,140.368247
長者二丁目,チョウジャ 2,CHOJA 2,,37.401842,140.370125
桃見台,モモミダイ,MOMOMIDAI,,37.404332,140.370182
西ノ内一丁目,ニシノウチ 1,NISHINOCHI 1,,37.406774,140.371339
麓山二丁目,ハヤマ 2,HAYAMA 2,,37.395209,140.369985
池ノ台,イケノダイ,IKENODAI,,37.391687,140.374447
深沢二丁目,フカザワ 2,FUKAZAWA 2,,37.389546,140.369704
深沢一丁目,フカザワ 1,FUKAZAWA 1,,37.388981,140.372537
七ッ池町,,,,37.384178,140.371628
香久池一丁目,カグイケ 1,KAGUIKE 1,,37.380716,140.372127
富久山町久保田,フクヤママチクボタ,FUKUYAMAMACHI KUBOTA,,37.411007,140.389378
字川向,,,,37.372444,140.371541
字名倉,,,,37.374815,140.368364
字城清水,,,,37.375943,140.372336
字山崎,,,,37.3801,140.362504
香久池二丁目,カグイケ 2,KAGUIKE 2,,37.378597,140.371476
安積町荒井,アサカマチアライ,ASAKAMACHI ARAI,,37.371718,140.358696
笹川三丁目,ササガワ 3,SASAGAWA 3,,37.355191,140.36994
笹川二丁目,ササガワ 2,SASAGAWA 2,,37.358586,140.372002
笹川一丁目,ササガワ 1,SASAGAWA 1,,37.362346,140.373233
田村町徳定,タムラマチトクサダ,TAMURAMACHI TOKUSADA,,37.357091,140.379819
三穂田町鍋山,ミホタマチナベヤマ,MIHOTAMACHI NABEYAMA,,37.344831,140.288691
三穂田町富岡,ミホタマチトミオカ,MIHOTAMACHI TOMIOKA,,37.35394,140.257724
桜木一丁目,サクラギ 1,SAKURAGI 1,,37.408711,140.373936
桜木二丁目,サクラギ 2,SAKURAGI 2,,37.410512,140.369768
逢瀬町河内,オウセマチコウズ,OSEMACHI KOZU,,37.42612,140.260524
湖南町中野,コナンマチナカノ,KONAMMACHI NAKANO,,37.365719,140.158635
三穂田町山口,ミホタマチヤマグチ,MIHOTAMACHI YAMAGUCHI,,37.371884,140.26294
逢瀬町多田野,オウセマチタダノ,OSEMACHI TADANO,,37.407439,140.228682
湖南町赤津,コナンマチアカツ,KONAMMACHI AKATSU,,37.379595,140.062395
湖南町福良,コナンマチフクラ,KONAMMACHI FUKURA,,37.385002,140.092873
湖南町舟津,コナンマチフナツ,KONAMMACHI FUNATSU,,37.404057,140.117756
舞木町,モウギマチ,MOGIMACHI,,37.417371,140.432196
富久山町南小泉,フクヤママチミナミコイズミ,FUKUYAMAMACHI MINAMIKOIZUMI,,37.41837,140.419466
富久山町福原,フクヤママチフクハラ,FUKUYAMAMACHI FUKUHARA,,37.424265,140.401271
片平町,カタヒラマチ,KATAHIRAMACHI,,37.423555,140.310206
町東三丁目,マチヒガシ 3,MACHIHIGASHI 3,,37.4209,140.347879
新屋敷二丁目,アラヤシキ 2,ARAYASHIKI 2,,37.418703,140.354524
町東一丁目,マチヒガシ 1,MACHIHIGASHI 1,,37.420398,140.351958
不動前一丁目,フドウマエ 1,FUDOMAE 1,,37.420146,140.357763
名郷田二丁目,ナゴウダ 2,NAGODA 2,,37.418793,140.36026
八山田二丁目,ヤツヤマダ 2,YATSUYAMADA 2,,37.426773,140.37452
中ノ目一丁目,ナカノメ 1,NAKANOME 1,,37.420764,140.33374
富久山町八山田,フクヤママチヤツヤマダ,FUKUYAMAMACHI YATSUYAMADA,,37.434042,140.36791
八山田三丁目,ヤツヤマダ 3,YATSUYAMADA 3,,37.430651,140.373862
日和田町,ヒワダマチ,HIWADAMACHI,,37.447575,140.386446
喜久田町割田二丁目, 2, 2,,37.469205,140.36906
熱海町高玉,アタミマチタカタマ,ATAMIMACHI TAKATAMA,,37.507567,140.272169
湖南町浜路,コナンマチハマジ,KONAMMACHI HAMAJI,,37.43892,140.169196
熱海町安子島,アタミマチアコガシマ,ATAMIMACHI AKOGASHIMA,,37.478293,140.23368
熱海町中山,アタミマチナカヤマ,ATAMIMACHI NAKAYAMA,,37.514724,140.203338
湖南町横沢,コナンマチヨコサワ,KONAMMACHI YOKOSAWA,,37.419586,140.153824
湖南町舘,コナンマチタテ,KONAMMACHI TATE,,37.40542,140.14394
熱海町玉川,アタミマチタマガワ,ATAMIMACHI TAMAGAWA,,37.498722,140.311959
熱海町石筵,アタミマチイシムシロ,ATAMIMACHI ISHIMUSHIRO,,37.570606,140.260121
田村町田母神,タムラマチタモガミ,TAMURAMACHI TAMOGAMI,,37.300334,140.540641
田村町谷田川,タムラマチヤタガワ,TAMURAMACHI YATAGAWA,,37.311855,140.450385
田村町細田,タムラマチホソダ,TAMURAMACHI HOSODA,,37.325411,140.441288
田村町大供,タムラマチオオトモ,TAMURAMACHI OTOMO,,37.324651,140.426774
田村町岩作,タムラマチガンザク,TAMURAMACHI GANZAKU,,37.321161,140.413552
中田町柳橋,ナカタマチヤナギハシ,NAKATAMACHI YANAGIHASHI,,37.364313,140.536467
中田町駒板,ナカタマチコマイタ,NAKATAMACHI KOMAITA,,37.385833,140.522649
中田町木目沢,ナカタマチコノメザワ,NAKATAMACHI KONOMEZAWA,,37.376092,140.519499
中田町黒木,ナカタマチクロキ,NAKATAMACHI KUROKI,,37.381039,140.505804
昭和二丁目,ショウワ 2,SHOWA 2,,37.385828,140.392068
昭和一丁目,ショウワ 1,SHOWA 1,,37.386344,140.388515
山根町,ヤマネマチ,YAMANEMACHI,,37.384156,140.375485
小原田一丁目,コハラダ 1,KOHARADA 1,,37.384229,140.38203
愛宕町,アタゴマチ,ATAGOMACHI,,37.388513,140.375839
栄町,サカエマチ,SAKAEMACHI,,37.388307,140.37974
菱田町,ヒシダマチ,HISHIDAMACHI,,37.386828,140.38467
松木町,マツキチョウ,MATSUKICHO,,37.390003,140.389803
本町二丁目,モトマチ 2,MOTOMACHI 2,,37.388951,140.382938
本町一丁目,モトマチ 1,MOTOMACHI 1,,37.392617,140.384304
堤下町,ツツミシタマチ,TSUTSUMISHITAMACHI,,37.3916,140.379608
堂前町,ドウマエマチ,DOMAEMACHI,,37.394998,140.379647
清水台一丁目,シミズダイ 1,SHIMIZUDAI 1,,37.39792,140.381377
中町,ナカマチ,NAKAMACHI,,37.396385,140.38353
駅前一丁目,エキマエ 1,EKIMAE 1,,37.396061,140.386156
麓山一丁目,ハヤマ 1,HAYAMA 1,,37.39501,140.374559
細沼町,ホソヌママチ,HOSONUMAMACHI,,37.397317,140.375996
駅前二丁目,エキマエ 2,EKIMAE 2,,37.399532,140.387201
字燧田,,,,37.395915,140.388308
字東宿,,,,37.403994,140.390366
大町一丁目,オオマチ 1,OMACHI 1,,37.400208,140.385251
清水台二丁目,シミズダイ 2,SHIMIZUDAI 2,,37.400153,140.38211
大町二丁目,オオマチ 2,OMACHI 2,,37.4041,140.386739
赤木町,アカギマチ,AKAGIMACHI,,37.403275,140.382422
咲田二丁目,サクタ 2,SAKUTA 2,,37.403987,140.37891
咲田一丁目,サクタ 1,SAKUTA 1,,37.404746,140.37534
神明町,シンメイチョウ,SHIMMEICHO,,37.401507,140.376012
虎丸町,トラマルマチ,TORAMARUMACHI,,37.399255,140.37576
緑ケ丘東八丁目,ミドリガオカヒガシ 8,MIDORIGAOKAHIGASHI 8,,37.390461,140.432596
田村町小川,タムラマチコガワ,TAMURAMACHI KOGAWA,,37.350659,140.425823
田村町手代木,タムラマチテシロギ,TAMURAMACHI TESHIROGI,,37.361402,140.421009
田村町桜ケ丘二丁目,タムラマチサクラガオカ 2,TAMURAMACHI SAKURAGAOKA 2,,37.357392,140.406292
田村町桜ケ丘一丁目,タムラマチサクラガオカ 1,TAMURAMACHI SAKURAGAOKA 1,,37.359543,140.404317
田村町大善寺,タムラマチダイゼンジ,TAMURAMACHI DAIZENJI,,37.351343,140.401424
安積町日出山,アサカマチヒデノヤマ,ASAKAMACHI HIDENOYAMA,,37.365868,140.38297
中田町海老根,ナカタマチエビネ,NAKATAMACHI EBINE,,37.361103,140.470402
緑ケ丘東五丁目,ミドリガオカヒガシ 5,MIDORIGAOKAHIGASHI 5,,37.381723,140.441256
緑ケ丘東四丁目,ミドリガオカヒガシ 4,MIDORIGAOKAHIGASHI 4,,37.381469,140.437941
中田町高倉,ナカタマチタカクラ,NAKATAMACHI TAKAKURA,,37.367391,140.439956
緑ケ丘東一丁目,ミドリガオカヒガシ 1,MIDORIGAOKAHIGASHI 1,,37.376271,140.434422
緑ケ丘東二丁目,ミドリガオカヒガシ 2,MIDORIGAOKAHIGASHI 2,,37.37848,140.436305
緑ケ丘東三丁目,ミドリガオカヒガシ 3,MIDORIGAOKAHIGASHI 3,,37.381771,140.435495
緑ケ丘西二丁目,ミドリガオカニシ 2,MIDORIGAOKANISHI 2,,37.37997,140.433144
緑ケ丘西三丁目,ミドリガオカニシ 3,MIDORIGAOKANISHI 3,,37.381858,140.432915
緑ケ丘東六丁目,ミドリガオカヒガシ 6,MIDORIGAOKAHIGASHI 6,,37.384719,140.438293
緑ケ丘西一丁目,ミドリガオカニシ 1,MIDORIGAOKANISHI 1,,37.377553,140.430966
中田町赤沼,ナカタマチアカヌマ,NAKATAMACHI AKANUMA,,37.372637,140.4232
田村町上行合,タムラマチカミユキアイ,TAMURAMACHI KAMIYUKIAI,,37.366052,140.40712
田村町下行合,タムラマチシモユキアイ,TAMURAMACHI SHIMOYUKIAI,,37.377149,140.410017
字船場向,,,,37.378999,140.402538
字外河原,,,,37.376859,140.400423
字十貫河原,,,,37.381959,140.40351
字大河原,,,,37.374305,140.401298
字道場,,,,37.38283,140.398396
字古川,,,,37.383771,140.394782
字石塚,,,,37.37892,140.395379
字八作内,,,,37.37688,140.386673
田村町金屋,タムラマチカナヤ,TAMURAMACHI KANAYA,,37.366325,140.392993
安積町日出山四丁目,アサカマチヒデノヤマ 4,ASAKAMACHI HIDENOYAMA 4,,37.369342,140.381595
安積町日出山三丁目,アサカマチヒデノヤマ 3,ASAKAMACHI HIDENOYAMA 3,,37.36871,140.378022
安積町日出山二丁目,アサカマチヒデノヤマ 2,ASAKAMACHI HIDENOYAMA 2,,37.373801,140.383843
字八木橋,,,,37.37712,140.384581
安積町日出山一丁目,アサカマチヒデノヤマ 1,ASAKAMACHI HIDENOYAMA 1,,37.374471,140.380776
小原田二丁目,コハラダ 2,KOHARADA 2,,37.382399,140.388181
小原田三丁目,コハラダ 3,KOHARADA 3,,37.379225,140.386778
字深田台,,,,37.373868,140.376841
小原田五丁目,コハラダ 5,KOHARADA 5,,37.377324,140.380436
小原田四丁目,コハラダ 4,KOHARADA 4,,37.380202,140.380848
図景一丁目,ズケイ 1,ZUKEI 1,,37.383877,140.378443
図景二丁目,ズケイ 2,ZUKEI 2,,37.37851,140.376492
中田町上石,ナカタマチアゲイシ,NAKATAMACHI AGEISHI,,37.381444,140.475152
荒井町,アライマチ,ARAIMACHI,,37.387382,140.444256
緑ケ丘西四丁目,ミドリガオカニシ 4,MIDORIGAOKANISHI 4,,37.38839,140.432817
緑ケ丘東七丁目,ミドリガオカヒガシ 7,MIDORIGAOKAHIGASHI 7,,37.38864,140.437875
蒲倉町,カバクラマチ,KABAKURAMACHI,,37.394024,140.434426
大平町,オオダイラマチ,ODAIRAMACHI,,37.38399,140.422427
あぶくま台二丁目,アブクマダイ 2,ABUKUMADAI 2,,37.396555,140.422452
あぶくま台一丁目,アブクマダイ 1,ABUKUMADAI 1,,37.398237,140.417184
字上野山,,,,37.388083,140.408372
水門町,スイモンマチ,SUIMOMMACHI,,37.385224,140.404436
石渕町,イシブチマチ,ISHIBUCHIMACHI,,37.388761,140.402544
横川町,ヨコカワマチ,YOKOKAWAMACHI,,37.390183,140.417073
字下舘野,,,,37.395232,140.407392
字佐野良,,,,37.396371,140.409487
横塚六丁目,ヨコヅカ 6,YOKOZUKA 6,,37.391465,140.404127
横塚五丁目,ヨコヅカ 5,YOKOZUKA 5,,37.393562,140.406202
字古屋敷,,,,37.396149,140.403691
字北畑,,,,37.39715,140.404034
方八町一丁目,ホウハッチョウ 1,HOHATCHO 1,,37.392018,140.389848
芳賀三丁目,ハガ 3,HAGA 3,,37.388037,140.39731
芳賀二丁目,ハガ 2,HAGA 2,,37.39011,140.397635
方八町二丁目,ホウハッチョウ 2,HOHATCHO 2,,37.392993,140.392873
芳賀一丁目,ハガ 1,HAGA 1,,37.392538,140.397689
横塚一丁目,ヨコヅカ 1,YOKOZUKA 1,,37.395336,140.398875
谷島町,ヤシママチ,YASHIMAMACHI,,37.397602,140.392966
横塚二丁目,ヨコヅカ 2,YOKOZUKA 2,,37.398873,140.402118
白岩町,シライワマチ,SHIRAIWAMACHI,,37.404915,140.440563
下白岩町,シモシライワマチ,SHIMOSHIRAIWAMACHI,,37.402582,140.427486
安原町,ヤスハラマチ,YASUHARAMACHI,,37.39916,140.411956
阿久津町,アクツマチ,AKUTSUMACHI,,37.40702,140.418091
向河原町,ムカイガワラマチ,MUKAIGAWARAMACHI,,37.40261,140.393205
横塚三丁目,ヨコヅカ 3,YOKOZUKA 3,,37.402308,140.401804
若葉町,ワカバマチ,WAKABAMACHI,,37.406742,140.380278
町東二丁目,マチヒガシ 2,MACHIHIGASHI 2,,37.417784,140.348112
新屋敷一丁目,アラヤシキ 1,ARAYASHIKI 1,,37.417824,140.357439
備前舘二丁目,ビゼンダテ 2,BIZENDATE 2,,37.416748,140.360714
名郷田一丁目,ナゴウダ 1,NAGODA 1,,37.416498,140.3651
長者三丁目,チョウジャ 3,CHOJA 3,,37.401166,140.366396
緑町,ミドリマチ,MIDORIMACHI,,37.402763,140.364225
朝日一丁目,アサヒ 1,ASAHI 1,,37.401549,140.360736
朝日二丁目,アサヒ 2,ASAHI 2,,37.404337,140.36003
朝日三丁目,アサヒ 3,ASAHI 3,,37.406672,140.359435
鶴見坦二丁目,ツルミダン 2,TSURUMIDAN 2,,37.391467,140.364924
鶴見坦三丁目,ツルミダン 3,TSURUMIDAN 3,,37.391604,140.359699
豊田町,トヨタマチ,TOYOTAMACHI,,37.397568,140.366191
鶴見坦一丁目,ツルミダン 1,TSURUMIDAN 1,,37.394522,140.365187
字五百渕西,,,,37.384962,140.356292
字台東,,,,37.383752,140.358701
字五百渕山,,,,37.384151,140.357807
菜根四丁目,サイコン 4,SAIKON 4,,37.383622,140.364336
菜根一丁目,サイコン 1,SAIKON 1,,37.388778,140.364474
菜根二丁目,サイコン 2,SAIKON 2,,37.388347,140.359657
字菜根屋敷,,,,37.384062,140.359585
菜根五丁目,サイコン 5,SAIKON 5,,37.384433,140.361348
開成四丁目,カイセイ 4,KAISEI 4,,37.389255,140.356352
字桑野清水台,,,,37.385227,140.357083
開成二丁目,カイセイ 2,KAISEI 2,,37.394924,140.358513
開成一丁目,カイセイ 1,KAISEI 1,,37.397814,140.358581
開成三丁目,カイセイ 3,KAISEI 3,,37.39547,140.352535
桑野一丁目,クワノ 1,KUWANO 1,,37.400148,140.35541
桑野二丁目,クワノ 2,KUWANO 2,,37.403396,140.354537
桑野三丁目,クワノ 3,KUWANO 3,,37.406016,140.353811
安積町大森町,アサカマチオオモリチョウ,ASAKAMACHI OMORICHO,,37.344165,140.344928
安積町吉田二丁目,アサカマチヨシタ 2,ASAKAMACHI YOSHITA 2,,37.346698,140.343198
安積町牛庭三丁目,アサカマチウシニワ 3,ASAKAMACHI USHINIWA 3,,37.344725,140.336476
安積町牛庭一丁目,アサカマチウシニワ 1,ASAKAMACHI USHINIWA 1,,37.349146,140.33538
安積町牛庭四丁目,アサカマチウシニワ 4,ASAKAMACHI USHINIWA 4,,37.343802,140.329221
安積町牛庭五丁目,アサカマチウシニワ 5,ASAKAMACHI USHINIWA 5,,37.346827,140.32546
安積町牛庭六丁目,アサカマチウシニワ 6,ASAKAMACHI USHINIWA 6,,37.342926,140.320506
安積町牛庭,アサカマチウシニワ,ASAKAMACHI USHINIWA,,37.347013,140.316381
三穂田町野田,ミホタマチノダ,MIHOTAMACHI NODA,,37.345506,140.303978
安積四丁目,アサカ 4,ASAKA 4,,37.352891,140.364022
安積三丁目,アサカ 3,ASAKA 3,,37.356325,140.365399
安積二丁目,アサカ 2,ASAKA 2,,37.360711,140.366975
安積一丁目,アサカ 1,ASAKA 1,,37.363623,140.368245
安積町長久保五丁目,アサカマチナガクボ 5,ASAKAMACHI NAGAKUBO 5,,37.353308,140.359565
安積町南長久保二丁目,アサカマチミナミナガクボ 2,ASAKAMACHI MINAMINAGAKUBO 2,,37.353226,140.356537
安積町南長久保一丁目,アサカマチミナミナガクボ 1,ASAKAMACHI MINAMINAGAKUBO 1,,37.35637,140.355569
安積町長久保三丁目,アサカマチナガクボ 3,ASAKAMACHI NAGAKUBO 3,,37.356734,140.36028
安積町長久保四丁目,アサカマチナガクボ 4,ASAKAMACHI NAGAKUBO 4,,37.358526,140.356627
安積町長久保一丁目,アサカマチナガクボ 1,ASAKAMACHI NAGAKUBO 1,,37.361615,140.361273
安積町長久保二丁目,アサカマチナガクボ 2,ASAKAMACHI NAGAKUBO 2,,37.36045,140.356667
成山町,ナリヤママチ,NARIYAMAMACHI,,37.364662,140.36146
安積町牛庭二丁目,アサカマチウシニワ 2,ASAKAMACHI USHINIWA 2,,37.350148,140.329153
安積町成田一丁目,アサカマチナリタ 1,ASAKAMACHI NARITA 1,,37.363401,140.329342
三穂田町川田四丁目,ミホタマチカワタ 4,MIHOTAMACHI KAWATA 4,,37.356825,140.319076
三穂田町川田三丁目,ミホタマチカワタ 3,MIHOTAMACHI KAWATA 3,,37.359665,140.326696
三穂田町川田,ミホタマチカワタ,MIHOTAMACHI KAWATA,,37.354652,140.318234
三穂田町駒屋三丁目,ミホタマチコマヤ 3,MIHOTAMACHI KOMAYA 3,,37.362183,140.305162
三穂田町川田二丁目,ミホタマチカワタ 2,MIHOTAMACHI KAWATA 2,,37.365465,140.323277
三穂田町川田一丁目,ミホタマチカワタ 1,MIHOTAMACHI KAWATA 1,,37.36474,140.309087
三穂田町駒屋二丁目,ミホタマチコマヤ 2,MIHOTAMACHI KOMAYA 2,,37.366802,140.299146
三穂田町八幡,ミホタマチヤハタ,MIHOTAMACHI YAHATA,,37.361684,140.289968
字賀庄,,,,37.371613,140.368108
菜根三丁目,サイコン 3,SAIKON 3,,37.382842,140.36734
久留米一丁目,クルメ 1,KURUME 1,,37.376386,140.362908
久留米二丁目,クルメ 2,KURUME 2,,37.378062,140.359152
久留米三丁目,クルメ 3,KURUME 3,,37.37744,140.354998
久留米五丁目,クルメ 5,KURUME 5,,37.376814,140.350889
久留米四丁目,クルメ 4,KURUME 4,,37.380316,140.352852
久留米六丁目,クルメ 6,KURUME 6,,37.378906,140.34695
安積町成田,アサカマチナリタ,ASAKAMACHI NARITA,,37.360369,140.3402
三穂田町駒屋一丁目,ミホタマチコマヤ 1,MIHOTAMACHI KOMAYA 1,,37.3672,140.30352
三穂田町駒屋,ミホタマチコマヤ,MIHOTAMACHI KOMAYA,,37.36129,140.300664
三穂田町大谷,ミホタマチオオヤ,MIHOTAMACHI OYA,,37.373675,140.287215
開成六丁目,カイセイ 6,KAISEI 6,,37.38782,140.351511
開成五丁目,カイセイ 5,KAISEI 5,,37.390179,140.35187
台新二丁目,ダイシン 2,DAISHIN 2,,37.389391,140.344831
台新一丁目,ダイシン 1,DAISHIN 1,,37.393652,140.345112
鳴神二丁目,ナルガミ 2,NARUGAMI 2,,37.393421,140.338577
島二丁目,シマ 2,SHIMA 2,,37.396607,140.34612
島一丁目,シマ 1,SHIMA 1,,37.399665,140.347051
亀田一丁目,カメダ 1,KAMEDA 1,,37.402451,140.347008
鳴神一丁目,ナルガミ 1,NARUGAMI 1,,37.396925,140.339503
中野一丁目,ナカノ 1,NAKANO 1,,37.39282,140.332378
堤二丁目,ツツミ 2,TSUTSUMI 2,,37.397356,140.335866
堤一丁目,ツツミ 1,TSUTSUMI 1,,37.399453,140.337991
柏山町,カシワヤママチ,KASHIWAYAMAMACHI,,37.400963,140.339569
堤三丁目,ツツミ 3,TSUTSUMI 3,,37.396953,140.33228
土瓜二丁目,ツチウリ 2,TSUCHIURI 2,,37.40161,140.330308
土瓜一丁目,ツチウリ 1,TSUCHIURI 1,,37.400856,140.332045
西ノ内二丁目,ニシノウチ 2,NISHINOCHI 2,,37.406403,140.365076
並木一丁目,ナミキ 1,NAMIKI 1,,37.409843,140.363497
備前舘一丁目,ビゼンダテ 1,BIZENDATE 1,,37.415515,140.364311
並木二丁目,ナミキ 2,NAMIKI 2,,37.413083,140.364856
並木三丁目,ナミキ 3,NAMIKI 3,,37.408753,140.358956
並木四丁目,ナミキ 4,NAMIKI 4,,37.41068,140.358721
並木五丁目,ナミキ 5,NAMIKI 5,,37.413364,140.359023
字原中,,,,37.411452,140.351777
桑野四丁目,クワノ 4,KUWANO 4,,37.408028,140.353489
桑野五丁目,クワノ 5,KUWANO 5,,37.410859,140.354301
亀田二丁目,カメダ 2,KAMEDA 2,,37.405946,140.346699
字亀田西,,,,37.40352,140.342372
字下亀田,,,,37.409586,140.349058
希望ヶ丘,,,,37.409406,140.340675
字上亀田,,,,37.409288,140.344905
うねめ町,ウネメマチ,UNEMEMACHI,,37.413006,140.335671
湖南町馬入新田,コナンマチバニュウシンデン,KONAMMACHI BANYUSHINDEN,,37.363363,140.082573
富久山町北小泉,フクヤママチキタコイズミ,FUKUYAMAMACHI KITAKOIZUMI,,37.426451,140.418996
八山田七丁目,ヤツヤマダ 7,YATSUYAMADA 7,,37.421589,140.383243
八山田一丁目,ヤツヤマダ 1,YATSUYAMADA 1,,37.424115,140.37492
八山田六丁目,ヤツヤマダ 6,YATSUYAMADA 6,,37.424638,140.380253
八山田五丁目,ヤツヤマダ 5,YATSUYAMADA 5,,37.427673,140.380279
八山田四丁目,ヤツヤマダ 4,YATSUYAMADA 4,,37.430645,140.379265
西田町木村,ニシタマチキムラ,NISHITAMACHI KIMURA,,37.443383,140.445444
西田町芹沢,ニシタマチセリサワ,NISHITAMACHI SERISAWA,,37.440803,140.429278
富久山町堂坂,フクヤママチドウザカ,FUKUYAMAMACHI DOZAKA,,37.431714,140.422737
西田町根木屋,ニシタマチネギヤ,NISHITAMACHI NEGIYA,,37.431953,140.438726
西田町大田,ニシタマチオオタ,NISHITAMACHI OTA,,37.441693,140.461645
西田町高柴,ニシタマチタカシバ,NISHITAMACHI TAKASHIBA,,37.459122,140.464105
日和田町八丁目,ヒワダマチ 8,HIWADAMACHI 8,,37.443857,140.414415
日和田町梅沢,ヒワダマチウメザワ,HIWADAMACHI UMEZAWA,,37.460091,140.409404
西田町板橋,ニシタマチイタハシ,NISHITAMACHI ITAHASHI,,37.467329,140.459387
西田町土棚,ニシタマチツチダナ,NISHITAMACHI TSUCHIDANA,,37.471285,140.450277
西田町阿広木一丁目,ニシタマチアコウギ 1,NISHITAMACHI AKOGI 1,,37.471521,140.424468
西田町大網一丁目,ニシタマチオオアミ 1,NISHITAMACHI OAMI 1,,37.468585,140.416824
西田町丹伊田,ニシタマチニイタ,NISHITAMACHI NIITA,,37.476778,140.470721
喜久田町卸三丁目,キクタマチオロシ 3,KIKUTAMACHI OROSHI 3,,37.441181,140.345354
喜久田町卸二丁目,キクタマチオロシ 2,KIKUTAMACHI OROSHI 2,,37.437543,140.342601
喜久田町卸一丁目,キクタマチオロシ 1,KIKUTAMACHI OROSHI 1,,37.442553,140.33998
喜久田町,キクタマチ,KIKUTAMACHI,,37.4341,140.341948
待池台二丁目,マチイケダイ 2,MACHIIKEDAI 2,,37.449658,140.310171
待池台一丁目,マチイケダイ 1,MACHIIKEDAI 1,,37.444529,140.306807
喜久田町赤坂一丁目,キクタマチアカサカ 1,KIKUTAMACHI AKASAKA 1,,37.462013,140.362042
喜久田町赤坂二丁目,キクタマチアカサカ 2,KIKUTAMACHI AKASAKA 2,,37.46615,140.363077
喜久田町坪沢四丁目,キクタマチツボサワ 4,KIKUTAMACHI TSUBOSAWA 4,,37.464303,140.35789
喜久田町前田沢二丁目,キクタマチマエタザワ 2,KIKUTAMACHI MAETAZAWA 2,,37.46668,140.35896
喜久田町早稲原,キクタマチワセハラ,KIKUTAMACHI WASEHARA,,37.450731,140.357093
喜久田町坪沢三丁目,キクタマチツボサワ 3,KIKUTAMACHI TSUBOSAWA 3,,37.461428,140.355591
喜久田町坪沢二丁目,キクタマチツボサワ 2,KIKUTAMACHI TSUBOSAWA 2,,37.46404,140.352083
喜久田町原二丁目,キクタマチハラ 2,KIKUTAMACHI HARA 2,,37.465785,140.351832
喜久田町坪沢一丁目,キクタマチツボサワ 1,KIKUTAMACHI TSUBOSAWA 1,,37.462951,140.347047
熱海町下伊豆島,アタミマチシモイズシマ,ATAMIMACHI SHIMOIZUSHIMA,,37.451523,140.321276
熱海町上伊豆島,アタミマチカミイズシマ,ATAMIMACHI KAMIIZUSHIMA,,37.459571,140.293889
逢瀬町夏出,オウセマチナツイデ,OSEMACHI NATSUIDE,,37.449283,140.271873
熱海町長橋,アタミマチナガハシ,ATAMIMACHI NAGAHASHI,,37.456678,140.277686
喜久田町割田一丁目, 1, 1,,37.469961,140.364413
喜久田町前田沢一丁目,キクタマチマエタザワ 1,KIKUTAMACHI MAETAZAWA 1,,37.469487,140.357862
喜久田町原三丁目,キクタマチハラ 3,KIKUTAMACHI HARA 3,,37.468602,140.352216
喜久田町原一丁目,キクタマチハラ 1,KIKUTAMACHI HARA 1,,37.467362,140.347776
喜久田町前田沢,キクタマチマエタザワ,KIKUTAMACHI MAETAZAWA,,37.471461,140.34328
喜久田町堀之内,キクタマチホリノウチ,KIKUTAMACHI HORINOCHI,,37.457487,140.336373
熱海町熱海二丁目,アタミマチアタミ 2,ATAMIMACHI ATAMI 2,,37.480369,140.274466
熱海町熱海一丁目,アタミマチアタミ 1,ATAMIMACHI ATAMI 1,,37.482354,140.273503
熱海町熱海三丁目,アタミマチアタミ 3,ATAMIMACHI ATAMI 3,,37.479624,140.271843
熱海町熱海四丁目,アタミマチアタミ 4,ATAMIMACHI ATAMI 4,,37.48328,140.26682
熱海町熱海六丁目,アタミマチアタミ 6,ATAMIMACHI ATAMI 6,,37.486949,140.274556
熱海町熱海五丁目,アタミマチアタミ 5,ATAMIMACHI ATAMI 5,,37.489117,140.260135
字榧ノ木,,,,37.387134,140.396806
字桑野北町,,,,37.407311,140.349974
字大名艮,,,,37.403862,140.38949
字小関谷地,,,,37.408057,140.348558
鳴神三丁目,ナルガミ 3,NARUGAMI 3,,37.393772,140.335168
静町,シズカマチ,SHIZUKAMACHI,,37.388726,140.337047
谷地本町,ヤヂホンチョウ,YAJIHONCHO,,37.388196,140.332497
中野二丁目,ナカノ 2,NAKANO 2,,37.389908,140.330803
静西一丁目,シズカニシ 1,SHIZUKANISHI 1,,37.38784,140.330187
大槻町,オオツキマチ,OTSUKIMACHI,,37.388058,140.308032
静西二丁目,シズカニシ 2,SHIZUKANISHI 2,,37.388923,140.327016
日和田町高倉,ヒワダマチタカクラ,HIWADAMACHI TAKAKURA,,37.47364,140.394095
西田町大網三丁目,ニシタマチオオアミ 3,NISHITAMACHI OAMI 3,,37.475497,140.418406
西田町大網二丁目,ニシタマチオオアミ 2,NISHITAMACHI OAMI 2,,37.474079,140.414381
西田町鬼生田,ニシタマチオニウタ,NISHITAMACHI ONIUTA,,37.471043,140.435019
西田町三町目,ニシタマチサンチョウメ,NISHITAMACHI SANCHOME,,37.452639,140.441902
安積町笹川,アサカマチササガワ,ASAKAMACHI SASAGAWA,,37.34793,140.360523
御前南六丁目,ゴゼンミナミ 6,GOZEMMINAMI 6,,37.386112,140.328724
安積荒井本町,アサカアライモトマチ,ASAKAARAIMOTOMACHI,,37.366131,140.368158
巳六段,ミロクダン,MIROKUDAN,,37.371622,140.352052
安積荒井一丁目,アサカアライ 1,ASAKAARAI 1,,37.369441,140.354146
安積荒井二丁目,アサカアライ 2,ASAKAARAI 2,,37.368235,140.360141
安積荒井三丁目,アサカアライ 3,ASAKAARAI 3,,37.369785,140.360598
安積北井一丁目,アサカキタイ 1,ASAKAKITAI 1,,37.370904,140.355675
安積北井二丁目,アサカキタイ 2,ASAKAKITAI 2,,37.372665,140.363307
富田東一丁目,トミタヒガシ 1,TOMITAHIGASHI 1,,37.419231,140.364972
富田東二丁目,トミタヒガシ 2,TOMITAHIGASHI 2,,37.422715,140.36491
富田東三丁目,トミタヒガシ 3,TOMITAHIGASHI 3,,37.425426,140.365829
富田東四丁目,トミタヒガシ 4,TOMITAHIGASHI 4,,37.423916,140.368619
富田東五丁目,トミタヒガシ 5,TOMITAHIGASHI 5,,37.42279,140.372547
富田東六丁目,トミタヒガシ 6,TOMITAHIGASHI 6,,37.421539,140.37554
八山田西五丁目,ヤツヤマダニシ 5,YATSUYAMADANISHI 5,,37.427041,140.370393
上伊豆島一丁目,カミイズシマ 1,KAMIIZUSHIMA 1,,37.46131,140.300903
八山田西二丁目,ヤツヤマダニシ 2,YATSUYAMADANISHI 2,,37.429892,140.359712
八山田西四丁目,ヤツヤマダニシ 4,YATSUYAMADANISHI 4,,37.429747,140.368989
八山田西三丁目,ヤツヤマダニシ 3,YATSUYAMADANISHI 3,,37.428126,140.365435
八山田西一丁目,ヤツヤマダニシ 1,YATSUYAMADANISHI 1,,37.427706,140.359849
三穂田町下守屋,ミホタマチシモモリヤ,MIHOTAMACHI SHIMOMORIYA,壇ノ越山,37.34177,140.243243
三穂田町下守屋,ミホタマチシモモリヤ,MIHOTAMACHI SHIMOMORIYA,舘ノ前,37.340768,140.249395
三穂田町下守屋,ミホタマチシモモリヤ,MIHOTAMACHI SHIMOMORIYA,上豊舘,37.338461,140.25003
逢瀬町多田野,オウセマチタダノ,OSEMACHI TADANO,弘法橋,37.397536,140.255723
三穂田町下守屋,ミホタマチシモモリヤ,MIHOTAMACHI SHIMOMORIYA,竹ノ内,37.338227,140.251573
熱海町高玉,アタミマチタカタマ,ATAMIMACHI TAKATAMA,二渡,37.49431,140.253697
三穂田町下守屋,ミホタマチシモモリヤ,MIHOTAMACHI SHIMOMORIYA,下豊舘,37.340309,140.252047
三穂田町下守屋,ミホタマチシモモリヤ,MIHOTAMACHI SHIMOMORIYA,牛田,37.340082,140.252687
三穂田町下守屋,ミホタマチシモモリヤ,MIHOTAMACHI SHIMOMORIYA,道木,37.341114,140.254887
三穂田町山口,ミホタマチヤマグチ,MIHOTAMACHI YAMAGUCHI,上塩ノ原,37.3609,140.257652
三穂田町富岡,ミホタマチトミオカ,MIHOTAMACHI TOMIOKA,西原,37.346568,140.258815
逢瀬町多田野,オウセマチタダノ,OSEMACHI TADANO,念仏坦,37.397484,140.257991
逢瀬町多田野,オウセマチタダノ,OSEMACHI TADANO,上台林,37.405368,140.258938
三穂田町富岡,ミホタマチトミオカ,MIHOTAMACHI TOMIOKA,大沢原,37.358739,140.257178
三穂田町富岡,ミホタマチトミオカ,MIHOTAMACHI TOMIOKA,風札,37.350831,140.258178
逢瀬町多田野,オウセマチタダノ,OSEMACHI TADANO,十石俵,37.399217,140.255576
三穂田町山口,ミホタマチヤマグチ,MIHOTAMACHI YAMAGUCHI,南林,37.371933,140.259561
三穂田町富岡,ミホタマチトミオカ,MIHOTAMACHI TOMIOKA,堰ノ上,37.345006,140.263519
三穂田町富岡,ミホタマチトミオカ,MIHOTAMACHI TOMIOKA,築舘,37.349253,140.259794
三穂田町富岡,ミホタマチトミオカ,MIHOTAMACHI TOMIOKA,阿弥陀,37.35316,140.259316
三穂田町山口,ミホタマチヤマグチ,MIHOTAMACHI YAMAGUCHI,下塩原,37.361164,140.260239
三穂田町山口,ミホタマチヤマグチ,MIHOTAMACHI YAMAGUCHI,芦ノ口,37.375998,140.26269
三穂田町山口,ミホタマチヤマグチ,MIHOTAMACHI YAMAGUCHI,深田,37.382753,140.260355
三穂田町富岡,ミホタマチトミオカ,MIHOTAMACHI TOMIOKA,小林,37.351117,140.260699
三穂田町山口,ミホタマチヤマグチ,MIHOTAMACHI YAMAGUCHI,塩ノ入,37.373669,140.25986
逢瀬町河内,オウセマチコウズ,OSEMACHI KOZU,耕所,37.416793,140.261127
三穂田町山口,ミホタマチヤマグチ,MIHOTAMACHI YAMAGUCHI,塩原前山,37.359146,140.26139
三穂田町山口,ミホタマチヤマグチ,MIHOTAMACHI YAMAGUCHI,平林,37.367176,140.264824
三穂田町富岡,ミホタマチトミオカ,MIHOTAMACHI TOMIOKA,藤沼,37.356341,140.261387
三穂田町山口,ミホタマチヤマグチ,MIHOTAMACHI YAMAGUCHI,荒池,37.36809,140.260555
三穂田町山口,ミホタマチヤマグチ,MIHOTAMACHI YAMAGUCHI,団子森,37.38386,140.261727
三穂田町山口,ミホタマチヤマグチ,MIHOTAMACHI YAMAGUCHI,池上,37.364221,140.264985
逢瀬町多田野,オウセマチタダノ,OSEMACHI TADANO,下台,37.406377,140.262908
三穂田町山口,ミホタマチヤマグチ,MIHOTAMACHI YAMAGUCHI,山神前,37.367889,140.262569
三穂田町富岡,ミホタマチトミオカ,MIHOTAMACHI TOMIOKA,山寺,37.346432,140.262533
三穂田町山口,ミホタマチヤマグチ,MIHOTAMACHI YAMAGUCHI,堀込,37.380353,140.261456
三穂田町山口,ミホタマチヤマグチ,MIHOTAMACHI YAMAGUCHI,前芦ノ口,37.374922,140.263567
三穂田町山口,ミホタマチヤマグチ,MIHOTAMACHI YAMAGUCHI,上川底,37.358059,140.263553
逢瀬町多田野,オウセマチタダノ,OSEMACHI TADANO,西赤穂木,37.40451,140.264201
逢瀬町多田野,オウセマチタダノ,OSEMACHI TADANO,上町屋,37.399382,140.264369
三穂田町山口,ミホタマチヤマグチ,MIHOTAMACHI YAMAGUCHI,川底原,37.35895,140.267119
三穂田町山口,ミホタマチヤマグチ,MIHOTAMACHI YAMAGUCHI,坂下,37.381031,140.263414
熱海町高玉,アタミマチタカタマ,ATAMIMACHI TAKATAMA,樋口,37.490977,140.276884
三穂田町富岡,ミホタマチトミオカ,MIHOTAMACHI TOMIOKA,南森,37.351082,140.263243
逢瀬町多田野,オウセマチタダノ,OSEMACHI TADANO,馬捨場,37.404592,140.26896
三穂田町富岡,ミホタマチトミオカ,MIHOTAMACHI TOMIOKA,田楽内,37.347275,140.266764
逢瀬町多田野,オウセマチタダノ,OSEMACHI TADANO,南原,37.393164,140.269744
三穂田町富岡,ミホタマチトミオカ,MIHOTAMACHI TOMIOKA,首尾内,37.346269,140.26681
逢瀬町河内,オウセマチコウズ,OSEMACHI KOZU,篭原,37.426151,140.267824
熱海町安子島,アタミマチアコガシマ,ATAMIMACHI AKOGASHIMA,大峯,37.48188,140.267052
三穂田町山口,ミホタマチヤマグチ,MIHOTAMACHI YAMAGUCHI,大森,37.365479,140.269642
三穂田町山口,ミホタマチヤマグチ,MIHOTAMACHI YAMAGUCHI,愛宕原,37.361942,140.267215
三穂田町富岡,ミホタマチトミオカ,MIHOTAMACHI TOMIOKA,柿ノ口,37.347155,140.270965
逢瀬町河内,オウセマチコウズ,OSEMACHI KOZU,猫神,37.417189,140.268578
逢瀬町河内,オウセマチコウズ,OSEMACHI KOZU,馬場川原,37.418388,140.268348
逢瀬町多田野,オウセマチタダノ,OSEMACHI TADANO,下町屋,37.397061,140.267604
三穂田町富岡,ミホタマチトミオカ,MIHOTAMACHI TOMIOKA,佐矢田,37.353943,140.267654
三穂田町富岡,ミホタマチトミオカ,MIHOTAMACHI TOMIOKA,右エ門五郎内,37.354834,140.267984
逢瀬町多田野,オウセマチタダノ,OSEMACHI TADANO,寺向,37.395919,140.26909
三穂田町富岡,ミホタマチトミオカ,MIHOTAMACHI TOMIOKA,鯨,37.349655,140.268896
三穂田町山口,ミホタマチヤマグチ,MIHOTAMACHI YAMAGUCHI,河原田,37.372321,140.269006
逢瀬町多田野,オウセマチタダノ,OSEMACHI TADANO,本郷,37.398928,140.269677
三穂田町富岡,ミホタマチトミオカ,MIHOTAMACHI TOMIOKA,腰巻,37.34517,140.269386
逢瀬町河内,オウセマチコウズ,OSEMACHI KOZU,屋敷,37.418483,140.27105
三穂田町富岡,ミホタマチトミオカ,MIHOTAMACHI TOMIOKA,三本木原,37.342656,140.271868
三穂田町富岡,ミホタマチトミオカ,MIHOTAMACHI TOMIOKA,寺西,37.347581,140.269495
逢瀬町多田野,オウセマチタダノ,OSEMACHI TADANO,宮南,37.395269,140.271801
逢瀬町多田野,オウセマチタダノ,OSEMACHI TADANO,北田,37.401004,140.270714
三穂田町富岡,ミホタマチトミオカ,MIHOTAMACHI TOMIOKA,吉室内,37.344419,140.270285
三穂田町富岡,ミホタマチトミオカ,MIHOTAMACHI TOMIOKA,春日,37.355033,140.271124
三穂田町山口,ミホタマチヤマグチ,MIHOTAMACHI YAMAGUCHI,清水,37.372788,140.272135
逢瀬町多田野,オウセマチタダノ,OSEMACHI TADANO,長倉山,37.406724,140.271765
逢瀬町河内,オウセマチコウズ,OSEMACHI KOZU,西荒井,37.419809,140.272206
逢瀬町多田野,オウセマチタダノ,OSEMACHI TADANO,元日,37.404167,140.272221
逢瀬町多田野,オウセマチタダノ,OSEMACHI TADANO,久保田,37.396934,140.272407
三穂田町富岡,ミホタマチトミオカ,MIHOTAMACHI TOMIOKA,一本杉,37.351115,140.273173
三穂田町山口,ミホタマチヤマグチ,MIHOTAMACHI YAMAGUCHI,前川原,37.369443,140.272811
逢瀬町多田野,オウセマチタダノ,OSEMACHI TADANO,浄土松道,37.391225,140.274811
三穂田町富岡,ミホタマチトミオカ,MIHOTAMACHI TOMIOKA,下茂内,37.352359,140.273289
熱海町高玉,アタミマチタカタマ,ATAMIMACHI TAKATAMA,北石田,37.503032,140.274048
三穂田町山口,ミホタマチヤマグチ,MIHOTAMACHI YAMAGUCHI,宝地内,37.368744,140.275084
三穂田町山口,ミホタマチヤマグチ,MIHOTAMACHI YAMAGUCHI,舘,37.371934,140.274021
逢瀬町河内,オウセマチコウズ,OSEMACHI KOZU,申久保,37.407192,140.27783
三穂田町富岡,ミホタマチトミオカ,MIHOTAMACHI TOMIOKA,光西寺,37.353069,140.274583
三穂田町富岡,ミホタマチトミオカ,MIHOTAMACHI TOMIOKA,台田,37.348036,140.274001
逢瀬町多田野,オウセマチタダノ,OSEMACHI TADANO,北大界,37.396033,140.27545
逢瀬町河内,オウセマチコウズ,OSEMACHI KOZU,町東,37.417769,140.274125
逢瀬町河内,オウセマチコウズ,OSEMACHI KOZU,寺東,37.41982,140.273141
三穂田町富岡,ミホタマチトミオカ,MIHOTAMACHI TOMIOKA,本郷,37.350266,140.274056
熱海町長橋,アタミマチナガハシ,ATAMIMACHI NAGAHASHI,後庵向,37.45375,140.274491
三穂田町山口,ミホタマチヤマグチ,MIHOTAMACHI YAMAGUCHI,前田,37.369135,140.276579
三穂田町富岡,ミホタマチトミオカ,MIHOTAMACHI TOMIOKA,上臍川,37.355812,140.275699
三穂田町山口,ミホタマチヤマグチ,MIHOTAMACHI YAMAGUCHI,中田,37.371786,140.275719
三穂田町鍋山,ミホタマチナベヤマ,MIHOTAMACHI NABEYAMA,上十方,37.340905,140.275915
逢瀬町夏出,オウセマチナツイデ,OSEMACHI NATSUIDE,舘下,37.450707,140.275811
逢瀬町河内,オウセマチコウズ,OSEMACHI KOZU,中山,37.426619,140.28043
熱海町高玉,アタミマチタカタマ,ATAMIMACHI TAKATAMA,南石田,37.501581,140.275621
逢瀬町夏出,オウセマチナツイデ,OSEMACHI NATSUIDE,上家,37.452183,140.276163
三穂田町富岡,ミホタマチトミオカ,MIHOTAMACHI TOMIOKA,台東,37.350271,140.276125
熱海町高玉,アタミマチタカタマ,ATAMIMACHI TAKATAMA,西田仲,37.502962,140.275921
三穂田町富岡,ミホタマチトミオカ,MIHOTAMACHI TOMIOKA,頓学,37.347915,140.276316
逢瀬町河内,オウセマチコウズ,OSEMACHI KOZU,中谷地,37.417535,140.277911
逢瀬町夏出,オウセマチナツイデ,OSEMACHI NATSUIDE,苗代,37.451485,140.277135
逢瀬町多田野,オウセマチタダノ,OSEMACHI TADANO,清水池,37.391776,140.278046
熱海町玉川,アタミマチタマガワ,ATAMIMACHI TAMAGAWA,反田,37.482188,140.277416
逢瀬町多田野,オウセマチタダノ,OSEMACHI TADANO,大界,37.39311,140.282159
三穂田町富岡,ミホタマチトミオカ,MIHOTAMACHI TOMIOKA,台畑,37.353013,140.277168
三穂田町富岡,ミホタマチトミオカ,MIHOTAMACHI TOMIOKA,田宿下,37.349877,140.277085
三穂田町富岡,ミホタマチトミオカ,MIHOTAMACHI TOMIOKA,北坊ノ坦,37.355468,140.281446
熱海町高玉,アタミマチタカタマ,ATAMIMACHI TAKATAMA,麻生沢,37.490771,140.278488
熱海町長橋,アタミマチナガハシ,ATAMIMACHI NAGAHASHI,車屋,37.452397,140.281254
三穂田町山口,ミホタマチヤマグチ,MIHOTAMACHI YAMAGUCHI,糯田,37.36476,140.278939
熱海町玉川,アタミマチタマガワ,ATAMIMACHI TAMAGAWA,阿曾沢,37.484395,140.28224
逢瀬町多田野,オウセマチタダノ,OSEMACHI TADANO,北山岸,37.404858,140.28119
熱海町玉川,アタミマチタマガワ,ATAMIMACHI TAMAGAWA,対面原,37.482318,140.279613
逢瀬町多田野,オウセマチタダノ,OSEMACHI TADANO,河田堀,37.392118,140.284158
熱海町高玉,アタミマチタカタマ,ATAMIMACHI TAKATAMA,北仲田,37.497489,140.280062
逢瀬町多田野,オウセマチタダノ,OSEMACHI TADANO,段ノ腰,37.398651,140.282972
三穂田町山口,ミホタマチヤマグチ,MIHOTAMACHI YAMAGUCHI,篠搏,37.363559,140.281808
三穂田町鍋山,ミホタマチナベヤマ,MIHOTAMACHI NABEYAMA,前原,37.339079,140.281097
熱海町安子島,アタミマチアコガシマ,ATAMIMACHI AKOGASHIMA,荻袋,37.477627,140.28174
三穂田町山口,ミホタマチヤマグチ,MIHOTAMACHI YAMAGUCHI,膳部,37.365649,140.281388
三穂田町鍋山,ミホタマチナベヤマ,MIHOTAMACHI NABEYAMA,鳥居戸屋敷,37.348041,140.28267
逢瀬町河内,オウセマチコウズ,OSEMACHI KOZU,下笊内,37.414866,140.283906
三穂田町山口,ミホタマチヤマグチ,MIHOTAMACHI YAMAGUCHI,早稲田,37.364088,140.282264
熱海町長橋,アタミマチナガハシ,ATAMIMACHI NAGAHASHI,植松,37.452364,140.284367
逢瀬町多田野,オウセマチタダノ,OSEMACHI TADANO,萱林,37.40222,140.289868
熱海町高玉,アタミマチタカタマ,ATAMIMACHI TAKATAMA,南仲田,37.495911,140.28354
熱海町高玉,アタミマチタカタマ,ATAMIMACHI TAKATAMA,田代,37.500337,140.282751
三穂田町山口,ミホタマチヤマグチ,MIHOTAMACHI YAMAGUCHI,常光,37.367115,140.283061
三穂田町八幡,ミホタマチヤハタ,MIHOTAMACHI YAHATA,篠搏,37.361761,140.285648
三穂田町大谷,ミホタマチオオヤ,MIHOTAMACHI OYA,西向,37.368968,140.284702
逢瀬町河内,オウセマチコウズ,OSEMACHI KOZU,藤内打,37.410648,140.280236
逢瀬町多田野,オウセマチタダノ,OSEMACHI TADANO,白石,37.389521,140.282457
逢瀬町河内,オウセマチコウズ,OSEMACHI KOZU,笊内,37.421117,140.278714
三穂田町大谷,ミホタマチオオヤ,MIHOTAMACHI OYA,北向,37.379931,140.287138
逢瀬町多田野,オウセマチタダノ,OSEMACHI TADANO,平山,37.385863,140.286257
熱海町安子島,アタミマチアコガシマ,ATAMIMACHI AKOGASHIMA,大沢,37.476193,140.287101
三穂田町鍋山,ミホタマチナベヤマ,MIHOTAMACHI NABEYAMA,上屋敷,37.348296,140.284807
逢瀬町河内,オウセマチコウズ,OSEMACHI KOZU,蔵田,37.411637,140.285296
片平町,カタヒラマチ,KATAHIRAMACHI,中池,37.419263,140.286493
逢瀬町多田野,オウセマチタダノ,OSEMACHI TADANO,木置場,37.389072,140.284468
逢瀬町多田野,オウセマチタダノ,OSEMACHI TADANO,道上,37.390633,140.285282
逢瀬町多田野,オウセマチタダノ,OSEMACHI TADANO,釜場,37.389196,140.28525
三穂田町八幡,ミホタマチヤハタ,MIHOTAMACHI YAHATA,前畑,37.35768,140.286349
熱海町玉川,アタミマチタマガワ,ATAMIMACHI TAMAGAWA,久保田,37.481514,140.285814
三穂田町八幡,ミホタマチヤハタ,MIHOTAMACHI YAHATA,北山,37.363914,140.287291
三穂田町鍋山,ミホタマチナベヤマ,MIHOTAMACHI NABEYAMA,清水尻,37.3478,140.286211
熱海町長橋,アタミマチナガハシ,ATAMIMACHI NAGAHASHI,元前田,37.459589,140.286785
三穂田町鍋山,ミホタマチナベヤマ,MIHOTAMACHI NABEYAMA,六角,37.344297,140.286947
熱海町長橋,アタミマチナガハシ,ATAMIMACHI NAGAHASHI,舘,37.450913,140.2864
三穂田町八幡,ミホタマチヤハタ,MIHOTAMACHI YAHATA,台田,37.362624,140.287179
逢瀬町多田野,オウセマチタダノ,OSEMACHI TADANO,十文字,37.392086,140.288938
三穂田町鍋山,ミホタマチナベヤマ,MIHOTAMACHI NABEYAMA,鍜治屋敷,37.345898,140.288467
三穂田町富岡,ミホタマチトミオカ,MIHOTAMACHI TOMIOKA,鹿ノ崎,37.35665,140.287132
三穂田町鍋山,ミホタマチナベヤマ,MIHOTAMACHI NABEYAMA,三斗蒔,37.348669,140.288764
三穂田町鍋山,ミホタマチナベヤマ,MIHOTAMACHI NABEYAMA,仲田屋敷,37.346896,140.289938
三穂田町八幡,ミホタマチヤハタ,MIHOTAMACHI YAHATA,西屋敷,37.358282,140.288228
三穂田町大谷,ミホタマチオオヤ,MIHOTAMACHI OYA,東向,37.369017,140.290236
三穂田町大谷,ミホタマチオオヤ,MIHOTAMACHI OYA,大谷前田,37.372879,140.287639
逢瀬町河内,オウセマチコウズ,OSEMACHI KOZU,下白坪,37.412889,140.288514
熱海町長橋,アタミマチナガハシ,ATAMIMACHI NAGAHASHI,竹ノ下,37.451997,140.287937
熱海町長橋,アタミマチナガハシ,ATAMIMACHI NAGAHASHI,反田,37.452818,140.288704
逢瀬町多田野,オウセマチタダノ,OSEMACHI TADANO,柳河原,37.388455,140.289066
逢瀬町多田野,オウセマチタダノ,OSEMACHI TADANO,戸ノ内,37.396921,140.288759
熱海町長橋,アタミマチナガハシ,ATAMIMACHI NAGAHASHI,舘山,37.449699,140.288082
三穂田町大谷,ミホタマチオオヤ,MIHOTAMACHI OYA,西前田,37.375148,140.288268
逢瀬町河内,オウセマチコウズ,OSEMACHI KOZU,樋下,37.414879,140.292969
熱海町長橋,アタミマチナガハシ,ATAMIMACHI NAGAHASHI,東原,37.451481,140.288835
三穂田町鍋山,ミホタマチナベヤマ,MIHOTAMACHI NABEYAMA,行人原,37.343218,140.290531
逢瀬町多田野,オウセマチタダノ,OSEMACHI TADANO,砂原林,37.395258,140.289984
片平町,カタヒラマチ,KATAHIRAMACHI,北,37.421542,140.288436
三穂田町大谷,ミホタマチオオヤ,MIHOTAMACHI OYA,旱田,37.373816,140.289344
熱海町長橋,アタミマチナガハシ,ATAMIMACHI NAGAHASHI,南浦,37.448325,140.290374
三穂田町八幡,ミホタマチヤハタ,MIHOTAMACHI YAHATA,東屋敷,37.358443,140.290801
三穂田町鍋山,ミホタマチナベヤマ,MIHOTAMACHI NABEYAMA,向原,37.343932,140.288985
三穂田町八幡,ミホタマチヤハタ,MIHOTAMACHI YAHATA,粧坂,37.364391,140.292429
三穂田町大谷,ミホタマチオオヤ,MIHOTAMACHI OYA,三墓,37.376914,140.290696
三穂田町八幡,ミホタマチヤハタ,MIHOTAMACHI YAHATA,後町,37.359864,140.28963
熱海町高玉,アタミマチタカタマ,ATAMIMACHI TAKATAMA,太田,37.490484,140.290636
三穂田町駒屋,ミホタマチコマヤ,MIHOTAMACHI KOMAYA,柳田,37.357697,140.297323
三穂田町大谷,ミホタマチオオヤ,MIHOTAMACHI OYA,東前田,37.375523,140.289651
大槻町,オオツキマチ,OTSUKIMACHI,松井西林,37.388752,140.292836
逢瀬町多田野,オウセマチタダノ,OSEMACHI TADANO,石橋山,37.398889,140.291899
三穂田町鍋山,ミホタマチナベヤマ,MIHOTAMACHI NABEYAMA,四十坦,37.352526,140.290625
熱海町上伊豆島,アタミマチカミイズシマ,ATAMIMACHI KAMIIZUSHIMA,小倉,37.466205,140.291093
逢瀬町多田野,オウセマチタダノ,OSEMACHI TADANO,川前,37.387343,140.290353
逢瀬町河内,オウセマチコウズ,OSEMACHI KOZU,鳥越,37.416175,140.286461
逢瀬町多田野,オウセマチタダノ,OSEMACHI TADANO,堺山,37.401718,140.291739
逢瀬町河内,オウセマチコウズ,OSEMACHI KOZU,久保,37.417075,140.291178
逢瀬町河内,オウセマチコウズ,OSEMACHI KOZU,熊越,37.443761,140.291779
逢瀬町河内,オウセマチコウズ,OSEMACHI KOZU,原,37.4126,140.291049
逢瀬町河内,オウセマチコウズ,OSEMACHI KOZU,原前舘,37.409933,140.293453
逢瀬町河内,オウセマチコウズ,OSEMACHI KOZU,新小屋,37.416047,140.292044
熱海町長橋,アタミマチナガハシ,ATAMIMACHI NAGAHASHI,光明段,37.451754,140.294502
三穂田町大谷,ミホタマチオオヤ,MIHOTAMACHI OYA,三辻,37.374592,140.292783
逢瀬町河内,オウセマチコウズ,OSEMACHI KOZU,上納豆内,37.404138,140.293311
片平町,カタヒラマチ,KATAHIRAMACHI,相の山,37.419984,140.29481
熱海町玉川,アタミマチタマガワ,ATAMIMACHI TAMAGAWA,鳴神,37.487181,140.292407
三穂田町鍋山,ミホタマチナベヤマ,MIHOTAMACHI NABEYAMA,仲田山,37.349254,140.292943
熱海町高玉,アタミマチタカタマ,ATAMIMACHI TAKATAMA,地福平,37.493001,140.297793
片平町,カタヒラマチ,KATAHIRAMACHI,西蛇光,37.425546,140.294418
熱海町安子島,アタミマチアコガシマ,ATAMIMACHI AKOGASHIMA,山ノ下,37.475899,140.298621
三穂田町大谷,ミホタマチオオヤ,MIHOTAMACHI OYA,中北ノ原,37.379798,140.294199
逢瀬町河内,オウセマチコウズ,OSEMACHI KOZU,石橋,37.402049,140.296242
逢瀬町河内,オウセマチコウズ,OSEMACHI KOZU,平内,37.410125,140.294848
大槻町,オオツキマチ,OTSUKIMACHI,向山西,37.383446,140.294447
三穂田町大谷,ミホタマチオオヤ,MIHOTAMACHI OYA,二ツ坦,37.367246,140.29688
熱海町玉川,アタミマチタマガワ,ATAMIMACHI TAMAGAWA,中島,37.484345,140.295612
熱海町高玉,アタミマチタカタマ,ATAMIMACHI TAKATAMA,地福,37.494185,140.295876
三穂田町大谷,ミホタマチオオヤ,MIHOTAMACHI OYA,万蔵塚,37.376213,140.295391
大槻町,オオツキマチ,OTSUKIMACHI,山王西,37.374768,140.295729
熱海町安子島,アタミマチアコガシマ,ATAMIMACHI AKOGASHIMA,北吉野,37.471606,140.291392
熱海町玉川,アタミマチタマガワ,ATAMIMACHI TAMAGAWA,舘山,37.48214,140.295831
三穂田町鍋山,ミホタマチナベヤマ,MIHOTAMACHI NABEYAMA,四十坦原,37.35147,140.290693
大槻町,オオツキマチ,OTSUKIMACHI,横山,37.397555,140.296488
大槻町,オオツキマチ,OTSUKIMACHI,稲荷山,37.38071,140.295731
三穂田町駒屋,ミホタマチコマヤ,MIHOTAMACHI KOMAYA,谷地ノ台,37.37054,140.297465
大槻町,オオツキマチ,OTSUKIMACHI,的場,37.387113,140.296275
大槻町,オオツキマチ,OTSUKIMACHI,大橋向山,37.379332,140.301042
熱海町安子島,アタミマチアコガシマ,ATAMIMACHI AKOGASHIMA,高森,37.471105,140.302791
大槻町,オオツキマチ,OTSUKIMACHI,大橋,37.386079,140.296007
大槻町,オオツキマチ,OTSUKIMACHI,松井,37.388134,140.296899
大槻町,オオツキマチ,OTSUKIMACHI,新屋敷,37.386157,140.296887
熱海町玉川,アタミマチタマガワ,ATAMIMACHI TAMAGAWA,菖蒲根,37.487844,140.29761
三穂田町駒屋,ミホタマチコマヤ,MIHOTAMACHI KOMAYA,上池下,37.365805,140.298466
大槻町,オオツキマチ,OTSUKIMACHI,谷地台,37.372563,140.298662
片平町,カタヒラマチ,KATAHIRAMACHI,漆房,37.417787,140.300914
大槻町,オオツキマチ,OTSUKIMACHI,矢地内西林,37.390481,140.298693
片平町,カタヒラマチ,KATAHIRAMACHI,米沢,37.410311,140.299622
熱海町玉川,アタミマチタマガワ,ATAMIMACHI TAMAGAWA,蟹沢,37.480913,140.29772
熱海町玉川,アタミマチタマガワ,ATAMIMACHI TAMAGAWA,横道,37.490367,140.298582
三穂田町駒屋,ミホタマチコマヤ,MIHOTAMACHI KOMAYA,四十坦原,37.353711,140.299482
熱海町安子島,アタミマチアコガシマ,ATAMIMACHI AKOGASHIMA,植松,37.477487,140.29898
三穂田町八幡,ミホタマチヤハタ,MIHOTAMACHI YAHATA,北高玉,37.364168,140.297537
片平町,カタヒラマチ,KATAHIRAMACHI,王宮,37.416724,140.294481
大槻町,オオツキマチ,OTSUKIMACHI,松井東,37.385901,140.29949
片平町,カタヒラマチ,KATAHIRAMACHI,行屋,37.423338,140.298809
片平町,カタヒラマチ,KATAHIRAMACHI,庚坦原,37.407082,140.308672
大槻町,オオツキマチ,OTSUKIMACHI,上ノ山,37.37781,140.299257
三穂田町野田,ミホタマチノダ,MIHOTAMACHI NODA,山神,37.34543,140.300227
片平町,カタヒラマチ,KATAHIRAMACHI,十戸前,37.434414,140.298533
大槻町,オオツキマチ,OTSUKIMACHI,南下大谷,37.374148,140.299299
片平町,カタヒラマチ,KATAHIRAMACHI,下向,37.436387,140.3015
三穂田町野田,ミホタマチノダ,MIHOTAMACHI NODA,北原山,37.348357,140.300599
三穂田町駒屋,ミホタマチコマヤ,MIHOTAMACHI KOMAYA,杉内後,37.363237,140.30101
三穂田町野田,ミホタマチノダ,MIHOTAMACHI NODA,神鳴山,37.341888,140.300796
熱海町玉川,アタミマチタマガワ,ATAMIMACHI TAMAGAWA,横川,37.481086,140.300804
大槻町,オオツキマチ,OTSUKIMACHI,下大谷東,37.372419,140.300355
大槻町,オオツキマチ,OTSUKIMACHI,矢地内,37.3911,140.301653
三穂田町駒屋,ミホタマチコマヤ,MIHOTAMACHI KOMAYA,東谷地ノ台,37.369912,140.300504
大槻町,オオツキマチ,OTSUKIMACHI,新林,37.371488,140.301524
大槻町,オオツキマチ,OTSUKIMACHI,下大谷北,37.376619,140.301785
三穂田町野田,ミホタマチノダ,MIHOTAMACHI NODA,北原,37.347263,140.300716
大槻町,オオツキマチ,OTSUKIMACHI,中ノ平,37.398653,140.312852
大槻町,オオツキマチ,OTSUKIMACHI,下大橋,37.380833,140.302523
熱海町上伊豆島,アタミマチカミイズシマ,ATAMIMACHI KAMIIZUSHIMA,堀向,37.456478,140.301058
大槻町,オオツキマチ,OTSUKIMACHI,瀬戸,37.39197,140.302187
大槻町,オオツキマチ,OTSUKIMACHI,南台,37.374318,140.302674
片平町,カタヒラマチ,KATAHIRAMACHI,愛宕裏,37.421404,140.30155
大槻町,オオツキマチ,OTSUKIMACHI,漆棒,37.394205,140.303271
三穂田町野田,ミホタマチノダ,MIHOTAMACHI NODA,池下,37.351161,140.304155
三穂田町駒屋,ミホタマチコマヤ,MIHOTAMACHI KOMAYA,北原,37.369861,140.303303
三穂田町駒屋,ミホタマチコマヤ,MIHOTAMACHI KOMAYA,舘ノ後,37.363928,140.302151
三穂田町駒屋,ミホタマチコマヤ,MIHOTAMACHI KOMAYA,四斗蒔,37.36156,140.301824
三穂田町野田,ミホタマチノダ,MIHOTAMACHI NODA,向山,37.350083,140.303346
片平町,カタヒラマチ,KATAHIRAMACHI,新町,37.419407,140.303019
片平町,カタヒラマチ,KATAHIRAMACHI,重郎作,37.411058,140.301827
大槻町,オオツキマチ,OTSUKIMACHI,北台,37.375153,140.303695
三穂田町駒屋,ミホタマチコマヤ,MIHOTAMACHI KOMAYA,入道淵,37.359178,140.301651
片平町,カタヒラマチ,KATAHIRAMACHI,古車,37.417017,140.303486
三穂田町野田,ミホタマチノダ,MIHOTAMACHI NODA,前田,37.344182,140.302197
熱海町上伊豆島,アタミマチカミイズシマ,ATAMIMACHI KAMIIZUSHIMA,天神前,37.455586,140.303344
熱海町玉川,アタミマチタマガワ,ATAMIMACHI TAMAGAWA,影山,37.482054,140.301972
片平町,カタヒラマチ,KATAHIRAMACHI,天王裏,37.421421,140.302782
大槻町,オオツキマチ,OTSUKIMACHI,下大谷地,37.383642,140.303938
片平町,カタヒラマチ,KATAHIRAMACHI,東重郎作,37.411267,140.303326
三穂田町駒屋,ミホタマチコマヤ,MIHOTAMACHI KOMAYA,南覚前,37.356828,140.303321
三穂田町駒屋,ミホタマチコマヤ,MIHOTAMACHI KOMAYA,石橋,37.362464,140.30284
熱海町安子島,アタミマチアコガシマ,ATAMIMACHI AKOGASHIMA,南原,37.473928,140.300961
三穂田町駒屋,ミホタマチコマヤ,MIHOTAMACHI KOMAYA,二斗蒔,37.361405,140.303849
大槻町,オオツキマチ,OTSUKIMACHI,葉山下,37.39591,140.30672
片平町,カタヒラマチ,KATAHIRAMACHI,サラメキ,37.427455,140.303678
熱海町玉川,アタミマチタマガワ,ATAMIMACHI TAMAGAWA,上ノ原,37.486042,140.305392
三穂田町野田,ミホタマチノダ,MIHOTAMACHI NODA,向,37.347807,140.304555
三穂田町野田,ミホタマチノダ,MIHOTAMACHI NODA,白稲田,37.346134,140.304555
熱海町安子島,アタミマチアコガシマ,ATAMIMACHI AKOGASHIMA,町,37.47548,140.307841
熱海町安子島,アタミマチアコガシマ,ATAMIMACHI AKOGASHIMA,鹿野畑,37.471583,140.306217
三穂田町野田,ミホタマチノダ,MIHOTAMACHI NODA,工藤台,37.345032,140.305433
片平町,カタヒラマチ,KATAHIRAMACHI,福内,37.424986,140.304944
熱海町安子島,アタミマチアコガシマ,ATAMIMACHI AKOGASHIMA,滝ノ上,37.47654,140.304936
大槻町,オオツキマチ,OTSUKIMACHI,胡桃沢,37.379164,140.305157
片平町,カタヒラマチ,KATAHIRAMACHI,北田,37.422393,140.304816
片平町,カタヒラマチ,KATAHIRAMACHI,元大谷地,37.414399,140.308075
大槻町,オオツキマチ,OTSUKIMACHI,南原,37.37395,140.310701
熱海町玉川,アタミマチタマガワ,ATAMIMACHI TAMAGAWA,屋敷,37.482914,140.306192
熱海町安子島,アタミマチアコガシマ,ATAMIMACHI AKOGASHIMA,五輪塔,37.478201,140.305317
熱海町玉川,アタミマチタマガワ,ATAMIMACHI TAMAGAWA,瀬戸,37.484174,140.306069
三穂田町野田,ミホタマチノダ,MIHOTAMACHI NODA,中田,37.346724,140.306183
片平町,カタヒラマチ,KATAHIRAMACHI,外堀,37.423089,140.306191
三穂田町野田,ミホタマチノダ,MIHOTAMACHI NODA,南原,37.342167,140.306526
安積町牛庭,アサカマチウシニワ,ASAKAMACHI USHINIWA,上牛庭,37.346367,140.316024
三穂田町川田,ミホタマチカワタ,MIHOTAMACHI KAWATA,犬ケ馬場,37.354174,140.309039
片平町,カタヒラマチ,KATAHIRAMACHI,南前,37.419027,140.30611
熱海町安子島,アタミマチアコガシマ,ATAMIMACHI AKOGASHIMA,輪ノ内,37.469075,140.308254
片平町,カタヒラマチ,KATAHIRAMACHI,下舘,37.422334,140.30638
片平町,カタヒラマチ,KATAHIRAMACHI,大町,37.421186,140.306358
熱海町玉川,アタミマチタマガワ,ATAMIMACHI TAMAGAWA,前田,37.482026,140.305734
三穂田町野田,ミホタマチノダ,MIHOTAMACHI NODA,北又山,37.351282,140.307755
片平町,カタヒラマチ,KATAHIRAMACHI,北大町,37.421112,140.307147
三穂田町野田,ミホタマチノダ,MIHOTAMACHI NODA,山崎,37.343263,140.30507
片平町,カタヒラマチ,KATAHIRAMACHI,西大町,37.419889,140.307265
片平町,カタヒラマチ,KATAHIRAMACHI,門口,37.419103,140.30816
三穂田町駒屋,ミホタマチコマヤ,MIHOTAMACHI KOMAYA,下南原,37.357271,140.30928
片平町,カタヒラマチ,KATAHIRAMACHI,幸新舘,37.43419,140.308686
熱海町上伊豆島,アタミマチカミイズシマ,ATAMIMACHI KAMIIZUSHIMA,四ツ谷西,37.457902,140.307525
片平町,カタヒラマチ,KATAHIRAMACHI,南万会,37.426031,140.308633
片平町,カタヒラマチ,KATAHIRAMACHI,櫟ケ沢,37.415931,140.311399
片平町,カタヒラマチ,KATAHIRAMACHI,木藤田,37.418419,140.308402
片平町,カタヒラマチ,KATAHIRAMACHI,樋下,37.422701,140.307865
片平町,カタヒラマチ,KATAHIRAMACHI,上寺,37.441197,140.308875
片平町,カタヒラマチ,KATAHIRAMACHI,町東,37.420331,140.309036
片平町,カタヒラマチ,KATAHIRAMACHI,大町東,37.419638,140.308158
片平町,カタヒラマチ,KATAHIRAMACHI,南万楷,37.426364,140.308019
片平町,カタヒラマチ,KATAHIRAMACHI,北町東,37.421465,140.309293
熱海町上伊豆島,アタミマチカミイズシマ,ATAMIMACHI KAMIIZUSHIMA,二升蒔,37.45857,140.30894
大槻町,オオツキマチ,OTSUKIMACHI,原畑,37.382551,140.310791
熱海町上伊豆島,アタミマチカミイズシマ,ATAMIMACHI KAMIIZUSHIMA,馬立,37.462475,140.309495
三穂田町川田,ミホタマチカワタ,MIHOTAMACHI KAWATA,渋染,37.363164,140.311631
片平町,カタヒラマチ,KATAHIRAMACHI,山田山,37.432377,140.30967
片平町,カタヒラマチ,KATAHIRAMACHI,花立,37.413895,140.31079
片平町,カタヒラマチ,KATAHIRAMACHI,深谷上屋敷,37.437305,140.311556
大槻町,オオツキマチ,OTSUKIMACHI,西勝ノ木,37.39299,140.30773
熱海町安子島,アタミマチアコガシマ,ATAMIMACHI AKOGASHIMA,桜畑,37.47334,140.309744
三穂田町川田,ミホタマチカワタ,MIHOTAMACHI KAWATA,西上ノ台,37.358738,140.312899
熱海町下伊豆島,アタミマチシモイズシマ,ATAMIMACHI SHIMOIZUSHIMA,西田,37.454165,140.314043
熱海町安子島,アタミマチアコガシマ,ATAMIMACHI AKOGASHIMA,四ツ谷,37.457508,140.311845
片平町,カタヒラマチ,KATAHIRAMACHI,水上,37.419799,140.311284
大槻町,オオツキマチ,OTSUKIMACHI,万耕地,37.381233,140.311607
大槻町,オオツキマチ,OTSUKIMACHI,南原東,37.374738,140.311137
熱海町安子島,アタミマチアコガシマ,ATAMIMACHI AKOGASHIMA,石田,37.475619,140.311759
大槻町,オオツキマチ,OTSUKIMACHI,宮ノ前,37.391493,140.313873
片平町,カタヒラマチ,KATAHIRAMACHI,舘山,37.432987,140.312448
大槻町,オオツキマチ,OTSUKIMACHI,山下西,37.382475,140.312429
片平町,カタヒラマチ,KATAHIRAMACHI,地の岡,37.420442,140.310614
三穂田町川田,ミホタマチカワタ,MIHOTAMACHI KAWATA,東上ノ台,37.354538,140.312101
片平町,カタヒラマチ,KATAHIRAMACHI,並西勝,37.421038,140.313408
大槻町,オオツキマチ,OTSUKIMACHI,上柵,37.391026,140.31256
熱海町安子島,アタミマチアコガシマ,ATAMIMACHI AKOGASHIMA,二ノ谷,37.46849,140.316295
片平町,カタヒラマチ,KATAHIRAMACHI,平,37.435998,140.311798
大槻町,オオツキマチ,OTSUKIMACHI,長泥,37.389463,140.313544
片平町,カタヒラマチ,KATAHIRAMACHI,見物壇,37.437541,140.31688
熱海町安子島,アタミマチアコガシマ,ATAMIMACHI AKOGASHIMA,反畑,37.473292,140.31304
三穂田町川田,ミホタマチカワタ,MIHOTAMACHI KAWATA,皿池南,37.351924,140.314001
大槻町,オオツキマチ,OTSUKIMACHI,三角田,37.386714,140.313645
熱海町安子島,アタミマチアコガシマ,ATAMIMACHI AKOGASHIMA,外手,37.45952,140.313734
熱海町安子島,アタミマチアコガシマ,ATAMIMACHI AKOGASHIMA,辰己山,37.461605,140.313755
三穂田町川田,ミホタマチカワタ,MIHOTAMACHI KAWATA,西桜木,37.357905,140.314834
片平町,カタヒラマチ,KATAHIRAMACHI,新堀,37.423279,140.316383
片平町,カタヒラマチ,KATAHIRAMACHI,峯三天,37.434788,140.315344
三穂田町川田,ミホタマチカワタ,MIHOTAMACHI KAWATA,小樋,37.362225,140.315129
大槻町,オオツキマチ,OTSUKIMACHI,美女池北,37.379861,140.314301
大槻町,オオツキマチ,OTSUKIMACHI,春日,37.393191,140.313977
大槻町,オオツキマチ,OTSUKIMACHI,中柵,37.390184,140.313423
三穂田町川田,ミホタマチカワタ,MIHOTAMACHI KAWATA,白清水,37.353219,140.314963
熱海町安子島,アタミマチアコガシマ,ATAMIMACHI AKOGASHIMA,上台,37.468643,140.313986
大槻町,オオツキマチ,OTSUKIMACHI,美女池上,37.376945,140.314623
熱海町安子島,アタミマチアコガシマ,ATAMIMACHI AKOGASHIMA,北原,37.463057,140.319421
大槻町,オオツキマチ,OTSUKIMACHI,西ノ山,37.402343,140.315307
片平町,カタヒラマチ,KATAHIRAMACHI,風泉,37.431459,140.315367
熱海町安子島,アタミマチアコガシマ,ATAMIMACHI AKOGASHIMA,赤ヒゲ林,37.463695,140.31588
大槻町,オオツキマチ,OTSUKIMACHI,山下前,37.381233,140.31563
片平町,カタヒラマチ,KATAHIRAMACHI,南舘岡,37.412302,140.318165
大槻町,オオツキマチ,OTSUKIMACHI,北ノ山,37.393039,140.315984
大槻町,オオツキマチ,OTSUKIMACHI,久助林,37.395355,140.31564
熱海町下伊豆島,アタミマチシモイズシマ,ATAMIMACHI SHIMOIZUSHIMA,座津子内入,37.459304,140.315904
大槻町,オオツキマチ,OTSUKIMACHI,上町,37.388002,140.3175
熱海町下伊豆島,アタミマチシモイズシマ,ATAMIMACHI SHIMOIZUSHIMA,前田,37.453725,140.315852
三穂田町川田,ミホタマチカワタ,MIHOTAMACHI KAWATA,日向,37.365697,140.319349
大槻町,オオツキマチ,OTSUKIMACHI,桜木,37.386615,140.316333
大槻町,オオツキマチ,OTSUKIMACHI,新池下,37.396941,140.316975
三穂田町川田,ミホタマチカワタ,MIHOTAMACHI KAWATA,日向前,37.364163,140.317816
熱海町安子島,アタミマチアコガシマ,ATAMIMACHI AKOGASHIMA,追分,37.469619,140.318209
片平町,カタヒラマチ,KATAHIRAMACHI,東極楽,37.421152,140.315212
安積町牛庭,アサカマチウシニワ,ASAKAMACHI USHINIWA,真林,37.350719,140.322145
片平町,カタヒラマチ,KATAHIRAMACHI,妙見舘,37.433882,140.318192
三穂田町川田,ミホタマチカワタ,MIHOTAMACHI KAWATA,舘,37.361342,140.316699
三穂田町川田,ミホタマチカワタ,MIHOTAMACHI KAWATA,藤ノ木,37.35997,140.317735
大槻町,オオツキマチ,OTSUKIMACHI,福楽沢前,37.400287,140.316929
大槻町,オオツキマチ,OTSUKIMACHI,山下東,37.380813,140.316748
三穂田町川田,ミホタマチカワタ,MIHOTAMACHI KAWATA,沢目木,37.353998,140.318587
大槻町,オオツキマチ,OTSUKIMACHI,西ノ宮西,37.398284,140.321381
片平町,カタヒラマチ,KATAHIRAMACHI,北久保,37.423838,140.320145
大槻町,オオツキマチ,OTSUKIMACHI,御花畑,37.393607,140.317802
熱海町下伊豆島,アタミマチシモイズシマ,ATAMIMACHI SHIMOIZUSHIMA,屋敷,37.454006,140.317975
大槻町,オオツキマチ,OTSUKIMACHI,福楽沢,37.40166,140.317528
片平町,カタヒラマチ,KATAHIRAMACHI,木宮道東,37.411019,140.318486
片平町,カタヒラマチ,KATAHIRAMACHI,南出磬山,37.408632,140.318029
大槻町,オオツキマチ,OTSUKIMACHI,上前田,37.387354,140.318362
熱海町下伊豆島,アタミマチシモイズシマ,ATAMIMACHI SHIMOIZUSHIMA,上ノ台,37.45888,140.319216
大槻町,オオツキマチ,OTSUKIMACHI,衛門田,37.38603,140.318368
熱海町下伊豆島,アタミマチシモイズシマ,ATAMIMACHI SHIMOIZUSHIMA,寺屋舗,37.456968,140.318621
片平町,カタヒラマチ,KATAHIRAMACHI,田中,37.425512,140.319479
片平町,カタヒラマチ,KATAHIRAMACHI,神明,37.430073,140.318164
熱海町下伊豆島,アタミマチシモイズシマ,ATAMIMACHI SHIMOIZUSHIMA,南田,37.45269,140.319403
三穂田町川田,ミホタマチカワタ,MIHOTAMACHI KAWATA,東,37.362042,140.318547
大槻町,オオツキマチ,OTSUKIMACHI,山下,37.381728,140.31763
熱海町安子島,アタミマチアコガシマ,ATAMIMACHI AKOGASHIMA,対面原,37.465298,140.319877
片平町,カタヒラマチ,KATAHIRAMACHI,久保,37.424561,140.319596
大槻町,オオツキマチ,OTSUKIMACHI,福楽沢北,37.40355,140.320063
大槻町,オオツキマチ,OTSUKIMACHI,北寺,37.392683,140.318603
大槻町,オオツキマチ,OTSUKIMACHI,太田西,37.375113,140.319801
大槻町,オオツキマチ,OTSUKIMACHI,下町,37.388307,140.321493
大槻町,オオツキマチ,OTSUKIMACHI,殿町,37.390096,140.318833
三穂田町川田,ミホタマチカワタ,MIHOTAMACHI KAWATA,元前田,37.361001,140.321638
三穂田町川田,ミホタマチカワタ,MIHOTAMACHI KAWATA,東藤ノ木,37.358463,140.320023
大槻町,オオツキマチ,OTSUKIMACHI,石行坦,37.384134,140.320919
大槻町,オオツキマチ,OTSUKIMACHI,中前田,37.387519,140.320612
大槻町,オオツキマチ,OTSUKIMACHI,切通,37.382146,140.319565
熱海町下伊豆島,アタミマチシモイズシマ,ATAMIMACHI SHIMOIZUSHIMA,町谷田,37.454078,140.319843
大槻町,オオツキマチ,OTSUKIMACHI,北田,37.390938,140.32204
大槻町,オオツキマチ,OTSUKIMACHI,原ノ町,37.392607,140.320429
大槻町,オオツキマチ,OTSUKIMACHI,蝦夷坦,37.400959,140.321112
大槻町,オオツキマチ,OTSUKIMACHI,向原,37.371732,140.321806
熱海町安子島,アタミマチアコガシマ,ATAMIMACHI AKOGASHIMA,前田,37.471332,140.319287
片平町,カタヒラマチ,KATAHIRAMACHI,新蟻塚,37.407827,140.326199
熱海町下伊豆島,アタミマチシモイズシマ,ATAMIMACHI SHIMOIZUSHIMA,稲干場,37.456914,140.320957
三穂田町川田,ミホタマチカワタ,MIHOTAMACHI KAWATA,胎ノ内,37.360196,140.32113
三穂田町川田,ミホタマチカワタ,MIHOTAMACHI KAWATA,勝利ケ岡,37.35295,140.32268
片平町,カタヒラマチ,KATAHIRAMACHI,梨久保北,37.430995,140.320894
三穂田町川田,ミホタマチカワタ,MIHOTAMACHI KAWATA,東高野,37.368164,140.321527
大槻町,オオツキマチ,OTSUKIMACHI,南地蔵谷地,37.374948,140.322055
片平町,カタヒラマチ,KATAHIRAMACHI,沖中,37.427303,140.322843
大槻町,オオツキマチ,OTSUKIMACHI,下町裏,37.390194,140.321294
大槻町,オオツキマチ,OTSUKIMACHI,下前田,37.387443,140.321848
片平町,カタヒラマチ,KATAHIRAMACHI,窪南,37.422294,140.322687
熱海町安子島,アタミマチアコガシマ,ATAMIMACHI AKOGASHIMA,対面,37.468414,140.322655
三穂田町川田,ミホタマチカワタ,MIHOTAMACHI KAWATA,鍛治田,37.359191,140.321914
大槻町,オオツキマチ,OTSUKIMACHI,二本木,37.391935,140.322259
大槻町,オオツキマチ,OTSUKIMACHI,金畑,37.403494,140.32251
熱海町下伊豆島,アタミマチシモイズシマ,ATAMIMACHI SHIMOIZUSHIMA,瓜坪向山,37.441577,140.323784
大槻町,オオツキマチ,OTSUKIMACHI,弥蔵田,37.377882,140.322683
片平町,カタヒラマチ,KATAHIRAMACHI,木宮南,37.413725,140.322453
片平町,カタヒラマチ,KATAHIRAMACHI,池下,37.406396,140.322616
熱海町下伊豆島,アタミマチシモイズシマ,ATAMIMACHI SHIMOIZUSHIMA,和久台,37.447187,140.325113
熱海町下伊豆島,アタミマチシモイズシマ,ATAMIMACHI SHIMOIZUSHIMA,ラントフ林,37.44691,140.323103
大槻町,オオツキマチ,OTSUKIMACHI,西膳棚,37.382714,140.321764
大槻町,オオツキマチ,OTSUKIMACHI,長右エ門林,37.396281,140.326855
熱海町安子島,アタミマチアコガシマ,ATAMIMACHI AKOGASHIMA,一ノ谷,37.463947,140.325134
大槻町,オオツキマチ,OTSUKIMACHI,西ノ宮,37.395785,140.322592
安積町牛庭,アサカマチウシニワ,ASAKAMACHI USHINIWA,社場谷地,37.35124,140.3245
大槻町,オオツキマチ,OTSUKIMACHI,下衛門田,37.385472,140.323976
大槻町,オオツキマチ,OTSUKIMACHI,下町東,37.388902,140.325293
大槻町,オオツキマチ,OTSUKIMACHI,普門寺坦北,37.3945,140.323502
大槻町,オオツキマチ,OTSUKIMACHI,人形坦,37.387736,140.32324
大槻町,オオツキマチ,OTSUKIMACHI,西台,37.381212,140.324162
片平町,カタヒラマチ,KATAHIRAMACHI,戸納落西,37.433053,140.326756
大槻町,オオツキマチ,OTSUKIMACHI,太田,37.373904,140.32491
三穂田町川田,ミホタマチカワタ,MIHOTAMACHI KAWATA,柿ノ木,37.36202,140.322642
熱海町下伊豆島,アタミマチシモイズシマ,ATAMIMACHI SHIMOIZUSHIMA,下玉虫,37.456745,140.324329
大槻町,オオツキマチ,OTSUKIMACHI,仙海東,37.390144,140.325889
片平町,カタヒラマチ,KATAHIRAMACHI,釜場,37.405377,140.326655
大槻町,オオツキマチ,OTSUKIMACHI,古屋敷,37.401614,140.32538
片平町,カタヒラマチ,KATAHIRAMACHI,馬場前,37.417201,140.324245
片平町,カタヒラマチ,KATAHIRAMACHI,馬場下,37.417824,140.324575
大槻町,オオツキマチ,OTSUKIMACHI,太田北,37.376365,140.324966
片平町,カタヒラマチ,KATAHIRAMACHI,森,37.423906,140.32407
大槻町,オオツキマチ,OTSUKIMACHI,南反田,37.39217,140.324832
熱海町安子島,アタミマチアコガシマ,ATAMIMACHI AKOGASHIMA,一ノ沢,37.470029,140.326915
片平町,カタヒラマチ,KATAHIRAMACHI,稲荷,37.427379,140.325171
大槻町,オオツキマチ,OTSUKIMACHI,影反田,37.394277,140.325048
大槻町,オオツキマチ,OTSUKIMACHI,東台,37.382281,140.326696
大槻町,オオツキマチ,OTSUKIMACHI,上中谷地,37.387767,140.326162
熱海町下伊豆島,アタミマチシモイズシマ,ATAMIMACHI SHIMOIZUSHIMA,仲田,37.443671,140.324641
大槻町,オオツキマチ,OTSUKIMACHI,人形坦東,37.387287,140.325412
片平町,カタヒラマチ,KATAHIRAMACHI,清水台,37.421573,140.326184
片平町,カタヒラマチ,KATAHIRAMACHI,松,37.423615,140.326226
喜久田町,キクタマチ,KIKUTAMACHI,瓜坪舘,37.43608,140.327631
片平町,カタヒラマチ,KATAHIRAMACHI,鳴神,37.427489,140.327311
大槻町,オオツキマチ,OTSUKIMACHI,太田東,37.372569,140.326532
大槻町,オオツキマチ,OTSUKIMACHI,前畑,37.400179,140.326863
片平町,カタヒラマチ,KATAHIRAMACHI,的場,37.4174,140.32695
喜久田町堀之内,キクタマチホリノウチ,KIKUTAMACHI HORINOCHI,外左エ門段,37.459555,140.327878
大槻町,オオツキマチ,OTSUKIMACHI,室ノ木前,37.377839,140.327108
片平町,カタヒラマチ,KATAHIRAMACHI,杵田,37.418717,140.327245
大槻町,オオツキマチ,OTSUKIMACHI,土瓜,37.403247,140.331034
大槻町,オオツキマチ,OTSUKIMACHI,川向,37.404691,140.327669
片平町,カタヒラマチ,KATAHIRAMACHI,谷地,37.426231,140.327467
喜久田町,キクタマチ,KIKUTAMACHI,行人作田,37.442264,140.328529
喜久田町堀之内,キクタマチホリノウチ,KIKUTAMACHI HORINOCHI,秋殿前,37.4532,140.336452
安積町成田,アサカマチナリタ,ASAKAMACHI NARITA,三耕地,37.363254,140.328777
喜久田町堀之内,キクタマチホリノウチ,KIKUTAMACHI HORINOCHI,二渡,37.449984,140.331026
大槻町,オオツキマチ,OTSUKIMACHI,日向,37.378113,140.329547
片平町,カタヒラマチ,KATAHIRAMACHI,出磬森,37.407941,140.329089
喜久田町,キクタマチ,KIKUTAMACHI,瓜坪,37.435419,140.330496
三穂田町川田,ミホタマチカワタ,MIHOTAMACHI KAWATA,北神子内,37.362252,140.328812
片平町,カタヒラマチ,KATAHIRAMACHI,中川原南,37.417051,140.328256
大槻町,オオツキマチ,OTSUKIMACHI,中野,37.39112,140.329533
大槻町,オオツキマチ,OTSUKIMACHI,六角,37.404112,140.331769
喜久田町堀之内,キクタマチホリノウチ,KIKUTAMACHI HORINOCHI,赤津,37.469981,140.329806
片平町,カタヒラマチ,KATAHIRAMACHI,鶴蒔,37.420522,140.32943
安積町成田,アサカマチナリタ,ASAKAMACHI NARITA,東丸山,37.367193,140.329313
大槻町,オオツキマチ,OTSUKIMACHI,北中野,37.391744,140.328506
喜久田町堀之内,キクタマチホリノウチ,KIKUTAMACHI HORINOCHI,釜場西,37.460717,140.33104
大槻町,オオツキマチ,OTSUKIMACHI,六角北,37.40668,140.332362
喜久田町,キクタマチ,KIKUTAMACHI,松ケ作,37.44258,140.335658
喜久田町堀之内,キクタマチホリノウチ,KIKUTAMACHI HORINOCHI,一本木,37.448429,140.333895
片平町,カタヒラマチ,KATAHIRAMACHI,中林南,37.415293,140.330816
喜久田町堀之内,キクタマチホリノウチ,KIKUTAMACHI HORINOCHI,北原,37.461425,140.337839
喜久田町,キクタマチ,KIKUTAMACHI,瓜坪屋敷,37.435355,140.332876
安積町成田,アサカマチナリタ,ASAKAMACHI NARITA,西畑,37.362013,140.332483
安積町成田,アサカマチナリタ,ASAKAMACHI NARITA,田向,37.354375,140.334644
大槻町,オオツキマチ,OTSUKIMACHI,室ノ木,37.377223,140.33192
片平町,カタヒラマチ,KATAHIRAMACHI,鍛治田,37.42114,140.331886
大槻町,オオツキマチ,OTSUKIMACHI,北中野下,37.393686,140.331129
片平町,カタヒラマチ,KATAHIRAMACHI,東柳作,37.429826,140.332418
片平町,カタヒラマチ,KATAHIRAMACHI,的下,37.419876,140.331181
大槻町,オオツキマチ,OTSUKIMACHI,下中野,37.391705,140.331013
大槻町,オオツキマチ,OTSUKIMACHI,室ノ木北,37.378202,140.331564
片平町,カタヒラマチ,KATAHIRAMACHI,西柳作,37.433199,140.331318
片平町,カタヒラマチ,KATAHIRAMACHI,大山南,37.414345,140.332989
片平町,カタヒラマチ,KATAHIRAMACHI,出磬東,37.40748,140.331635
安積町成田,アサカマチナリタ,ASAKAMACHI NARITA,不動内,37.36547,140.332589
安積町成田,アサカマチナリタ,ASAKAMACHI NARITA,車川原,37.358568,140.333466
喜久田町堀之内,キクタマチホリノウチ,KIKUTAMACHI HORINOCHI,向原,37.444226,140.337601
大槻町,オオツキマチ,OTSUKIMACHI,小山田西,37.406247,140.334295
富田町,トミタマチ,TOMITAMACHI,大徳南,37.408392,140.336361
大槻町,オオツキマチ,OTSUKIMACHI,麦塚,37.376169,140.333317
片平町,カタヒラマチ,KATAHIRAMACHI,元大山,37.416329,140.332634
安積町成田,アサカマチナリタ,ASAKAMACHI NARITA,西前坂,37.357538,140.336877
安積町成田,アサカマチナリタ,ASAKAMACHI NARITA,前畑,37.360747,140.336541
富田町,トミタマチ,TOMITAMACHI,上西田,37.409619,140.334035
大槻町,オオツキマチ,OTSUKIMACHI,室ノ木東,37.377445,140.333537
喜久田町堀之内,キクタマチホリノウチ,KIKUTAMACHI HORINOCHI,松山池東,37.457287,140.332812
富田町,トミタマチ,TOMITAMACHI,丸山,37.427919,140.334422
喜久田町,キクタマチ,KIKUTAMACHI,菖蒲池,37.435929,140.336716
安積町荒井,アサカマチアライ,ASAKAMACHI ARAI,柴宮山,37.374977,140.337272
大槻町,オオツキマチ,OTSUKIMACHI,小山田,37.405136,140.335883
大槻町,オオツキマチ,OTSUKIMACHI,原田西,37.379449,140.335492
安積町成田,アサカマチナリタ,ASAKAMACHI NARITA,西田,37.363757,140.33416
大槻町,オオツキマチ,OTSUKIMACHI,北ノ林,37.391229,140.33461
安積町荒井,アサカマチアライ,ASAKAMACHI ARAI,雷神,37.374066,140.335596
安積町成田,アサカマチナリタ,ASAKAMACHI NARITA,成田,37.362486,140.335205
大槻町,オオツキマチ,OTSUKIMACHI,西荒久,37.379832,140.335502
富田町,トミタマチ,TOMITAMACHI,鍛冶田,37.421949,140.336102
喜久田町堀之内,キクタマチホリノウチ,KIKUTAMACHI HORINOCHI,下前田,37.454325,140.335033
大槻町,オオツキマチ,OTSUKIMACHI,東阿良久,37.381229,140.336025
大槻町,オオツキマチ,OTSUKIMACHI,小山田前,37.404711,140.338075
大槻町,オオツキマチ,OTSUKIMACHI,小金林,37.401825,140.335058
安積町成田,アサカマチナリタ,ASAKAMACHI NARITA,北ノ内,37.366317,140.335423
喜久田町堀之内,キクタマチホリノウチ,KIKUTAMACHI HORINOCHI,堀内,37.455274,140.336883
富田町,トミタマチ,TOMITAMACHI,諏訪西,37.425126,140.335782
安積町成田,アサカマチナリタ,ASAKAMACHI NARITA,北ノ内前,37.364712,140.336708
大槻町,オオツキマチ,OTSUKIMACHI,原田,37.379795,140.339447
富田町,トミタマチ,TOMITAMACHI,上鶴蒔田,37.418119,140.335413
安積町成田,アサカマチナリタ,ASAKAMACHI NARITA,念仏坦西,37.356251,140.336898
富田町,トミタマチ,TOMITAMACHI,大十内,37.416231,140.338293
富田町,トミタマチ,TOMITAMACHI,大堰,37.422029,140.337067
大槻町,オオツキマチ,OTSUKIMACHI,小割林,37.403871,140.338243
富田町,トミタマチ,TOMITAMACHI,中ノ目,37.420457,140.336527
大槻町,オオツキマチ,OTSUKIMACHI,原田前,37.377256,140.336307
喜久田町堀之内,キクタマチホリノウチ,KIKUTAMACHI HORINOCHI,釜場東,37.457264,140.338061
大槻町,オオツキマチ,OTSUKIMACHI,上篠林,37.401926,140.33751
喜久田町堀之内,キクタマチホリノウチ,KIKUTAMACHI HORINOCHI,地田下,37.450285,140.336991
喜久田町,キクタマチ,KIKUTAMACHI,双又,37.429942,140.336724
大槻町,オオツキマチ,OTSUKIMACHI,原田際,37.380091,140.33657
喜久田町堀之内,キクタマチホリノウチ,KIKUTAMACHI HORINOCHI,向五升蒔,37.452373,140.336014
富田町,トミタマチ,TOMITAMACHI,下西田,37.413514,140.338035
大槻町,オオツキマチ,OTSUKIMACHI,花輪,37.383546,140.336517
喜久田町堀之内,キクタマチホリノウチ,KIKUTAMACHI HORINOCHI,千杯田,37.450565,140.336142
喜久田町堀之内,キクタマチホリノウチ,KIKUTAMACHI HORINOCHI,堀切前,37.464367,140.337926
大槻町,オオツキマチ,OTSUKIMACHI,御前東,37.384692,140.338801
富田町,トミタマチ,TOMITAMACHI,豊年田,37.420296,140.338506
喜久田町堀之内,キクタマチホリノウチ,KIKUTAMACHI HORINOCHI,上殿田,37.452753,140.338049
富田町,トミタマチ,TOMITAMACHI,諏訪内,37.426683,140.338324
富田町,トミタマチ,TOMITAMACHI,諏訪前,37.424145,140.338008
安積町成田,アサカマチナリタ,ASAKAMACHI NARITA,北前田,37.362281,140.337091
安積町荒井,アサカマチアライ,ASAKAMACHI ARAI,離畑,37.371058,140.338895
大槻町,オオツキマチ,OTSUKIMACHI,花輪前,37.382835,140.338382
喜久田町前田沢,キクタマチマエタザワ,KIKUTAMACHI MAETAZAWA,小室山,37.4762,140.341806
安積町成田,アサカマチナリタ,ASAKAMACHI NARITA,高田,37.363766,140.339193
安積町荒井,アサカマチアライ,ASAKAMACHI ARAI,前田,37.372769,140.340299
大槻町,オオツキマチ,OTSUKIMACHI,広町,37.406412,140.339744
喜久田町堀之内,キクタマチホリノウチ,KIKUTAMACHI HORINOCHI,地田東,37.447443,140.338807
富田町,トミタマチ,TOMITAMACHI,大徳,37.411646,140.342357
喜久田町前田沢,キクタマチマエタザワ,KIKUTAMACHI MAETAZAWA,赤津山,37.474461,140.33828
喜久田町堀之内,キクタマチホリノウチ,KIKUTAMACHI HORINOCHI,五升蒔,37.453597,140.337878
喜久田町堀之内,キクタマチホリノウチ,KIKUTAMACHI HORINOCHI,古町,37.454404,140.337495
喜久田町前田沢,キクタマチマエタザワ,KIKUTAMACHI MAETAZAWA,東赤津,37.473344,140.339499
安積町成田,アサカマチナリタ,ASAKAMACHI NARITA,南前田,37.361767,140.339005
富田町,トミタマチ,TOMITAMACHI,鶴蒔田,37.418978,140.339271
安積町成田,アサカマチナリタ,ASAKAMACHI NARITA,田中場,37.36049,140.337229
大槻町,オオツキマチ,OTSUKIMACHI,菅田,37.406957,140.338831
喜久田町堀之内,キクタマチホリノウチ,KIKUTAMACHI HORINOCHI,萱畑,37.451126,140.338318
大槻町,オオツキマチ,OTSUKIMACHI,原田北,37.381532,140.339994
喜久田町堀之内,キクタマチホリノウチ,KIKUTAMACHI HORINOCHI,下殿田,37.4531,140.339283
大槻町,オオツキマチ,OTSUKIMACHI,下篠林,37.403267,140.340034
大槻町,オオツキマチ,OTSUKIMACHI,三ッ坦,37.385254,140.340559
大槻町,オオツキマチ,OTSUKIMACHI,水門東,37.382847,140.338916
喜久田町堀之内,キクタマチホリノウチ,KIKUTAMACHI HORINOCHI,畑田,37.451825,140.339522
安積町成田,アサカマチナリタ,ASAKAMACHI NARITA,兎田向,37.354613,140.341186
富田町,トミタマチ,TOMITAMACHI,舘南,37.413613,140.339496
喜久田町堀之内,キクタマチホリノウチ,KIKUTAMACHI HORINOCHI,小六,37.45843,140.341212
大槻町,オオツキマチ,OTSUKIMACHI,半縄田,37.403981,140.340885
安積町成田,アサカマチナリタ,ASAKAMACHI NARITA,島,37.362448,140.341644
安積町成田,アサカマチナリタ,ASAKAMACHI NARITA,島ノ前,37.360788,140.340546
安積町成田,アサカマチナリタ,ASAKAMACHI NARITA,畑形,37.351892,140.344111
富田町,トミタマチ,TOMITAMACHI,天神南,37.424185,140.340845
富田町,トミタマチ,TOMITAMACHI,五輪下,37.423764,140.340068
安積町成田,アサカマチナリタ,ASAKAMACHI NARITA,漆山,37.358228,140.338767
安積町荒井,アサカマチアライ,ASAKAMACHI ARAI,萬海,37.374887,140.342737
安積町成田,アサカマチナリタ,ASAKAMACHI NARITA,島ノ後,37.364968,140.342721
大槻町,オオツキマチ,OTSUKIMACHI,柏山,37.402247,140.341581
安積町成田,アサカマチナリタ,ASAKAMACHI NARITA,小林,37.366053,140.341255
喜久田町堀之内,キクタマチホリノウチ,KIKUTAMACHI HORINOCHI,下寺田,37.45395,140.340778
喜久田町堀之内,キクタマチホリノウチ,KIKUTAMACHI HORINOCHI,椚内,37.452584,140.341171
富田町,トミタマチ,TOMITAMACHI,下堰,37.422237,140.340685
大槻町,オオツキマチ,OTSUKIMACHI,上西田,37.38284,140.342747
喜久田町前田沢,キクタマチマエタザワ,KIKUTAMACHI MAETAZAWA,仲丸,37.473014,140.34224
富田町,トミタマチ,TOMITAMACHI,五斗蒔田,37.421003,140.342177
喜久田町堀之内,キクタマチホリノウチ,KIKUTAMACHI HORINOCHI,山影,37.450521,140.341102
安積町成田,アサカマチナリタ,ASAKAMACHI NARITA,島河原,37.358997,140.342291
富田町,トミタマチ,TOMITAMACHI,塩ノ草,37.425681,140.341939
大槻町,オオツキマチ,OTSUKIMACHI,張股,37.383423,140.342753
喜久田町堀之内,キクタマチホリノウチ,KIKUTAMACHI HORINOCHI,南椚内,37.450952,140.342227
富田町,トミタマチ,TOMITAMACHI,権現林,37.429725,140.342408
富田町,トミタマチ,TOMITAMACHI,下小次郎木,37.407608,140.342221
喜久田町,キクタマチ,KIKUTAMACHI,上追池,37.435435,140.343502
大槻町,オオツキマチ,OTSUKIMACHI,針生西,37.385158,140.343086
大槻町,オオツキマチ,OTSUKIMACHI,原田東,37.379074,140.340586
富田町,トミタマチ,TOMITAMACHI,向舘,37.41428,140.342106
富田町,トミタマチ,TOMITAMACHI,町西,37.421813,140.343437
喜久田町堀之内,キクタマチホリノウチ,KIKUTAMACHI HORINOCHI,堂田,37.454598,140.341296
大槻町,オオツキマチ,OTSUKIMACHI,東竹ヶ原,37.387616,140.342011
喜久田町堀之内,キクタマチホリノウチ,KIKUTAMACHI HORINOCHI,下上ノ台,37.456573,140.343228
安積町荒井,アサカマチアライ,ASAKAMACHI ARAI,味噌池原,37.370668,140.343675
喜久田町堀之内,キクタマチホリノウチ,KIKUTAMACHI HORINOCHI,下河原,37.453267,140.3431
富田町,トミタマチ,TOMITAMACHI,池ノ上,37.423732,140.342986
喜久田町堀之内,キクタマチホリノウチ,KIKUTAMACHI HORINOCHI,杢田,37.448268,140.34451
喜久田町,キクタマチ,KIKUTAMACHI,下尾池,37.43576,140.341111
富田町,トミタマチ,TOMITAMACHI,十文字,37.412721,140.34371
安積町荒井,アサカマチアライ,ASAKAMACHI ARAI,大久保,37.374948,140.346318
富田町,トミタマチ,TOMITAMACHI,愛宕前,37.423704,140.345
安積町成田,アサカマチナリタ,ASAKAMACHI NARITA,三渡,37.361093,140.345916
大槻町,オオツキマチ,OTSUKIMACHI,仁池向,37.379894,140.34447
安積町成田,アサカマチナリタ,ASAKAMACHI NARITA,梅田,37.365639,140.344132
安積町成田,アサカマチナリタ,ASAKAMACHI NARITA,白清水,37.366413,140.345092
富田町,トミタマチ,TOMITAMACHI,墨染,37.415204,140.344841
富田町,トミタマチ,TOMITAMACHI,上ノ台,37.429171,140.345648
富田町,トミタマチ,TOMITAMACHI,向作田,37.426794,140.344907
富田町,トミタマチ,TOMITAMACHI,上亀田,37.411022,140.344453
安積町荒井,アサカマチアライ,ASAKAMACHI ARAI,火口内,37.373402,140.344412
富田町,トミタマチ,TOMITAMACHI,町内,37.421338,140.34474
喜久田町堀之内,キクタマチホリノウチ,KIKUTAMACHI HORINOCHI,見陣原,37.453885,140.344399
富田町,トミタマチ,TOMITAMACHI,前川原,37.419163,140.345219
大槻町,オオツキマチ,OTSUKIMACHI,針生,37.384679,140.345912
安積町荒井,アサカマチアライ,ASAKAMACHI ARAI,上荒井田,37.365363,140.347048
富田町,トミタマチ,TOMITAMACHI,町畑,37.413171,140.347113
安積町成田,アサカマチナリタ,ASAKAMACHI NARITA,北山崎,37.353648,140.346296
安積町成田,アサカマチナリタ,ASAKAMACHI NARITA,上荒井,37.366297,140.3466
大槻町,オオツキマチ,OTSUKIMACHI,下西田,37.382374,140.346204
喜久田町早稲原,キクタマチワセハラ,KIKUTAMACHI WASEHARA,弥五郎,37.458473,140.354273
大槻町,オオツキマチ,OTSUKIMACHI,針生北,37.386151,140.346149
喜久田町,キクタマチ,KIKUTAMACHI,上尾池,37.433955,140.346479
喜久田町,キクタマチ,KIKUTAMACHI,赤沼向,37.430868,140.348087
安積町笹川,アサカマチササガワ,ASAKAMACHI SASAGAWA,吉田,37.349141,140.34808
安積町成田,アサカマチナリタ,ASAKAMACHI NARITA,飯米場,37.361562,140.347993
喜久田町,キクタマチ,KIKUTAMACHI,前北原,37.431396,140.350311
富田町,トミタマチ,TOMITAMACHI,坦ノ腰,37.425112,140.348067
富田町,トミタマチ,TOMITAMACHI,向山,37.415252,140.348526
富田町,トミタマチ,TOMITAMACHI,池向,37.423998,140.346022
富田町,トミタマチ,TOMITAMACHI,上赤沼,37.428343,140.348247
富久山町八山田,フクヤママチヤツヤマダ,FUKUYAMAMACHI YATSUYAMADA,松ケ作,37.440351,140.347435
大槻町,オオツキマチ,OTSUKIMACHI,針生金畑,37.382227,140.351402
喜久田町早稲原,キクタマチワセハラ,KIKUTAMACHI WASEHARA,大谷地脇,37.448392,140.347273
大槻町,オオツキマチ,OTSUKIMACHI,針生向,37.382242,140.348719
大槻町,オオツキマチ,OTSUKIMACHI,天正坦,37.386957,140.34759
富田町,トミタマチ,TOMITAMACHI,中亀田,37.41198,140.347472
喜久田町,キクタマチ,KIKUTAMACHI,遠北原,37.433918,140.35205
安積町笹川,アサカマチササガワ,ASAKAMACHI SASAGAWA,北向,37.347423,140.351654
富久山町八山田,フクヤママチヤツヤマダ,FUKUYAMAMACHI YATSUYAMADA,広谷原,37.439427,140.350384
富田町,トミタマチ,TOMITAMACHI,十郎内,37.422364,140.348292
大槻町,オオツキマチ,OTSUKIMACHI,針生前田,37.383993,140.350567
富田町,トミタマチ,TOMITAMACHI,弁天下,37.421807,140.347964
喜久田町早稲原,キクタマチワセハラ,KIKUTAMACHI WASEHARA,大谷地,37.44887,140.348099
喜久田町早稲原,キクタマチワセハラ,KIKUTAMACHI WASEHARA,柳田,37.453843,140.351248
富田町,トミタマチ,TOMITAMACHI,後久保,37.423536,140.349567
喜久田町早稲原,キクタマチワセハラ,KIKUTAMACHI WASEHARA,場城内,37.450118,140.349969
喜久田町前田沢,キクタマチマエタザワ,KIKUTAMACHI MAETAZAWA,坪子,37.459908,140.350078
喜久田町,キクタマチ,KIKUTAMACHI,入ノ内,37.428454,140.352086
富田町,トミタマチ,TOMITAMACHI,西原,37.414216,140.350542
安積町笹川,アサカマチササガワ,ASAKAMACHI SASAGAWA,荒池渕,37.346109,140.351829
大槻町,オオツキマチ,OTSUKIMACHI,笹ノ台,37.385864,140.352046
安積町荒井,アサカマチアライ,ASAKAMACHI ARAI,鎗ヶ池,37.374258,140.352237
喜久田町早稲原,キクタマチワセハラ,KIKUTAMACHI WASEHARA,大谷地前,37.448936,140.351809
大槻町,オオツキマチ,OTSUKIMACHI,八坦,37.383222,140.352876
安積町荒井,アサカマチアライ,ASAKAMACHI ARAI,南赤坂,37.365366,140.350452
喜久田町,キクタマチ,KIKUTAMACHI,前北,37.432246,140.350548
富久山町八山田,フクヤママチヤツヤマダ,FUKUYAMAMACHI YATSUYAMADA,八俣堀,37.442388,140.356442
富田町,トミタマチ,TOMITAMACHI,日吉ヶ丘,37.424295,140.352673
安積町笹川,アサカマチササガワ,ASAKAMACHI SASAGAWA,西長久保,37.36166,140.354891
富田町,トミタマチ,TOMITAMACHI,若木下,37.416706,140.352458
喜久田町,キクタマチ,KIKUTAMACHI,寺久保,37.425173,140.353281
安積町笹川,アサカマチササガワ,ASAKAMACHI SASAGAWA,荒屋敷,37.34955,140.353725
大槻町,オオツキマチ,OTSUKIMACHI,林ノ東,37.38488,140.352523
富田町,トミタマチ,TOMITAMACHI,矢ノ根石,37.41354,140.353905
喜久田町早稲原,キクタマチワセハラ,KIKUTAMACHI WASEHARA,伝左エ門原,37.445023,140.35272
富田町,トミタマチ,TOMITAMACHI,下亀田,37.412441,140.351139
大槻町,オオツキマチ,OTSUKIMACHI,針生下,37.383779,140.355105
安積町笹川,アサカマチササガワ,ASAKAMACHI SASAGAWA,南向,37.344863,140.355931
富久山町八山田,フクヤママチヤツヤマダ,FUKUYAMAMACHI YATSUYAMADA,細田原,37.433148,140.361035
大槻町,オオツキマチ,OTSUKIMACHI,堀切西,37.382079,140.355824
大槻町,オオツキマチ,OTSUKIMACHI,御十日,37.38595,140.353767
喜久田町早稲原,キクタマチワセハラ,KIKUTAMACHI WASEHARA,太左エ門林,37.450424,140.355353
安積町笹川,アサカマチササガワ,ASAKAMACHI SASAGAWA,中ノ渡戸,37.341648,140.356955
富田町,トミタマチ,TOMITAMACHI,大島,37.415572,140.356292
安積町荒井,アサカマチアライ,ASAKAMACHI ARAI,赤坂,37.366953,140.355078
富田町,トミタマチ,TOMITAMACHI,猪鹿野久保,37.423167,140.354829
富久山町八山田,フクヤママチヤツヤマダ,FUKUYAMAMACHI YATSUYAMADA,節上原,37.439887,140.359188
喜久田町早稲原,キクタマチワセハラ,KIKUTAMACHI WASEHARA,小段,37.458596,140.356495
富田町,トミタマチ,TOMITAMACHI,天神林,37.42309,140.358895
安積町荒井,アサカマチアライ,ASAKAMACHI ARAI,西堅川,37.36544,140.355911
喜久田町早稲原,キクタマチワセハラ,KIKUTAMACHI WASEHARA,明神脇,37.456269,140.359887
喜久田町,キクタマチ,KIKUTAMACHI,四十坦,37.426476,140.357895
喜久田町前田沢,キクタマチマエタザワ,KIKUTAMACHI MAETAZAWA,東原,37.459712,140.356591
富田町,トミタマチ,TOMITAMACHI,大島前,37.413699,140.355612
安積町荒井,アサカマチアライ,ASAKAMACHI ARAI,北大部,37.372234,140.355885
安積町荒井,アサカマチアライ,ASAKAMACHI ARAI,安倍,37.373839,140.356516
富久山町八山田,フクヤママチヤツヤマダ,FUKUYAMAMACHI YATSUYAMADA,山神後,37.435988,140.362526
大槻町,オオツキマチ,OTSUKIMACHI,牛道,37.381203,140.358262
安積町荒井,アサカマチアライ,ASAKAMACHI ARAI,西北井,37.372749,140.357158
安積町笹川,アサカマチササガワ,ASAKAMACHI SASAGAWA,関谷田,37.345366,140.359099
喜久田町早稲原,キクタマチワセハラ,KIKUTAMACHI WASEHARA,上ノ端,37.457313,140.357644
安積町荒井,アサカマチアライ,ASAKAMACHI ARAI,年柄,37.370973,140.35879
安積町笹川,アサカマチササガワ,ASAKAMACHI SASAGAWA,荒池下,37.347367,140.357856
安積町荒井,アサカマチアライ,ASAKAMACHI ARAI,上北井前,37.372327,140.358765
安積町笹川,アサカマチササガワ,ASAKAMACHI SASAGAWA,目光池西,37.348332,140.360662
富田町,トミタマチ,TOMITAMACHI,音路,37.42421,140.360027
安積町荒井,アサカマチアライ,ASAKAMACHI ARAI,十九夜,37.375326,140.358947
喜久田町早稲原,キクタマチワセハラ,KIKUTAMACHI WASEHARA,柿乙,37.451312,140.360111
安積町笹川,アサカマチササガワ,ASAKAMACHI SASAGAWA,四角坦,37.350092,140.35958
日和田町,ヒワダマチ,HIWADAMACHI,菱池,37.443394,140.362695
安積町荒井,アサカマチアライ,ASAKAMACHI ARAI,東北井山,37.374783,140.359913
富田町,トミタマチ,TOMITAMACHI,北向,37.421651,140.359129
安積町笹川,アサカマチササガワ,ASAKAMACHI SASAGAWA,彼岸塚,37.341734,140.364405
安積町荒井,アサカマチアライ,ASAKAMACHI ARAI,下北井前,37.372487,140.361032
喜久田町早稲原,キクタマチワセハラ,KIKUTAMACHI WASEHARA,町,37.45493,140.362657
喜久田町早稲原,キクタマチワセハラ,KIKUTAMACHI WASEHARA,小作田,37.448903,140.362172
富田町,トミタマチ,TOMITAMACHI,細田,37.422297,140.362056
安積町荒井,アサカマチアライ,ASAKAMACHI ARAI,河葉池,37.371658,140.360475
喜久田町早稲原,キクタマチワセハラ,KIKUTAMACHI WASEHARA,町北,37.457553,140.363611
安積町荒井,アサカマチアライ,ASAKAMACHI ARAI,荒井,37.369362,140.364377
喜久田町前田沢,キクタマチマエタザワ,KIKUTAMACHI MAETAZAWA,藤内,37.466033,140.368381
富久山町八山田,フクヤママチヤツヤマダ,FUKUYAMAMACHI YATSUYAMADA,尾池,37.432475,140.364053
喜久田町早稲原,キクタマチワセハラ,KIKUTAMACHI WASEHARA,町裏,37.456852,140.365462
富久山町八山田,フクヤママチヤツヤマダ,FUKUYAMAMACHI YATSUYAMADA,葉木久保,37.43542,140.365472
日和田町,ヒワダマチ,HIWADAMACHI,鶴見坦,37.440807,140.366512
安積町荒井,アサカマチアライ,ASAKAMACHI ARAI,寺ノ後,37.370004,140.365732
安積町笹川,アサカマチササガワ,ASAKAMACHI SASAGAWA,経坦,37.347729,140.364499
富久山町八山田,フクヤママチヤツヤマダ,FUKUYAMAMACHI YATSUYAMADA,山崎,37.431786,140.367946
喜久田町早稲原,キクタマチワセハラ,KIKUTAMACHI WASEHARA,辰町,37.45297,140.367062
安積町荒井,アサカマチアライ,ASAKAMACHI ARAI,加正,37.369482,140.366974
喜久田町早稲原,キクタマチワセハラ,KIKUTAMACHI WASEHARA,宮ノ前,37.453748,140.368215
安積町笹川,アサカマチササガワ,ASAKAMACHI SASAGAWA,西宿,37.351191,140.367221
安積町笹川,アサカマチササガワ,ASAKAMACHI SASAGAWA,高石坊,37.352423,140.368078
富田町,トミタマチ,TOMITAMACHI,満水田,37.419963,140.369423
富久山町八山田,フクヤママチヤツヤマダ,FUKUYAMAMACHI YATSUYAMADA,舘前,37.433903,140.366372
富田町,トミタマチ,TOMITAMACHI,稲川原,37.414394,140.370266
安積町笹川,アサカマチササガワ,ASAKAMACHI SASAGAWA,篠川,37.350375,140.368477
日和田町,ヒワダマチ,HIWADAMACHI,宮ノ入,37.449944,140.369485
日和田町,ヒワダマチ,HIWADAMACHI,一本松,37.443292,140.371272
日和田町,ヒワダマチ,HIWADAMACHI,泥夫,37.453117,140.373764
日和田町高倉,ヒワダマチタカクラ,HIWADAMACHI TAKAKURA,藤坦,37.467013,140.374501
日和田町,ヒワダマチ,HIWADAMACHI,宮下,37.447177,140.368731
安積町荒井,アサカマチアライ,ASAKAMACHI ARAI,撫子,37.368123,140.369021
日和田町,ヒワダマチ,HIWADAMACHI,北野,37.458637,140.373098
富久山町八山田,フクヤママチヤツヤマダ,FUKUYAMAMACHI YATSUYAMADA,大坦,37.4361,140.36978
日和田町,ヒワダマチ,HIWADAMACHI,五輪塚,37.454634,140.376153
安積町荒井,アサカマチアライ,ASAKAMACHI ARAI,方八丁,37.368742,140.370239
富久山町八山田,フクヤママチヤツヤマダ,FUKUYAMAMACHI YATSUYAMADA,宮脇,37.432966,140.371566
日和田町,ヒワダマチ,HIWADAMACHI,太夫清水,37.4404,140.370762
日和田町,ヒワダマチ,HIWADAMACHI,黒沢,37.447198,140.371272
安積町笹川,アサカマチササガワ,ASAKAMACHI SASAGAWA,狐塚,37.345558,140.371371
富田町,トミタマチ,TOMITAMACHI,町田,37.415841,140.371302
日和田町,ヒワダマチ,HIWADAMACHI,不動坦,37.440705,140.373973
富久山町久保田,フクヤママチクボタ,FUKUYAMAMACHI KUBOTA,伊賀河原,37.412045,140.374237
日和田町,ヒワダマチ,HIWADAMACHI,道場,37.449249,140.376123
安積町笹川,アサカマチササガワ,ASAKAMACHI SASAGAWA,境橋,37.343001,140.372706
日和田町,ヒワダマチ,HIWADAMACHI,南古舘,37.444943,140.374382
富久山町八山田,フクヤママチヤツヤマダ,FUKUYAMAMACHI YATSUYAMADA,稲荷林,37.436435,140.377562
日和田町高倉,ヒワダマチタカクラ,HIWADAMACHI TAKAKURA,大口原,37.461992,140.376159
富田町,トミタマチ,TOMITAMACHI,三角堂,37.417159,140.374132
田村町徳定,タムラマチトクサダ,TAMURAMACHI TOKUSADA,西ノ内,37.353504,140.37383
田村町徳定,タムラマチトクサダ,TAMURAMACHI TOKUSADA,内段,37.354203,140.373788
田村町御代田,タムラマチミヨダ,TAMURAMACHI MIYODA,末広町,37.351664,140.37429
富久山町久保田,フクヤママチクボタ,FUKUYAMAMACHI KUBOTA,三御堂,37.414425,140.377644
田村町徳定,タムラマチトクサダ,TAMURAMACHI TOKUSADA,才竹,37.355087,140.374703
田村町徳定,タムラマチトクサダ,TAMURAMACHI TOKUSADA,苧干場,37.356085,140.375125
日和田町,ヒワダマチ,HIWADAMACHI,小原,37.442297,140.375819
田村町御代田,タムラマチミヨダ,TAMURAMACHI MIYODA,徳定前,37.35193,140.375981
田村町御代田,タムラマチミヨダ,TAMURAMACHI MIYODA,古町,37.34683,140.375238
田村町御代田,タムラマチミヨダ,TAMURAMACHI MIYODA,薬師堂寺,37.347484,140.375363
田村町徳定,タムラマチトクサダ,TAMURAMACHI TOKUSADA,蚕沢,37.352933,140.376989
日和田町,ヒワダマチ,HIWADAMACHI,原,37.441669,140.379489
田村町御代田,タムラマチミヨダ,TAMURAMACHI MIYODA,北町,37.345986,140.375217
日和田町,ヒワダマチ,HIWADAMACHI,西中島,37.447838,140.379758
富久山町八山田,フクヤママチヤツヤマダ,FUKUYAMAMACHI YATSUYAMADA,八津,37.433471,140.375054
日和田町,ヒワダマチ,HIWADAMACHI,朝日坦,37.450465,140.379934
安積町日出山,アサカマチヒデノヤマ,ASAKAMACHI HIDENOYAMA,南台,37.362808,140.376164
田村町御代田,タムラマチミヨダ,TAMURAMACHI MIYODA,舘,37.34551,140.375388
田村町御代田,タムラマチミヨダ,TAMURAMACHI MIYODA,石仏,37.350272,140.375674
日和田町,ヒワダマチ,HIWADAMACHI,古舘,37.446627,140.37619
田村町御代田,タムラマチミヨダ,TAMURAMACHI MIYODA,若葉町,37.348685,140.375837
富久山町久保田,フクヤママチクボタ,FUKUYAMAMACHI KUBOTA,桝形,37.417429,140.377908
富田町,トミタマチ,TOMITAMACHI,逆池北,37.418854,140.376356
日和田町,ヒワダマチ,HIWADAMACHI,北俣,37.458912,140.378393
田村町御代田,タムラマチミヨダ,TAMURAMACHI MIYODA,内手,37.34582,140.376948
田村町御代田,タムラマチミヨダ,TAMURAMACHI MIYODA,中町,37.346764,140.377213
田村町徳定,タムラマチトクサダ,TAMURAMACHI TOKUSADA,古屋敷,37.355063,140.37728
富久山町久保田,フクヤママチクボタ,FUKUYAMAMACHI KUBOTA,大久保,37.410966,140.378397
富久山町久保田,フクヤママチクボタ,FUKUYAMAMACHI KUBOTA,田池,37.412917,140.377832
田村町御代田,タムラマチミヨダ,TAMURAMACHI MIYODA,中平,37.330132,140.385519
田村町徳定,タムラマチトクサダ,TAMURAMACHI TOKUSADA,中河原,37.358447,140.377631
田村町徳定,タムラマチトクサダ,TAMURAMACHI TOKUSADA,泉田,37.353559,140.378483
富久山町八山田,フクヤママチヤツヤマダ,FUKUYAMAMACHI YATSUYAMADA,下屋敷,37.432801,140.376888
安積町日出山,アサカマチヒデノヤマ,ASAKAMACHI HIDENOYAMA,旧屋敷,37.364062,140.378835
田村町御代田,タムラマチミヨダ,TAMURAMACHI MIYODA,田町,37.34496,140.378303
田村町御代田,タムラマチミヨダ,TAMURAMACHI MIYODA,新屋敷,37.345973,140.37884
富久山町八山田,フクヤママチヤツヤマダ,FUKUYAMAMACHI YATSUYAMADA,熊野台,37.433307,140.37761
日和田町,ヒワダマチ,HIWADAMACHI,荒池下,37.450128,140.378576
日和田町高倉,ヒワダマチタカクラ,HIWADAMACHI TAKAKURA,鶴番,37.463814,140.382674
田村町徳定,タムラマチトクサダ,TAMURAMACHI TOKUSADA,高畑,37.356666,140.379903
日和田町,ヒワダマチ,HIWADAMACHI,五庵,37.444546,140.378534
田村町徳定,タムラマチトクサダ,TAMURAMACHI TOKUSADA,下北田,37.356057,140.377766
富久山町久保田,フクヤママチクボタ,FUKUYAMAMACHI KUBOTA,乙高,37.408723,140.379043
田村町徳定,タムラマチトクサダ,TAMURAMACHI TOKUSADA,代田,37.352725,140.379529
富久山町八山田,フクヤママチヤツヤマダ,FUKUYAMAMACHI YATSUYAMADA,四十坦,37.434321,140.379023
田村町御代田,タムラマチミヨダ,TAMURAMACHI MIYODA,大極田,37.343006,140.378737
安積町日出山,アサカマチヒデノヤマ,ASAKAMACHI HIDENOYAMA,新鍬,37.364518,140.380506
富久山町八山田,フクヤママチヤツヤマダ,FUKUYAMAMACHI YATSUYAMADA,北久保,37.432972,140.379329
田村町御代田,タムラマチミヨダ,TAMURAMACHI MIYODA,朝日町,37.350641,140.379217
富久山町久保田,フクヤママチクボタ,FUKUYAMAMACHI KUBOTA,石堂,37.40908,140.381963
田村町御代田,タムラマチミヨダ,TAMURAMACHI MIYODA,雀宮,37.346974,140.380687
田村町御代田,タムラマチミヨダ,TAMURAMACHI MIYODA,平和町,37.347745,140.378521
田村町御代田,タムラマチミヨダ,TAMURAMACHI MIYODA,守山道,37.345122,140.380536
田村町御代田,タムラマチミヨダ,TAMURAMACHI MIYODA,中林,37.339262,140.381293
富久山町久保田,フクヤママチクボタ,FUKUYAMAMACHI KUBOTA,大原,37.419043,140.382789
田村町徳定,タムラマチトクサダ,TAMURAMACHI TOKUSADA,代畑,37.353747,140.380443
富久山町八山田,フクヤママチヤツヤマダ,FUKUYAMAMACHI YATSUYAMADA,経堂,37.434642,140.381567
富久山町久保田,フクヤママチクボタ,FUKUYAMAMACHI KUBOTA,麓山,37.412837,140.382837
田村町御代田,タムラマチミヨダ,TAMURAMACHI MIYODA,綿掛場,37.346191,140.381631
田村町御代田,タムラマチミヨダ,TAMURAMACHI MIYODA,宿後,37.35213,140.382423
日和田町,ヒワダマチ,HIWADAMACHI,植初,37.447981,140.383156
田村町徳定,タムラマチトクサダ,TAMURAMACHI TOKUSADA,水口畑,37.354367,140.381493
田村町御代田,タムラマチミヨダ,TAMURAMACHI MIYODA,三水神,37.3447,140.380866
日和田町,ヒワダマチ,HIWADAMACHI,南原,37.439728,140.382181
田村町御代田,タムラマチミヨダ,TAMURAMACHI MIYODA,六斗蒔田,37.347804,140.381846
田村町徳定,タムラマチトクサダ,TAMURAMACHI TOKUSADA,塚ノ越,37.356218,140.382258
日和田町高倉,ヒワダマチタカクラ,HIWADAMACHI TAKAKURA,新田,37.458983,140.3839
田村町御代田,タムラマチミヨダ,TAMURAMACHI MIYODA,関田,37.344141,140.383653
日和田町,ヒワダマチ,HIWADAMACHI,大山田,37.440649,140.381411
富久山町久保田,フクヤママチクボタ,FUKUYAMAMACHI KUBOTA,梅田,37.406874,140.384797
富久山町久保田,フクヤママチクボタ,FUKUYAMAMACHI KUBOTA,水神山,37.413863,140.383644
日和田町,ヒワダマチ,HIWADAMACHI,前田,37.446767,140.383411
富久山町八山田,フクヤママチヤツヤマダ,FUKUYAMAMACHI YATSUYAMADA,大森新田,37.432719,140.384567
富久山町八山田,フクヤママチヤツヤマダ,FUKUYAMAMACHI YATSUYAMADA,西大森,37.4308,140.382562
富久山町福原,フクヤママチフクハラ,FUKUYAMAMACHI FUKUHARA,沼下,37.430804,140.389309
田村町徳定,タムラマチトクサダ,TAMURAMACHI TOKUSADA,霞内,37.355753,140.384537
日和田町,ヒワダマチ,HIWADAMACHI,中林,37.454415,140.383602
日和田町,ヒワダマチ,HIWADAMACHI,広野入,37.454481,140.386581
日和田町,ヒワダマチ,HIWADAMACHI,財ノ木原,37.444164,140.383272
富久山町八山田,フクヤママチヤツヤマダ,FUKUYAMAMACHI YATSUYAMADA,向作,37.428227,140.382938
富久山町八山田,フクヤママチヤツヤマダ,FUKUYAMAMACHI YATSUYAMADA,八蒔山,37.430357,140.38341
日和田町高倉,ヒワダマチタカクラ,HIWADAMACHI TAKAKURA,遠新田,37.458539,140.38316
富久山町久保田,フクヤママチクボタ,FUKUYAMAMACHI KUBOTA,金堀田,37.411385,140.385657
富久山町八山田,フクヤママチヤツヤマダ,FUKUYAMAMACHI YATSUYAMADA,山道,37.433079,140.386347
富久山町八山田,フクヤママチヤツヤマダ,FUKUYAMAMACHI YATSUYAMADA,土布池,37.42715,140.38553
田村町徳定,タムラマチトクサダ,TAMURAMACHI TOKUSADA,下河原,37.360705,140.385783
富久山町八山田,フクヤママチヤツヤマダ,FUKUYAMAMACHI YATSUYAMADA,勝木沢,37.423907,140.385806
安積町日出山,アサカマチヒデノヤマ,ASAKAMACHI HIDENOYAMA,一本松,37.364652,140.388058
富久山町久保田,フクヤママチクボタ,FUKUYAMAMACHI KUBOTA,上野,37.41203,140.387934
日和田町,ヒワダマチ,HIWADAMACHI,小堰,37.445442,140.388063
日和田町,ヒワダマチ,HIWADAMACHI,仁井町,37.444427,140.384295
富久山町八山田,フクヤママチヤツヤマダ,FUKUYAMAMACHI YATSUYAMADA,一本橋,37.425342,140.384685
日和田町高倉,ヒワダマチタカクラ,HIWADAMACHI TAKAKURA,南,37.457217,140.386302
日和田町,ヒワダマチ,HIWADAMACHI,三河尻,37.443005,140.386057
田村町正直,タムラマチショウジキ,TAMURAMACHI SHOJIKI,西,37.342543,140.387617
田村町正直,タムラマチショウジキ,TAMURAMACHI SHOJIKI,北,37.34482,140.388686
日和田町,ヒワダマチ,HIWADAMACHI,千峯坦,37.439515,140.386351
安積町日出山,アサカマチヒデノヤマ,ASAKAMACHI HIDENOYAMA,神明下,37.366557,140.387245
富久山町久保田,フクヤママチクボタ,FUKUYAMAMACHI KUBOTA,北谷,37.416774,140.38542
富久山町久保田,フクヤママチクボタ,FUKUYAMAMACHI KUBOTA,水口,37.407942,140.387714
田村町金屋,タムラマチカナヤ,TAMURAMACHI KANAYA,上川原,37.368626,140.389204
田村町御代田,タムラマチミヨダ,TAMURAMACHI MIYODA,権現作田,37.338669,140.384135
富久山町久保田,フクヤママチクボタ,FUKUYAMAMACHI KUBOTA,愛宕,37.416929,140.389141
日和田町高倉,ヒワダマチタカクラ,HIWADAMACHI TAKAKURA,庚申向,37.462678,140.388323
富久山町八山田,フクヤママチヤツヤマダ,FUKUYAMAMACHI YATSUYAMADA,前林,37.422075,140.386103
富久山町八山田,フクヤママチヤツヤマダ,FUKUYAMAMACHI YATSUYAMADA,東平作,37.427374,140.388366
田村町正直,タムラマチショウジキ,TAMURAMACHI SHOJIKI,天井田,37.335842,140.39016
富久山町福原,フクヤママチフクハラ,FUKUYAMAMACHI FUKUHARA,福原,37.424249,140.390075
富久山町久保田,フクヤママチクボタ,FUKUYAMAMACHI KUBOTA,山王舘,37.410005,140.387481
富久山町八山田,フクヤママチヤツヤマダ,FUKUYAMAMACHI YATSUYAMADA,北ノ林,37.435409,140.385494
富久山町福原,フクヤママチフクハラ,FUKUYAMAMACHI FUKUHARA,泉崎,37.418878,140.389013
日和田町,ヒワダマチ,HIWADAMACHI,蛇ケ森,37.450119,140.388599
田村町金屋,タムラマチカナヤ,TAMURAMACHI KANAYA,新家,37.371014,140.389458
富久山町八山田,フクヤママチヤツヤマダ,FUKUYAMAMACHI YATSUYAMADA,室ノ前,37.431726,140.386
日和田町,ヒワダマチ,HIWADAMACHI,向山,37.437714,140.390477
富久山町八山田,フクヤママチヤツヤマダ,FUKUYAMAMACHI YATSUYAMADA,山神久保,37.424258,140.38851
日和田町,ヒワダマチ,HIWADAMACHI,沼田,37.447561,140.387029
富久山町八山田,フクヤママチヤツヤマダ,FUKUYAMAMACHI YATSUYAMADA,牛ケ池,37.433027,140.389924
田村町山中,タムラマチサンチュウ,TAMURAMACHI SANCHU,枇杷沢,37.335725,140.395069
日和田町,ヒワダマチ,HIWADAMACHI,姥懐,37.457723,140.389391
田村町正直,タムラマチショウジキ,TAMURAMACHI SHOJIKI,南,37.342246,140.392064
日和田町,ヒワダマチ,HIWADAMACHI,山ノ井,37.457323,140.396162
田村町正直,タムラマチショウジキ,TAMURAMACHI SHOJIKI,蓮沼,37.338832,140.38864
日和田町,ヒワダマチ,HIWADAMACHI,川坂,37.441054,140.389449
日和田町,ヒワダマチ,HIWADAMACHI,背戸,37.446703,140.389152
富久山町八山田,フクヤママチヤツヤマダ,FUKUYAMAMACHI YATSUYAMADA,東永年,37.435792,140.389724
富久山町久保田,フクヤママチクボタ,FUKUYAMAMACHI KUBOTA,久保田,37.411325,140.390545
富久山町八山田,フクヤママチヤツヤマダ,FUKUYAMAMACHI YATSUYAMADA,西永年,37.435076,140.389473
日和田町高倉,ヒワダマチタカクラ,HIWADAMACHI TAKAKURA,蛇石山,37.469331,140.389532
富久山町久保田,フクヤママチクボタ,FUKUYAMAMACHI KUBOTA,池下,37.414822,140.389818
日和田町,ヒワダマチ,HIWADAMACHI,日和田,37.445301,140.390169
富久山町八山田,フクヤママチヤツヤマダ,FUKUYAMAMACHI YATSUYAMADA,手良山,37.422135,140.388802
日和田町高倉,ヒワダマチタカクラ,HIWADAMACHI TAKAKURA,海道下,37.473741,140.390337
安積町日出山,アサカマチヒデノヤマ,ASAKAMACHI HIDENOYAMA,大洲河原,37.363291,140.391269
日和田町,ヒワダマチ,HIWADAMACHI,東河坂,37.439908,140.390274
富久山町久保田,フクヤママチクボタ,FUKUYAMAMACHI KUBOTA,恩田,37.4078,140.390885
日和田町,ヒワダマチ,HIWADAMACHI,榧ノ木作,37.439241,140.390048
田村町金屋,タムラマチカナヤ,TAMURAMACHI KANAYA,下タ川原,37.375756,140.392768
田村町正直,タムラマチショウジキ,TAMURAMACHI SHOJIKI,除古,37.33954,140.39024
田村町金屋,タムラマチカナヤ,TAMURAMACHI KANAYA,マセ口,37.368584,140.391321
田村町大供,タムラマチオオトモ,TAMURAMACHI OTOMO,西原,37.325337,140.392023
富久山町福原,フクヤママチフクハラ,FUKUYAMAMACHI FUKUHARA,惣ケ久保,37.432127,140.394344
日和田町,ヒワダマチ,HIWADAMACHI,三本松,37.451708,140.39335
田村町正直,タムラマチショウジキ,TAMURAMACHI SHOJIKI,日向畑,37.345134,140.391782
日和田町,ヒワダマチ,HIWADAMACHI,日向,37.448404,140.392514
日和田町高倉,ヒワダマチタカクラ,HIWADAMACHI TAKAKURA,上下岸,37.474204,140.391725
田村町守山,タムラマチモリヤマ,TAMURAMACHI MORIYAMA,田向,37.323724,140.39797
日和田町,ヒワダマチ,HIWADAMACHI,寺池,37.438217,140.393452
富久山町久保田,フクヤママチクボタ,FUKUYAMAMACHI KUBOTA,南田,37.405002,140.395326
富久山町福原,フクヤママチフクハラ,FUKUYAMAMACHI FUKUHARA,鎌田,37.418939,140.392738
富久山町福原,フクヤママチフクハラ,FUKUYAMAMACHI FUKUHARA,猪田,37.42119,140.392385
日和田町,ヒワダマチ,HIWADAMACHI,堀込,37.445004,140.393766
田村町上行合,タムラマチカミユキアイ,TAMURAMACHI KAMIYUKIAI,西川原,37.36951,140.394717
富久山町久保田,フクヤママチクボタ,FUKUYAMAMACHI KUBOTA,古町,37.407486,140.394457
田村町金屋,タムラマチカナヤ,TAMURAMACHI KANAYA,根緘,37.359964,140.3912
富久山町福原,フクヤママチフクハラ,FUKUYAMAMACHI FUKUHARA,東,37.424033,140.392658
田村町正直,タムラマチショウジキ,TAMURAMACHI SHOJIKI,新館,37.343533,140.393297
富久山町久保田,フクヤママチクボタ,FUKUYAMAMACHI KUBOTA,我妻,37.415413,140.395823
富久山町久保田,フクヤママチクボタ,FUKUYAMAMACHI KUBOTA,岡ノ城,37.413471,140.393781
富久山町福原,フクヤママチフクハラ,FUKUYAMAMACHI FUKUHARA,境田,37.416887,140.393533
日和田町,ヒワダマチ,HIWADAMACHI,原町,37.446192,140.392804
日和田町高倉,ヒワダマチタカクラ,HIWADAMACHI TAKAKURA,高倉,37.477112,140.395666
富久山町福原,フクヤママチフクハラ,FUKUYAMAMACHI FUKUHARA,一里坦,37.420192,140.392107
富久山町福原,フクヤママチフクハラ,FUKUYAMAMACHI FUKUHARA,町裏,37.427164,140.395605
田村町金屋,タムラマチカナヤ,TAMURAMACHI KANAYA,豆田,37.359006,140.393591
田村町金屋,タムラマチカナヤ,TAMURAMACHI KANAYA,孫右エ門平,37.371799,140.39192
富久山町久保田,フクヤママチクボタ,FUKUYAMAMACHI KUBOTA,前田,37.411011,140.395152
田村町金屋,タムラマチカナヤ,TAMURAMACHI KANAYA,冬室,37.3654,140.395638
田村町上行合,タムラマチカミユキアイ,TAMURAMACHI KAMIYUKIAI,辰ノ尾,37.367116,140.395275
日和田町,ヒワダマチ,HIWADAMACHI,十二,37.443521,140.394301
日和田町高倉,ヒワダマチタカクラ,HIWADAMACHI TAKAKURA,荒池山,37.461824,140.396056
田村町金屋,タムラマチカナヤ,TAMURAMACHI KANAYA,宝蔵,37.360699,140.3944
富久山町福原,フクヤママチフクハラ,FUKUYAMAMACHI FUKUHARA,町田,37.425839,140.396141
富久山町福原,フクヤママチフクハラ,FUKUYAMAMACHI FUKUHARA,一斗蒔田,37.420272,140.394807
富久山町福原,フクヤママチフクハラ,FUKUYAMAMACHI FUKUHARA,水尾沢,37.41835,140.394023
田村町金屋,タムラマチカナヤ,TAMURAMACHI KANAYA,二本木,37.362754,140.394242
田村町金屋,タムラマチカナヤ,TAMURAMACHI KANAYA,水上,37.358408,140.39503
富久山町福原,フクヤママチフクハラ,FUKUYAMAMACHI FUKUHARA,舟橋,37.423454,140.394876
富久山町福原,フクヤママチフクハラ,FUKUYAMAMACHI FUKUHARA,鳴伊賀,37.421718,140.394057
富久山町久保田,フクヤママチクボタ,FUKUYAMAMACHI KUBOTA,本木,37.413298,140.39665
日和田町高倉,ヒワダマチタカクラ,HIWADAMACHI TAKAKURA,地極山,37.466413,140.397518
田村町金屋,タムラマチカナヤ,TAMURAMACHI KANAYA,川久保,37.372485,140.395537
富久山町福原,フクヤママチフクハラ,FUKUYAMAMACHI FUKUHARA,柿内戸,37.424868,140.396075
富久山町福原,フクヤママチフクハラ,FUKUYAMAMACHI FUKUHARA,宝田,37.427965,140.396978
日和田町,ヒワダマチ,HIWADAMACHI,宇類原,37.442718,140.396955
田村町金屋,タムラマチカナヤ,TAMURAMACHI KANAYA,漆保,37.361975,140.396115
富久山町福原,フクヤママチフクハラ,FUKUYAMAMACHI FUKUHARA,鶴番,37.42328,140.39603
日和田町梅沢,ヒワダマチウメザワ,HIWADAMACHI UMEZAWA,鳥喰原,37.45808,140.398143
富久山町福原,フクヤママチフクハラ,FUKUYAMAMACHI FUKUHARA,三斗蒔田,37.418732,140.396273
日和田町高倉,ヒワダマチタカクラ,HIWADAMACHI TAKAKURA,町裏,37.480169,140.397728
田村町山中,タムラマチサンチュウ,TAMURAMACHI SANCHU,団子田,37.335933,140.399142
田村町金屋,タムラマチカナヤ,TAMURAMACHI KANAYA,平舘,37.359286,140.397074
田村町上行合,タムラマチカミユキアイ,TAMURAMACHI KAMIYUKIAI,南川田,37.369065,140.397591
田村町金屋,タムラマチカナヤ,TAMURAMACHI KANAYA,杉ノ宮,37.359163,140.400465
富久山町久保田,フクヤママチクボタ,FUKUYAMAMACHI KUBOTA,太郎殿前,37.406591,140.399068
田村町大善寺,タムラマチダイゼンジ,TAMURAMACHI DAIZENJI,割府,37.351366,140.397453
富久山町福原,フクヤママチフクハラ,FUKUYAMAMACHI FUKUHARA,前物打,37.421662,140.398175
日和田町,ヒワダマチ,HIWADAMACHI,長岡,37.45235,140.393894
日和田町,ヒワダマチ,HIWADAMACHI,深沢,37.437294,140.399682
田村町上行合,タムラマチカミユキアイ,TAMURAMACHI KAMIYUKIAI,北川田,37.370203,140.399258
田村町岩作,タムラマチガンザク,TAMURAMACHI GANZAKU,三堂平,37.333276,140.399921
富久山町久保田,フクヤママチクボタ,FUKUYAMAMACHI KUBOTA,宮田,37.410258,140.399478
富久山町福原,フクヤママチフクハラ,FUKUYAMAMACHI FUKUHARA,中之内,37.415208,140.397715
田村町金屋,タムラマチカナヤ,TAMURAMACHI KANAYA,荻ノ久保,37.361754,140.397172
富久山町久保田,フクヤママチクボタ,FUKUYAMAMACHI KUBOTA,下河原,37.405027,140.399878
日和田町,ヒワダマチ,HIWADAMACHI,一ツ坦,37.448495,140.399541
富久山町福原,フクヤママチフクハラ,FUKUYAMAMACHI FUKUHARA,鳴神,37.425302,140.398875
富久山町福原,フクヤママチフクハラ,FUKUYAMAMACHI FUKUHARA,塩島,37.417944,140.39803
富久山町福原,フクヤママチフクハラ,FUKUYAMAMACHI FUKUHARA,左内,37.431211,140.400588
田村町大善寺,タムラマチダイゼンジ,TAMURAMACHI DAIZENJI,前畑,37.355249,140.399291
田村町守山,タムラマチモリヤマ,TAMURAMACHI MORIYAMA,カカヤ坦,37.333161,140.403489
田村町守山,タムラマチモリヤマ,TAMURAMACHI MORIYAMA,彌明,37.325926,140.403164
田村町大善寺,タムラマチダイゼンジ,TAMURAMACHI DAIZENJI,上新屋敷,37.350754,140.400484
富久山町福原,フクヤママチフクハラ,FUKUYAMAMACHI FUKUHARA,戸屋,37.423455,140.40165
田村町大善寺,タムラマチダイゼンジ,TAMURAMACHI DAIZENJI,中新屋敷,37.352249,140.400097
日和田町梅沢,ヒワダマチウメザワ,HIWADAMACHI UMEZAWA,衛門次郎原,37.4543,140.402526
日和田町,ヒワダマチ,HIWADAMACHI,大窪,37.450337,140.39925
田村町上行合,タムラマチカミユキアイ,TAMURAMACHI KAMIYUKIAI,下川原,37.370723,140.402164
富久山町福原,フクヤママチフクハラ,FUKUYAMAMACHI FUKUHARA,五斗蒔田,37.421753,140.400213
富久山町福原,フクヤママチフクハラ,FUKUYAMAMACHI FUKUHARA,神明,37.422156,140.401252
日和田町,ヒワダマチ,HIWADAMACHI,東八ツ田,37.443156,140.401805
日和田町高倉,ヒワダマチタカクラ,HIWADAMACHI TAKAKURA,南田山,37.477123,140.405113
日和田町梅沢,ヒワダマチウメザワ,HIWADAMACHI UMEZAWA,中森,37.458665,140.403299
日和田町梅沢,ヒワダマチウメザワ,HIWADAMACHI UMEZAWA,池頭,37.456711,140.402904
富久山町福原,フクヤママチフクハラ,FUKUYAMAMACHI FUKUHARA,西原,37.426705,140.400865
田村町大善寺,タムラマチダイゼンジ,TAMURAMACHI DAIZENJI,戸屋,37.353215,140.400404
日和田町八丁目,ヒワダマチ 8,HIWADAMACHI 8,仲鹿島後,37.434541,140.406902
富久山町福原,フクヤママチフクハラ,FUKUYAMAMACHI FUKUHARA,中田,37.425303,140.40258
日和田町高倉,ヒワダマチタカクラ,HIWADAMACHI TAKAKURA,東,37.473832,140.400152
田村町山中,タムラマチサンチュウ,TAMURAMACHI SANCHU,鬼越,37.343603,140.404718
田村町大善寺,タムラマチダイゼンジ,TAMURAMACHI DAIZENJI,上野,37.350854,140.40294
田村町上行合,タムラマチカミユキアイ,TAMURAMACHI KAMIYUKIAI,沢向,37.361621,140.404936
田村町大善寺,タムラマチダイゼンジ,TAMURAMACHI DAIZENJI,宿,37.357299,140.401476
田村町大善寺,タムラマチダイゼンジ,TAMURAMACHI DAIZENJI,東,37.354303,140.400405
富久山町福原,フクヤママチフクハラ,FUKUYAMAMACHI FUKUHARA,釜沼,37.41512,140.403207
田村町大善寺,タムラマチダイゼンジ,TAMURAMACHI DAIZENJI,上野代,37.351296,140.401348
田村町大善寺,タムラマチダイゼンジ,TAMURAMACHI DAIZENJI,羽黒堂,37.352452,140.409156
田村町下行合,タムラマチシモユキアイ,TAMURAMACHI SHIMOYUKIAI,田ノ保下,37.374226,140.40326
富久山町久保田,フクヤママチクボタ,FUKUYAMAMACHI KUBOTA,古坦,37.406191,140.404002
富久山町福原,フクヤママチフクハラ,FUKUYAMAMACHI FUKUHARA,東苗内,37.41671,140.401914
日和田町高倉,ヒワダマチタカクラ,HIWADAMACHI TAKAKURA,梅沢道,37.472576,140.404284
富久山町福原,フクヤママチフクハラ,FUKUYAMAMACHI FUKUHARA,亀ノ子田,37.428975,140.403857
富久山町福原,フクヤママチフクハラ,FUKUYAMAMACHI FUKUHARA,陣場,37.41835,140.406764
富久山町久保田,フクヤママチクボタ,FUKUYAMAMACHI KUBOTA,郷花,37.41031,140.402859
日和田町高倉,ヒワダマチタカクラ,HIWADAMACHI TAKAKURA,南台,37.478799,140.404378
富久山町福原,フクヤママチフクハラ,FUKUYAMAMACHI FUKUHARA,竹ノ内,37.427374,140.405449
日和田町,ヒワダマチ,HIWADAMACHI,重福礼,37.442843,140.4048
富久山町福原,フクヤママチフクハラ,FUKUYAMAMACHI FUKUHARA,白石田,37.432562,140.408347
富久山町久保田,フクヤママチクボタ,FUKUYAMAMACHI KUBOTA,石鼻,37.413396,140.403973
田村町守山,タムラマチモリヤマ,TAMURAMACHI MORIYAMA,権現檀,37.31832,140.403481
田村町岩作,タムラマチガンザク,TAMURAMACHI GANZAKU,駒形,37.315383,140.40872
富久山町福原,フクヤママチフクハラ,FUKUYAMAMACHI FUKUHARA,大師前,37.42264,140.405305
田村町上行合,タムラマチカミユキアイ,TAMURAMACHI KAMIYUKIAI,亀河内,37.364621,140.406677
富久山町久保田,フクヤママチクボタ,FUKUYAMAMACHI KUBOTA,中台,37.410541,140.40504
富久山町福原,フクヤママチフクハラ,FUKUYAMAMACHI FUKUHARA,本町,37.425886,140.406264
田村町上行合,タムラマチカミユキアイ,TAMURAMACHI KAMIYUKIAI,宮耕地,37.366993,140.405053
富久山町福原,フクヤママチフクハラ,FUKUYAMAMACHI FUKUHARA,大塚,37.423762,140.406132
日和田町高倉,ヒワダマチタカクラ,HIWADAMACHI TAKAKURA,僧ケ坂,37.479686,140.405442
田村町山中,タムラマチサンチュウ,TAMURAMACHI SANCHU,本郷,37.338,140.408853
日和田町八丁目,ヒワダマチ 8,HIWADAMACHI 8,深谷,37.441402,140.406063
日和田町,ヒワダマチ,HIWADAMACHI,岩井,37.452095,140.405676
日和田町梅沢,ヒワダマチウメザワ,HIWADAMACHI UMEZAWA,江向山,37.457912,140.40825
富久山町福原,フクヤママチフクハラ,FUKUYAMAMACHI FUKUHARA,山中,37.429805,140.409137
田村町岩作,タムラマチガンザク,TAMURAMACHI GANZAKU,小人町,37.326186,140.407754
日和田町高倉,ヒワダマチタカクラ,HIWADAMACHI TAKAKURA,上萱沼,37.470701,140.407572
日和田町梅沢,ヒワダマチウメザワ,HIWADAMACHI UMEZAWA,古屋敷,37.461277,140.407276
日和田町八丁目,ヒワダマチ 8,HIWADAMACHI 8,馬番坦,37.444028,140.40775
田村町下行合,タムラマチシモユキアイ,TAMURAMACHI SHIMOYUKIAI,上河原,37.380968,140.407314
日和田町梅沢,ヒワダマチウメザワ,HIWADAMACHI UMEZAWA,新屋敷,37.460963,140.408906
富久山町福原,フクヤママチフクハラ,FUKUYAMAMACHI FUKUHARA,道ノ窪,37.421156,140.407949
田村町下行合,タムラマチシモユキアイ,TAMURAMACHI SHIMOYUKIAI,船場前,37.379348,140.407461
田村町上行合,タムラマチカミユキアイ,TAMURAMACHI KAMIYUKIAI,艮耕地,37.366395,140.410131
田村町大善寺,タムラマチダイゼンジ,TAMURAMACHI DAIZENJI,中山田,37.345916,140.408411
富久山町福原,フクヤママチフクハラ,FUKUYAMAMACHI FUKUHARA,古戸,37.427748,140.407945
日和田町梅沢,ヒワダマチウメザワ,HIWADAMACHI UMEZAWA,唐沢,37.454048,140.408379
日和田町八丁目,ヒワダマチ 8,HIWADAMACHI 8,椚山,37.45263,140.409808
田村町守山,タムラマチモリヤマ,TAMURAMACHI MORIYAMA,西河原,37.331813,140.408513
田村町下行合,タムラマチシモユキアイ,TAMURAMACHI SHIMOYUKIAI,御膳前,37.381942,140.408095
日和田町八丁目,ヒワダマチ 8,HIWADAMACHI 8,戸ノ内,37.434495,140.410201
田村町岩作,タムラマチガンザク,TAMURAMACHI GANZAKU,西川原,37.328949,140.407938
田村町下行合,タムラマチシモユキアイ,TAMURAMACHI SHIMOYUKIAI,根柄巻,37.378525,140.409525
富久山町南小泉,フクヤママチミナミコイズミ,FUKUYAMAMACHI MINAMIKOIZUMI,石舟,37.421127,140.417822
阿久津町,アクツマチ,AKUTSUMACHI,六溜,37.406713,140.410766
田村町下行合,タムラマチシモユキアイ,TAMURAMACHI SHIMOYUKIAI,宮田,37.369703,140.412523
田村町小川,タムラマチコガワ,TAMURAMACHI KOGAWA,上野,37.343026,140.410832
田村町小川,タムラマチコガワ,TAMURAMACHI KOGAWA,下田,37.350275,140.412648
田村町守山,タムラマチモリヤマ,TAMURAMACHI MORIYAMA,中町,37.33032,140.410267
田村町上行合,タムラマチカミユキアイ,TAMURAMACHI KAMIYUKIAI,北山田,37.365126,140.411454
日和田町高倉,ヒワダマチタカクラ,HIWADAMACHI TAKAKURA,下萱沼,37.480101,140.409362
日和田町高倉,ヒワダマチタカクラ,HIWADAMACHI TAKAKURA,下前田,37.477801,140.410001
日和田町梅沢,ヒワダマチウメザワ,HIWADAMACHI UMEZAWA,一反田,37.456292,140.41094
田村町下行合,タムラマチシモユキアイ,TAMURAMACHI SHIMOYUKIAI,古道内,37.377558,140.409851
田村町守山,タムラマチモリヤマ,TAMURAMACHI MORIYAMA,小性町,37.334649,140.409522
田村町下行合,タムラマチシモユキアイ,TAMURAMACHI SHIMOYUKIAI,前田,37.375902,140.409696
日和田町八丁目,ヒワダマチ 8,HIWADAMACHI 8,門前,37.436875,140.411707
田村町小川,タムラマチコガワ,TAMURAMACHI KOGAWA,後田,37.357891,140.418002
阿久津町,アクツマチ,AKUTSUMACHI,大闇,37.403765,140.411957
田村町下行合,タムラマチシモユキアイ,TAMURAMACHI SHIMOYUKIAI,朝日舞,37.375788,140.412147
富久山町福原,フクヤママチフクハラ,FUKUYAMAMACHI FUKUHARA,上台,37.420522,140.411312
田村町下行合,タムラマチシモユキアイ,TAMURAMACHI SHIMOYUKIAI,石山田,37.381127,140.412254
田村町守山,タムラマチモリヤマ,TAMURAMACHI MORIYAMA,上河原,37.327448,140.411274
富久山町福原,フクヤママチフクハラ,FUKUYAMAMACHI FUKUHARA,水穴,37.424167,140.411539
阿久津町,アクツマチ,AKUTSUMACHI,舘側,37.408776,140.412255
日和田町梅沢,ヒワダマチウメザワ,HIWADAMACHI UMEZAWA,上台,37.461707,140.412533
大平町,オオダイラマチ,ODAIRAMACHI,御前田,37.383752,140.413122
田村町山中,タムラマチサンチュウ,TAMURAMACHI SANCHU,上野,37.341482,140.410133
田村町守山,タムラマチモリヤマ,TAMURAMACHI MORIYAMA,殿町,37.330712,140.412017
田村町岩作,タムラマチガンザク,TAMURAMACHI GANZAKU,唐松,37.320188,140.414035
安原町,ヤスハラマチ,YASUHARAMACHI,古屋敷,37.402573,140.412063
安原町,ヤスハラマチ,YASUHARAMACHI,安原,37.397804,140.41356
日和田町梅沢,ヒワダマチウメザワ,HIWADAMACHI UMEZAWA,丹波山,37.458581,140.413652
阿久津町,アクツマチ,AKUTSUMACHI,久保,37.406654,140.412421
日和田町梅沢,ヒワダマチウメザワ,HIWADAMACHI UMEZAWA,一反田原,37.455973,140.412906
安原町,ヤスハラマチ,YASUHARAMACHI,宮ノ後,37.39984,140.413462
田村町岩作,タムラマチガンザク,TAMURAMACHI GANZAKU,穂多礼,37.324957,140.413455
阿久津町,アクツマチ,AKUTSUMACHI,下田後,37.413321,140.414311
田村町小川,タムラマチコガワ,TAMURAMACHI KOGAWA,山田,37.346905,140.413525
田村町手代木,タムラマチテシロギ,TAMURAMACHI TESHIROGI,舘,37.362212,140.414917
阿久津町,アクツマチ,AKUTSUMACHI,富士坊,37.403955,140.41344
田村町小川,タムラマチコガワ,TAMURAMACHI KOGAWA,角生内,37.347507,140.414702
日和田町梅沢,ヒワダマチウメザワ,HIWADAMACHI UMEZAWA,田向,37.46168,140.413597
日和田町八丁目,ヒワダマチ 8,HIWADAMACHI 8,葭池,37.449711,140.41564
田村町山中,タムラマチサンチュウ,TAMURAMACHI SANCHU,東山田,37.340773,140.414087
日和田町梅沢,ヒワダマチウメザワ,HIWADAMACHI UMEZAWA,東,37.462299,140.414453
日和田町八丁目,ヒワダマチ 8,HIWADAMACHI 8,北ノ脇,37.439356,140.413965
阿久津町,アクツマチ,AKUTSUMACHI,続,37.409677,140.415643
日和田町梅沢,ヒワダマチウメザワ,HIWADAMACHI UMEZAWA,上大坦,37.455343,140.414065
田村町岩作,タムラマチガンザク,TAMURAMACHI GANZAKU,東作田,37.316907,140.41499
横川町,ヨコカワマチ,YOKOKAWAMACHI,横川,37.388121,140.416452
横川町,ヨコカワマチ,YOKOKAWAMACHI,前,37.387489,140.414729
田村町小川,タムラマチコガワ,TAMURAMACHI KOGAWA,岡市,37.348957,140.415718
田村町上行合,タムラマチカミユキアイ,TAMURAMACHI KAMIYUKIAI,中山田,37.364361,140.41544
大平町,オオダイラマチ,ODAIRAMACHI,後田,37.381817,140.417208
日和田町八丁目,ヒワダマチ 8,HIWADAMACHI 8,根岸,37.439099,140.416993
田村町小川,タムラマチコガワ,TAMURAMACHI KOGAWA,舘,37.351451,140.417413
田村町小川,タムラマチコガワ,TAMURAMACHI KOGAWA,田中,37.354625,140.418397
田村町岩作,タムラマチガンザク,TAMURAMACHI GANZAKU,坂ノ上,37.324351,140.416312
富久山町北小泉,フクヤママチキタコイズミ,FUKUYAMAMACHI KITAKOIZUMI,清水,37.42479,140.416525
日和田町八丁目,ヒワダマチ 8,HIWADAMACHI 8,市坪,37.452637,140.416938
田村町手代木,タムラマチテシロギ,TAMURAMACHI TESHIROGI,森内,37.360395,140.416702
日和田町梅沢,ヒワダマチウメザワ,HIWADAMACHI UMEZAWA,稲荷山,37.462604,140.416008
阿久津町,アクツマチ,AKUTSUMACHI,南小,37.399419,140.418618
田村町手代木,タムラマチテシロギ,TAMURAMACHI TESHIROGI,三斗蒔,37.364634,140.417199
富久山町北小泉,フクヤママチキタコイズミ,FUKUYAMAMACHI KITAKOIZUMI,前田,37.423439,140.416182
安原町,ヤスハラマチ,YASUHARAMACHI,谷津,37.397009,140.416357
田村町手代木,タムラマチテシロギ,TAMURAMACHI TESHIROGI,妻見塚,37.359147,140.416919
大平町,オオダイラマチ,ODAIRAMACHI,中道,37.378028,140.417867
阿久津町,アクツマチ,AKUTSUMACHI,前田,37.407609,140.415874
中田町赤沼,ナカタマチアカヌマ,NAKATAMACHI AKANUMA,下永田,37.377082,140.418664
日和田町梅沢,ヒワダマチウメザワ,HIWADAMACHI UMEZAWA,五葉山,37.459798,140.418635
富久山町北小泉,フクヤママチキタコイズミ,FUKUYAMAMACHI KITAKOIZUMI,屋敷添,37.425526,140.417837
田村町大供,タムラマチオオトモ,TAMURAMACHI OTOMO,愛宕前,37.331901,140.417637
富久山町北小泉,フクヤママチキタコイズミ,FUKUYAMAMACHI KITAKOIZUMI,屋敷内,37.424242,140.418806
富久山町南小泉,フクヤママチミナミコイズミ,FUKUYAMAMACHI MINAMIKOIZUMI,川原,37.420812,140.417324
富久山町北小泉,フクヤママチキタコイズミ,FUKUYAMAMACHI KITAKOIZUMI,儘田,37.428996,140.423172
日和田町八丁目,ヒワダマチ 8,HIWADAMACHI 8,田上,37.443083,140.419618
田村町守山,タムラマチモリヤマ,TAMURAMACHI MORIYAMA,湯ノ川,37.312826,140.417343
田村町大供,タムラマチオオトモ,TAMURAMACHI OTOMO,本地,37.329991,140.418059
田村町小川,タムラマチコガワ,TAMURAMACHI KOGAWA,戸ノ内,37.350631,140.419293
日和田町八丁目,ヒワダマチ 8,HIWADAMACHI 8,仲頃,37.440767,140.417895
田村町大供,タムラマチオオトモ,TAMURAMACHI OTOMO,向,37.32749,140.419162
富久山町南小泉,フクヤママチミナミコイズミ,FUKUYAMAMACHI MINAMIKOIZUMI,江下,37.420036,140.418731
富久山町北小泉,フクヤママチキタコイズミ,FUKUYAMAMACHI KITAKOIZUMI,樋鼻,37.423193,140.41953
日和田町梅沢,ヒワダマチウメザワ,HIWADAMACHI UMEZAWA,向田,37.460796,140.418531
富久山町南小泉,フクヤママチミナミコイズミ,FUKUYAMAMACHI MINAMIKOIZUMI,関場,37.420978,140.423364
富久山町北小泉,フクヤママチキタコイズミ,FUKUYAMAMACHI KITAKOIZUMI,荒屋敷,37.427631,140.418825
田村町小川,タムラマチコガワ,TAMURAMACHI KOGAWA,石淵,37.354017,140.426281
田村町大供,タムラマチオオトモ,TAMURAMACHI OTOMO,坂ノ上,37.331669,140.420678
富久山町堂坂,フクヤママチドウザカ,FUKUYAMAMACHI DOZAKA,表,37.431345,140.419795
中田町赤沼,ナカタマチアカヌマ,NAKATAMACHI AKANUMA,杉並,37.370353,140.424084
日和田町梅沢,ヒワダマチウメザワ,HIWADAMACHI UMEZAWA,仲平,37.462406,140.419692
日和田町梅沢,ヒワダマチウメザワ,HIWADAMACHI UMEZAWA,後田,37.461694,140.418912
富久山町堂坂,フクヤママチドウザカ,FUKUYAMAMACHI DOZAKA,堂坂,37.432613,140.419965
富久山町南小泉,フクヤママチミナミコイズミ,FUKUYAMAMACHI MINAMIKOIZUMI,東台,37.419852,140.420876
田村町手代木,タムラマチテシロギ,TAMURAMACHI TESHIROGI,舛内,37.361589,140.419396
中田町赤沼,ナカタマチアカヌマ,NAKATAMACHI AKANUMA,中井田,37.369777,140.420398
田村町金沢,タムラマチカネザワ,TAMURAMACHI KANEZAWA,仲原,37.336337,140.423924
阿久津町,アクツマチ,AKUTSUMACHI,石橋,37.409316,140.420873
富久山町南小泉,フクヤママチミナミコイズミ,FUKUYAMAMACHI MINAMIKOIZUMI,江ノ上,37.415949,140.420074
横川町,ヨコカワマチ,YOKOKAWAMACHI,大谷地,37.391811,140.422583
安原町,ヤスハラマチ,YASUHARAMACHI,大谷地,37.394363,140.419301
富久山町堂坂,フクヤママチドウザカ,FUKUYAMAMACHI DOZAKA,寺代,37.430954,140.423549
田村町手代木,タムラマチテシロギ,TAMURAMACHI TESHIROGI,四十坦,37.364283,140.420737
田村町大供,タムラマチオオトモ,TAMURAMACHI OTOMO,神明前,37.329866,140.421848
日和田町八丁目,ヒワダマチ 8,HIWADAMACHI 8,向市坪,37.450737,140.420633
日和田町八丁目,ヒワダマチ 8,HIWADAMACHI 8,黒磯,37.445228,140.42256
田村町手代木,タムラマチテシロギ,TAMURAMACHI TESHIROGI,鴨打,37.362644,140.421422
富久山町南小泉,フクヤママチミナミコイズミ,FUKUYAMAMACHI MINAMIKOIZUMI,三道口,37.418934,140.423217
田村町大供,タムラマチオオトモ,TAMURAMACHI OTOMO,堀込,37.326074,140.422897
下白岩町,シモシライワマチ,SHIMOSHIRAIWAMACHI,竹下,37.399022,140.423433
富久山町堂坂,フクヤママチドウザカ,FUKUYAMAMACHI DOZAKA,岩ヶ作,37.433664,140.422087
富久山町堂坂,フクヤママチドウザカ,FUKUYAMAMACHI DOZAKA,中森,37.432091,140.422042
舞木町,モウギマチ,MOGIMACHI,別所,37.41253,140.424785
富久山町北小泉,フクヤママチキタコイズミ,FUKUYAMAMACHI KITAKOIZUMI,山中,37.423789,140.425239
中田町高倉,ナカタマチタカクラ,NAKATAMACHI TAKAKURA,深作,37.365923,140.425265
中田町赤沼,ナカタマチアカヌマ,NAKATAMACHI AKANUMA,大島,37.36888,140.423041
日和田町八丁目,ヒワダマチ 8,HIWADAMACHI 8,西坂口,37.446474,140.422441
富久山町堂坂,フクヤママチドウザカ,FUKUYAMAMACHI DOZAKA,夢田,37.435349,140.424214
富久山町南小泉,フクヤママチミナミコイズミ,FUKUYAMAMACHI MINAMIKOIZUMI,梶内,37.415573,140.422548
西田町根木屋,ニシタマチネギヤ,NISHITAMACHI NEGIYA,曲木沢,37.436796,140.425071
田村町金沢,タムラマチカネザワ,TAMURAMACHI KANEZAWA,豆田,37.335169,140.427682
田村町金沢,タムラマチカネザワ,TAMURAMACHI KANEZAWA,行人坦,37.342648,140.424523
西田町芹沢,ニシタマチセリサワ,NISHITAMACHI SERISAWA,下田,37.439526,140.425731
大平町,オオダイラマチ,ODAIRAMACHI,大平,37.382629,140.423841
富久山町堂坂,フクヤママチドウザカ,FUKUYAMAMACHI DOZAKA,堂後,37.433768,140.424408
西田町芹沢,ニシタマチセリサワ,NISHITAMACHI SERISAWA,川前,37.442634,140.427885
田村町大供,タムラマチオオトモ,TAMURAMACHI OTOMO,四十坦,37.324723,140.425958
下白岩町,シモシライワマチ,SHIMOSHIRAIWAMACHI,吉池,37.400625,140.428437
中田町赤沼,ナカタマチアカヌマ,NAKATAMACHI AKANUMA,赤沼,37.371914,140.428693
蒲倉町,カバクラマチ,KABAKURAMACHI,蒲倉,37.392498,140.433776
舞木町,モウギマチ,MOGIMACHI,間明田,37.419546,140.425643
下白岩町,シモシライワマチ,SHIMOSHIRAIWAMACHI,宮後,37.394145,140.425736
蒲倉町,カバクラマチ,KABAKURAMACHI,宮の前,37.389863,140.426763
中田町赤沼,ナカタマチアカヌマ,NAKATAMACHI AKANUMA,瀬戸,37.372958,140.427753
下白岩町,シモシライワマチ,SHIMOSHIRAIWAMACHI,中木田,37.410955,140.428372
田村町金沢,タムラマチカネザワ,TAMURAMACHI KANEZAWA,小枝,37.341574,140.4258
舞木町,モウギマチ,MOGIMACHI,正神平,37.4183,140.428913
蒲倉町,カバクラマチ,KABAKURAMACHI,広表,37.392293,140.429107
田村町金沢,タムラマチカネザワ,TAMURAMACHI KANEZAWA,三斗蒔,37.339188,140.427924
西田町三町目,ニシタマチサンチョウメ,NISHITAMACHI SANCHOME,小和滝,37.443891,140.427301
中田町高倉,ナカタマチタカクラ,NAKATAMACHI TAKAKURA,蟹沢,37.366766,140.427977
舞木町,モウギマチ,MOGIMACHI,四合田,37.415862,140.428465
田村町金沢,タムラマチカネザワ,TAMURAMACHI KANEZAWA,後田,37.342414,140.431397
田村町金沢,タムラマチカネザワ,TAMURAMACHI KANEZAWA,外堀,37.337646,140.428628
舞木町,モウギマチ,MOGIMACHI,日蔭田,37.419501,140.428349
中田町高倉,ナカタマチタカクラ,NAKATAMACHI TAKAKURA,倉屋敷,37.370032,140.428448
阿久津町,アクツマチ,AKUTSUMACHI,葉ノ木,37.410468,140.428345
下白岩町,シモシライワマチ,SHIMOSHIRAIWAMACHI,宮久保,37.407598,140.429703
田村町金沢,タムラマチカネザワ,TAMURAMACHI KANEZAWA,的場,37.338388,140.430319
下白岩町,シモシライワマチ,SHIMOSHIRAIWAMACHI,宮田,37.403538,140.429709
白岩町,シライワマチ,SHIRAIWAMACHI,柿ノ口,37.410222,140.430672
中田町赤沼,ナカタマチアカヌマ,NAKATAMACHI AKANUMA,細田,37.379304,140.430909
白岩町,シライワマチ,SHIRAIWAMACHI,中ノ内,37.407863,140.433146
舞木町,モウギマチ,MOGIMACHI,福内,37.419156,140.433494
白岩町,シライワマチ,SHIRAIWAMACHI,杉ノ脇,37.40532,140.431305
蒲倉町,カバクラマチ,KABAKURAMACHI,榎台,37.394235,140.4313
蒲倉町,カバクラマチ,KABAKURAMACHI,前田,37.39185,140.433458
白岩町,シライワマチ,SHIRAIWAMACHI,堺之内,37.412867,140.433187
舞木町,モウギマチ,MOGIMACHI,岩ノ作,37.414658,140.433901
田村町金沢,タムラマチカネザワ,TAMURAMACHI KANEZAWA,大久保,37.342177,140.433643
白岩町,シライワマチ,SHIRAIWAMACHI,福田,37.408265,140.434545
中田町赤沼,ナカタマチアカヌマ,NAKATAMACHI AKANUMA,温石平,37.373185,140.43542
白岩町,シライワマチ,SHIRAIWAMACHI,東之内,37.407456,140.439085
蒲倉町,カバクラマチ,KABAKURAMACHI,沢目木,37.391516,140.437521
舞木町,モウギマチ,MOGIMACHI,宮ノ前,37.418456,140.436701
舞木町,モウギマチ,MOGIMACHI,平,37.416955,140.436893
蒲倉町,カバクラマチ,KABAKURAMACHI,東,37.392132,140.437224
中田町高倉,ナカタマチタカクラ,NAKATAMACHI TAKAKURA,大平,37.375191,140.437314
田村町金沢,タムラマチカネザワ,TAMURAMACHI KANEZAWA,高屋敷,37.344232,140.439013
白岩町,シライワマチ,SHIRAIWAMACHI,前若宮,37.411454,140.437844
田村町金沢,タムラマチカネザワ,TAMURAMACHI KANEZAWA,西ノ内,37.34458,140.435795
白岩町,シライワマチ,SHIRAIWAMACHI,後若宮,37.412928,140.438513
中田町高倉,ナカタマチタカクラ,NAKATAMACHI TAKAKURA,下川原,37.373554,140.438494
蒲倉町,カバクラマチ,KABAKURAMACHI,新町,37.395835,140.44039
荒井町,アライマチ,ARAIMACHI,切通,37.390835,140.443507
中田町高倉,ナカタマチタカクラ,NAKATAMACHI TAKAKURA,宮ノ脇,37.371988,140.439882
中田町高倉,ナカタマチタカクラ,NAKATAMACHI TAKAKURA,台,37.375636,140.442883
荒井町,アライマチ,ARAIMACHI,荒井,37.387642,140.4431
中田町高倉,ナカタマチタカクラ,NAKATAMACHI TAKAKURA,下ノ沢,37.370721,140.44389
中田町高倉,ナカタマチタカクラ,NAKATAMACHI TAKAKURA,善明寺,37.362865,140.442987
中田町高倉,ナカタマチタカクラ,NAKATAMACHI TAKAKURA,栗,37.365839,140.443323
中田町高倉,ナカタマチタカクラ,NAKATAMACHI TAKAKURA,萩平,37.375253,140.444102
中田町高倉,ナカタマチタカクラ,NAKATAMACHI TAKAKURA,下羽廣,37.35981,140.443552
中田町高倉,ナカタマチタカクラ,NAKATAMACHI TAKAKURA,竹ノ内,37.362729,140.445391
中田町高倉,ナカタマチタカクラ,NAKATAMACHI TAKAKURA,羽廣,37.360103,140.446832
白岩町,シライワマチ,SHIRAIWAMACHI,草倉内,37.399525,140.446546
白岩町,シライワマチ,SHIRAIWAMACHI,表前,37.403418,140.447511
中田町高倉,ナカタマチタカクラ,NAKATAMACHI TAKAKURA,畑中,37.359773,140.447744
白岩町,シライワマチ,SHIRAIWAMACHI,下舘,37.403391,140.450173
白岩町,シライワマチ,SHIRAIWAMACHI,神田畑,37.405857,140.449689
荒井町,アライマチ,ARAIMACHI,川前,37.384806,140.453074
中田町高倉,ナカタマチタカクラ,NAKATAMACHI TAKAKURA,三渡,37.363649,140.449502
熱海町中山,アタミマチナカヤマ,ATAMIMACHI NAKAYAMA,平石,37.495397,140.244575
熱海町高玉,アタミマチタカタマ,ATAMIMACHI TAKATAMA,水上,37.495019,140.25281
熱海町高玉,アタミマチタカタマ,ATAMIMACHI TAKATAMA,荒戸沢,37.488231,140.267418
熱海町安子島,アタミマチアコガシマ,ATAMIMACHI AKOGASHIMA,荻平,37.479804,140.281209
熱海町高玉,アタミマチタカタマ,ATAMIMACHI TAKATAMA,南泥布沢,37.485951,140.277195
熱海町高玉,アタミマチタカタマ,ATAMIMACHI TAKATAMA,南麻生沢,37.488847,140.279425
熱海町高玉,アタミマチタカタマ,ATAMIMACHI TAKATAMA,大久保,37.494372,140.279167
熱海町高玉,アタミマチタカタマ,ATAMIMACHI TAKATAMA,五斗蒔,37.494605,140.279841
熱海町高玉,アタミマチタカタマ,ATAMIMACHI TAKATAMA,南梨子平,37.496216,140.279291
三穂田町下守屋,ミホタマチシモモリヤ,MIHOTAMACHI SHIMOMORIYA,笄林,37.340919,140.247152
三穂田町下守屋,ミホタマチシモモリヤ,MIHOTAMACHI SHIMOMORIYA,山ノ内,37.342001,140.249094
三穂田町下守屋,ミホタマチシモモリヤ,MIHOTAMACHI SHIMOMORIYA,舘ノ越,37.342413,140.252258
三穂田町富岡,ミホタマチトミオカ,MIHOTAMACHI TOMIOKA,住ノ内,37.347635,140.259678
三穂田町富岡,ミホタマチトミオカ,MIHOTAMACHI TOMIOKA,武士沢,37.361582,140.246781
三穂田町富岡,ミホタマチトミオカ,MIHOTAMACHI TOMIOKA,五方目木,37.358666,140.250524
三穂田町富岡,ミホタマチトミオカ,MIHOTAMACHI TOMIOKA,山王,37.354781,140.257256
三穂田町富岡,ミホタマチトミオカ,MIHOTAMACHI TOMIOKA,金比羅,37.355392,140.251017
三穂田町富岡,ミホタマチトミオカ,MIHOTAMACHI TOMIOKA,北山居,37.352814,140.254768
三穂田町富岡,ミホタマチトミオカ,MIHOTAMACHI TOMIOKA,栗林,37.348783,140.250595
三穂田町富岡,ミホタマチトミオカ,MIHOTAMACHI TOMIOKA,北鍜治内,37.349019,140.265284
三穂田町富岡,ミホタマチトミオカ,MIHOTAMACHI TOMIOKA,南鍜治内,37.348509,140.263749
三穂田町富岡,ミホタマチトミオカ,MIHOTAMACHI TOMIOKA,白山,37.348256,140.263656
三穂田町富岡,ミホタマチトミオカ,MIHOTAMACHI TOMIOKA,道銘,37.351548,140.262386
三穂田町富岡,ミホタマチトミオカ,MIHOTAMACHI TOMIOKA,中屋敷,37.352867,140.263293
三穂田町富岡,ミホタマチトミオカ,MIHOTAMACHI TOMIOKA,蒲沢,37.357767,140.258949
三穂田町富岡,ミホタマチトミオカ,MIHOTAMACHI TOMIOKA,平之允,37.359586,140.258206
三穂田町山口,ミホタマチヤマグチ,MIHOTAMACHI YAMAGUCHI,川底,37.357102,140.263829
三穂田町富岡,ミホタマチトミオカ,MIHOTAMACHI TOMIOKA,田中,37.355458,140.263954
三穂田町富岡,ミホタマチトミオカ,MIHOTAMACHI TOMIOKA,川底,37.356848,140.274773
三穂田町富岡,ミホタマチトミオカ,MIHOTAMACHI TOMIOKA,水神,37.354706,140.265493
三穂田町富岡,ミホタマチトミオカ,MIHOTAMACHI TOMIOKA,鍜治田,37.349516,140.278862
三穂田町鍋山,ミホタマチナベヤマ,MIHOTAMACHI NABEYAMA,人形山,37.340527,140.286289
三穂田町鍋山,ミホタマチナベヤマ,MIHOTAMACHI NABEYAMA,向前,37.343798,140.284386
三穂田町鍋山,ミホタマチナベヤマ,MIHOTAMACHI NABEYAMA,馬谷地,37.345726,140.284425
三穂田町鍋山,ミホタマチナベヤマ,MIHOTAMACHI NABEYAMA,春雨壇,37.344861,140.283403
三穂田町鍋山,ミホタマチナベヤマ,MIHOTAMACHI NABEYAMA,向屋敷,37.345131,140.285497
三穂田町鍋山,ミホタマチナベヤマ,MIHOTAMACHI NABEYAMA,仲屋敷,37.346337,140.284963
三穂田町鍋山,ミホタマチナベヤマ,MIHOTAMACHI NABEYAMA,番所,37.346739,140.291584
三穂田町鍋山,ミホタマチナベヤマ,MIHOTAMACHI NABEYAMA,大学,37.345846,140.291824
三穂田町鍋山,ミホタマチナベヤマ,MIHOTAMACHI NABEYAMA,大学屋敷,37.34598,140.289985
三穂田町鍋山,ミホタマチナベヤマ,MIHOTAMACHI NABEYAMA,西吹付,37.351545,140.286221
三穂田町鍋山,ミホタマチナベヤマ,MIHOTAMACHI NABEYAMA,袋内,37.352174,140.287598
三穂田町鍋山,ミホタマチナベヤマ,MIHOTAMACHI NABEYAMA,番ノ沢山,37.351441,140.289628
三穂田町駒屋,ミホタマチコマヤ,MIHOTAMACHI KOMAYA,阿弥陀,37.354653,140.298223
三穂田町駒屋,ミホタマチコマヤ,MIHOTAMACHI KOMAYA,柏坊,37.356447,140.300115
三穂田町駒屋,ミホタマチコマヤ,MIHOTAMACHI KOMAYA,諏訪前,37.35638,140.297907
三穂田町駒屋,ミホタマチコマヤ,MIHOTAMACHI KOMAYA,戸ノ内,37.358631,140.300602
三穂田町駒屋,ミホタマチコマヤ,MIHOTAMACHI KOMAYA,西畑,37.35981,140.30054
三穂田町駒屋,ミホタマチコマヤ,MIHOTAMACHI KOMAYA,上西ノ内,37.362674,140.299682
三穂田町駒屋,ミホタマチコマヤ,MIHOTAMACHI KOMAYA,上佐武坦,37.36275,140.297174
三穂田町駒屋,ミホタマチコマヤ,MIHOTAMACHI KOMAYA,佐武坦,37.361688,140.29796
三穂田町八幡,ミホタマチヤハタ,MIHOTAMACHI YAHATA,北河原,37.362336,140.290966
三穂田町八幡,ミホタマチヤハタ,MIHOTAMACHI YAHATA,中ノ林,37.360444,140.278341
三穂田町八幡,ミホタマチヤハタ,MIHOTAMACHI YAHATA,兵次郎,37.360415,140.283462
三穂田町八幡,ミホタマチヤハタ,MIHOTAMACHI YAHATA,上ノ台,37.35986,140.286761
三穂田町八幡,ミホタマチヤハタ,MIHOTAMACHI YAHATA,北関場平,37.358243,140.279499
三穂田町富岡,ミホタマチトミオカ,MIHOTAMACHI TOMIOKA,葛幡,37.356414,140.288604
三穂田町八幡,ミホタマチヤハタ,MIHOTAMACHI YAHATA,東山,37.359252,140.29208
三穂田町富岡,ミホタマチトミオカ,MIHOTAMACHI TOMIOKA,南坊ノ坦,37.354883,140.28293
三穂田町富岡,ミホタマチトミオカ,MIHOTAMACHI TOMIOKA,笠田,37.354223,140.277724
三穂田町駒屋,ミホタマチコマヤ,MIHOTAMACHI KOMAYA,土部,37.363624,140.305937
三穂田町駒屋,ミホタマチコマヤ,MIHOTAMACHI KOMAYA,草喰内,37.364592,140.30689
三穂田町駒屋,ミホタマチコマヤ,MIHOTAMACHI KOMAYA,上北ノ内,37.365888,140.305103
三穂田町駒屋,ミホタマチコマヤ,MIHOTAMACHI KOMAYA,地形,37.367087,140.303337
三穂田町大谷,ミホタマチオオヤ,MIHOTAMACHI OYA,東中ノ内,37.372617,140.293009
三穂田町大谷,ミホタマチオオヤ,MIHOTAMACHI OYA,団子林,37.373556,140.291164
三穂田町大谷,ミホタマチオオヤ,MIHOTAMACHI OYA,東入ノ内,37.375076,140.290749
三穂田町山口,ミホタマチヤマグチ,MIHOTAMACHI YAMAGUCHI,作田,37.375852,140.271565
三穂田町山口,ミホタマチヤマグチ,MIHOTAMACHI YAMAGUCHI,山崎山,37.372981,140.278611
三穂田町大谷,ミホタマチオオヤ,MIHOTAMACHI OYA,南蟹沢,37.373958,140.28106
逢瀬町多田野,オウセマチタダノ,OSEMACHI TADANO,広町原,37.382588,140.292527
大槻町,オオツキマチ,OTSUKIMACHI,向大橋,37.384617,140.293689
大槻町,オオツキマチ,OTSUKIMACHI,滑河内,37.387832,140.292746
逢瀬町多田野,オウセマチタダノ,OSEMACHI TADANO,下白石,37.388177,140.291939
逢瀬町多田野,オウセマチタダノ,OSEMACHI TADANO,道下,37.390715,140.286148
大槻町,オオツキマチ,OTSUKIMACHI,矢地内西,37.391789,140.295352
大槻町,オオツキマチ,OTSUKIMACHI,上ノ林,37.392613,140.293052
大槻町,オオツキマチ,OTSUKIMACHI,隠居免,37.392954,140.295328
大槻町,オオツキマチ,OTSUKIMACHI,新町,37.388752,140.306355
大槻町,オオツキマチ,OTSUKIMACHI,中新町,37.388403,140.303378
大槻町,オオツキマチ,OTSUKIMACHI,鷺田,37.38818,140.309516
大槻町,オオツキマチ,OTSUKIMACHI,沢田,37.386876,140.310334
大槻町,オオツキマチ,OTSUKIMACHI,下新町,37.386897,140.307418
大槻町,オオツキマチ,OTSUKIMACHI,西小峯,37.386323,140.30909
大槻町,オオツキマチ,OTSUKIMACHI,寺西,37.388604,140.313305
大槻町,オオツキマチ,OTSUKIMACHI,町裏,37.38895,140.315497
大槻町,オオツキマチ,OTSUKIMACHI,熊野木,37.39018,140.318179
大槻町,オオツキマチ,OTSUKIMACHI,愛宕北,37.384255,140.318005
大槻町,オオツキマチ,OTSUKIMACHI,愛宕,37.382679,140.315204
大槻町,オオツキマチ,OTSUKIMACHI,愛宕東,37.382925,140.317306
大槻町,オオツキマチ,OTSUKIMACHI,清水内前,37.382581,140.324287
安積町荒井,アサカマチアライ,ASAKAMACHI ARAI,東古屋敷,37.37355,140.343692
安積町荒井,アサカマチアライ,ASAKAMACHI ARAI,古屋敷山,37.37234,140.343128
安積町荒井,アサカマチアライ,ASAKAMACHI ARAI,古屋敷,37.373292,140.342734
安積町荒井,アサカマチアライ,ASAKAMACHI ARAI,六兵衛田,37.374198,140.34689
安積町荒井,アサカマチアライ,ASAKAMACHI ARAI,大池北,37.372334,140.349098
安積町荒井,アサカマチアライ,ASAKAMACHI ARAI,東六兵衛田,37.372604,140.349507
安積町荒井,アサカマチアライ,ASAKAMACHI ARAI,林ノ越,37.370881,140.358269
安積町荒井,アサカマチアライ,ASAKAMACHI ARAI,神送段,37.368926,140.350581
安積町荒井,アサカマチアライ,ASAKAMACHI ARAI,麦清水,37.367226,140.349383
三穂田町川田,ミホタマチカワタ,MIHOTAMACHI KAWATA,地蔵橋,37.362222,140.320265
三穂田町川田,ミホタマチカワタ,MIHOTAMACHI KAWATA,新田,37.360177,140.318669
三穂田町川田,ミホタマチカワタ,MIHOTAMACHI KAWATA,西白幡,37.353834,140.323584
三穂田町野田,ミホタマチノダ,MIHOTAMACHI NODA,北田,37.345666,140.303233
三穂田町野田,ミホタマチノダ,MIHOTAMACHI NODA,中沢目,37.344748,140.302965
三穂田町野田,ミホタマチノダ,MIHOTAMACHI NODA,前山,37.341437,140.304908
三穂田町川田,ミホタマチカワタ,MIHOTAMACHI KAWATA,大徳原,37.356147,140.331464
安積町成田,アサカマチナリタ,ASAKAMACHI NARITA,西島坂,37.356769,140.342047
安積町成田,アサカマチナリタ,ASAKAMACHI NARITA,兎田,37.35563,140.338102
安積町成田,アサカマチナリタ,ASAKAMACHI NARITA,葉ノ木山,37.355911,140.34712
安積町成田,アサカマチナリタ,ASAKAMACHI NARITA,塊切山,37.356101,140.349953
安積町成田,アサカマチナリタ,ASAKAMACHI NARITA,大谷地,37.356955,140.351212
安積町笹川,アサカマチササガワ,ASAKAMACHI SASAGAWA,平ノ上,37.353526,140.352317
安積町笹川,アサカマチササガワ,ASAKAMACHI SASAGAWA,滝袋,37.351213,140.353567
安積町笹川,アサカマチササガワ,ASAKAMACHI SASAGAWA,明見前,37.350416,140.35557
安積町笹川,アサカマチササガワ,ASAKAMACHI SASAGAWA,雷堂,37.344814,140.362606
安積町笹川,アサカマチササガワ,ASAKAMACHI SASAGAWA,念仏坦,37.344304,140.367358
安積町笹川,アサカマチササガワ,ASAKAMACHI SASAGAWA,上ノ台,37.343994,140.36927
安積町笹川,アサカマチササガワ,ASAKAMACHI SASAGAWA,道伝,37.343183,140.369912
安積町笹川,アサカマチササガワ,ASAKAMACHI SASAGAWA,陳場,37.345017,140.373181
安積町笹川,アサカマチササガワ,ASAKAMACHI SASAGAWA,東舘,37.350382,140.370322
安積町笹川,アサカマチササガワ,ASAKAMACHI SASAGAWA,高瀬,37.350859,140.36962
田村町御代田,タムラマチミヨダ,TAMURAMACHI MIYODA,川前,37.347308,140.374147
田村町御代田,タムラマチミヨダ,TAMURAMACHI MIYODA,御熊野,37.351612,140.371908
田村町徳定,タムラマチトクサダ,TAMURAMACHI TOKUSADA,深田,37.355318,140.376251
田村町御代田,タムラマチミヨダ,TAMURAMACHI MIYODA,遠北,37.350673,140.37725
田村町御代田,タムラマチミヨダ,TAMURAMACHI MIYODA,天神,37.349815,140.378165
田村町御代田,タムラマチミヨダ,TAMURAMACHI MIYODA,中町後,37.348895,140.376994
田村町御代田,タムラマチミヨダ,TAMURAMACHI MIYODA,六地蔵,37.34614,140.378337
田村町御代田,タムラマチミヨダ,TAMURAMACHI MIYODA,後町,37.344659,140.379695
田村町御代田,タムラマチミヨダ,TAMURAMACHI MIYODA,外城,37.344448,140.37705
田村町御代田,タムラマチミヨダ,TAMURAMACHI MIYODA,淵の上,37.34297,140.376239
田村町御代田,タムラマチミヨダ,TAMURAMACHI MIYODA,月夜田,37.329126,140.37643
田村町御代田,タムラマチミヨダ,TAMURAMACHI MIYODA,一ノ沢,37.33642,140.376919
田村町御代田,タムラマチミヨダ,TAMURAMACHI MIYODA,陣日向,37.33474,140.378801
田村町正直,タムラマチショウジキ,TAMURAMACHI SHOJIKI,物見段,37.335217,140.3859
田村町正直,タムラマチショウジキ,TAMURAMACHI SHOJIKI,竹ノ内,37.340964,140.394774
田村町守山,タムラマチモリヤマ,TAMURAMACHI MORIYAMA,下原,37.339746,140.397608
田村町岩作,タムラマチガンザク,TAMURAMACHI GANZAKU,梅木平,37.317931,140.412912
田村町守山,タムラマチモリヤマ,TAMURAMACHI MORIYAMA,扉田,37.330454,140.406483
田村町守山,タムラマチモリヤマ,TAMURAMACHI MORIYAMA,滑津,37.327175,140.413293
田村町岩作,タムラマチガンザク,TAMURAMACHI GANZAKU,古道,37.325926,140.417732
