name,name_kana,name_romaji,nickname,latitude,longitude
大字湊,,,,37.583361,139.899897
大字熊ノ目,,,,37.551515,139.878096
大字佐野目,,,,37.553234,139.865017
大字勝常,,,,37.563347,139.867818
大字三川,,,,37.574778,139.875997
大字堂畑,,,,37.576,139.866247
大字浜崎,,,,37.587419,139.886179
大字桜町,,,,37.553679,139.898424
大字田川,,,,37.559578,139.882115
大字笈川,,,,37.570705,139.889118
大字清水田,,,,37.556606,139.890665
美田園,ミタゾノ,MITAZONO,,37.56539,139.889301
