name,name_kana,name_romaji,nickname,latitude,longitude
山田町,ヤマダマチ,YAMADAMACHI,,36.95094,140.745109
沼部町,ヌマベマチ,NUMABEMACHI,,36.919154,140.752012
勿来町,ナコソマチ,NAKOSOMACHI ,,36.880757,140.75929
三沢町,ミサワマチ,MISAWAMACHI,,36.904756,140.744629
田人町旅人,タビトマチタビウト,TABITOMACHI TABIUTO,,36.931636,140.636213
泉町下川,イズミマチシモガワ,IZUMIMACHI SHIMOGAWA,,36.932372,140.856366
植田町中央二丁目, 2, 2,,36.920038,140.799642
植田町中央一丁目, 1, 1,,36.918949,140.797687
小名浜,オナハマ,ONAHAMA,,36.944986,140.887341
中岡町五丁目,ナカオカマチ 5,NAKAOKAMACHI 5,,36.919106,140.781987
常磐水野谷町,ジョウバンミズノヤマチ,JOBAN MIZUNOYAMACHI,,37.007005,140.869263
常磐下船尾町,ジョウバンシモフナオマチ,JOBAN SHIMOFUNAOMACHI,,36.99357,140.873513
小名浜島,オナハマシマ,ONAHAMA SHIMA,,36.977597,140.8721
常磐馬玉町,ジョウバンマダママチ,JOBAN MADAMAMACHI,,36.972623,140.863705
泉町本谷,イズミマチホンヤ,IZUMIMACHI HONYA,,36.96767,140.869927
小名浜南富岡,オナハマミナミトミオカ,ONAHAMA MINAMITOMIOKA,,36.960263,140.879624
泉町滝尻,イズミマチタキジリ,IZUMIMACHI TAKIJIRI,,36.949468,140.864292
小浜町,オバママチ,OBAMAMACHI,,36.920275,140.834538
岩間町,イワママチ,IWAMAMACHI,,36.917954,140.817235
東田町,アズマダマチ,AZUMADAMACHI,,36.924343,140.80994
佐糠町東一丁目, 1, 1,,36.919046,140.806693
東田町二丁目,アズマダマチ 2,AZUMADAMACHI 2,,36.921531,140.803209
植田町,ウエダマチ,UEDAMACHI,,36.922148,140.795531
後田町,ウシロダマチ,USHIRODAMACHI,,36.927141,140.785178
中岡町六丁目,ナカオカマチ 6,NAKAOKAMACHI 6,,36.920517,140.784169
富津町,トミツマチ,TOMITSUMACHI,,36.922767,140.770991
中岡町四丁目,ナカオカマチ 4,NAKAOKAMACHI 4,,36.921512,140.780404
遠野町上遠野,トオノマチカトオノ,TONOMACHI KATONO,,37.003099,140.759586
田人町南大平,タビトマチミナミオオダイラ,TABITOMACHIMINAMIODAIRA,,36.92493,140.683982
川部町,カワベマチ,KAWABEMACHI,,36.921194,140.726327
南台一丁目,ミナミダイ 1,MINAMIDAI 1,,36.931837,140.74605
南台四丁目,ミナミダイ 4,MINAMIDAI 4,,36.936692,140.744452
遠野町滝,トオノマチタキ,TONOMACHI TAKI,,36.981029,140.739705
田人町貝泊,タビトマチカイドマリ,TABITOMACHI KAIDOMARI,,37.000612,140.625114
田人町荷路夫,タビトマチニチブ,TABITOMACHI NICHIBU,,36.968511,140.653132
平薄磯,タイラウスイソ,TAIRA USUISO,,37.000687,140.974468
中央台鹿島二丁目,チュウオウダイカシマ 2,CHUODAI KASHIMA 2,,37.001318,140.924772
中央台鹿島三丁目,チュウオウダイカシマ 3,CHUODAI KASHIMA 3,,37.005698,140.921114
常磐三沢町,ジョウバンミサワマチ,JOBAN MISAWAMACHI,,37.003743,140.888574
鹿島町下矢田,カシママチシモヤダ,KASHIMAMACHI SHIMOYADA,,37.004752,140.903493
中央台鹿島一丁目,チュウオウダイカシマ 1,CHUODAI KASHIMA 1,,37.00473,140.913802
中央台高久三丁目,チュウオウダイタカク 3,CHUODAI TAKAKU 3,,37.004929,140.931265
平上山口,タイラカミヤマグチ,TAIRA KAMIYAMAGUCHI,,37.009464,140.94275
平沼ノ内,タイラヌマノウチ,TAIRA NUMANOCHI,,37.009529,140.971985
平中平窪,タイラナカヒラクボ,TAIRA NAKAHIRAKUBO,,37.088694,140.873656
内郷御厩町,ウチゴウミマヤマチ,UCHIGO MIMAYAMACHI,,37.043307,140.873671
内郷御厩町二丁目,ウチゴウミマヤマチ 2,UCHIGO MIMAYAMACHI 2,,37.047514,140.869732
内郷御厩町三丁目,ウチゴウミマヤマチ 3,UCHIGO MIMAYAMACHI 3,,37.049385,140.872285
内郷御台境町,ウチゴウミダイサカイマチ,UCHIGO MIDAISAKAIMACHI,,37.052265,140.859994
好間町下好間,ヨシママチシモヨシマ,YOSHIMAMACHI SHIMOYOSHIMA,,37.059997,140.868119
好間町小谷作,ヨシママチオヤサク,YOSHIMAMACHI OYASAKU,,37.066267,140.867275
好間町今新田,ヨシママチイマニイダ,YOSHIMAMACHI IMANIIDA,,37.066979,140.875453
常磐湯本町,ジョウバンユモトマチ,JOBAN YUMOTOMACHI,,37.01393,140.842509
常磐関船町,ジョウバンセキフネマチ,JOBAN SEKIFUNEMACHI,,36.999039,140.852944
常磐上湯長谷町,ジョウバンカミユナガヤマチ,JOBAN KAMIYUNAGAYAMACHI,,37.007625,140.829617
常磐松が台,ジョウバンマツガダイ,JOBAN MATSUGADAI,,37.003563,140.84236
平上荒川,タイラカミアラカワ,TAIRA KAMIARAKAWA,,37.029315,140.875714
草木台四丁目,クサキダイ 4,KUSAKIDAI 4,,37.017945,140.871031
常磐松久須根町,ジョウバンマツクスネマチ,JOBAN MATSUKUSUNEMACHI,,37.013018,140.886399
草木台三丁目,クサキダイ 3,KUSAKIDAI 3,,37.020239,140.870643
平赤井,タイラアカイ,TAIRA AKAI,,37.090883,140.83285
好間町愛谷,ヨシママチアイヤ,YOSHIMAMACHI AIYA,,37.071945,140.874471
常磐藤原町,ジョウバンフジワラマチ,JOBAN FUJIWARAMACHI,,37.012611,140.799487
渡辺町上釜戸,ワタナベマチカミカマド,WATANABEMACHI KAMIKAMADO,,36.98993,140.78597
三和町合戸,ミワマチゴウド,MIWAMACHI GODO,,37.086923,140.760353
田人町黒田,タビトマチクロダ,TABITOMACHI KURODA,,36.983322,140.696374
遠野町大平,トオノマチオオダイラ,TONOMACHI ODAIRA,,37.018085,140.704152
遠野町根岸,トオノマチネギシ,TONOMACHI NEGISHI,,37.016953,140.736643
遠野町深山田,トオノマチミヤマダ,TONOMACHI MIYAMADA,,37.030625,140.75951
遠野町上根本,トオノマチカミネモト,TONOMACHI KAMINEMOTO,,37.044262,140.733899
四倉町,ヨツクラマチ,YOTSUKURAMACHI,,37.1139,140.981767
四倉町下仁井田,ヨツクラマチシモニイダ,YOTSUKURAMACHI SHIMONIIDA,,37.081962,140.973015
久之浜町末続,ヒサノハママチスエツギ,HISANOHAMAMACHI SUETSUGI,,37.175702,140.983744
四倉町細谷,ヨツクラマチホソヤ,YOTSUKURAMACHI HOSOYA,,37.078984,140.968424
久之浜町金ケ沢,ヒサノハママチカネガサワ,HISANOHAMAMACHI KANEGASAWA,,37.157128,140.992964
久之浜町久之浜,ヒサノハママチヒサノハマ,HISANOHAMAMACHI HISANOHAMA,,37.139067,140.995493
久之浜町田之網,ヒサノハママチタノアミ,HISANOHAMAMACHI TANOAMI,,37.1232,140.989598
四倉町狐塚,ヨツクラマチキツネヅカ,YOTSUKURAMACHI KITSUNEZUKA,,37.093879,140.962918
四倉町大森,ヨツクラマチオオモリ,YOTSUKURAMACHI OMORI,,37.085814,140.957334
平馬目,タイラマノメ,TAIRA MANOME,,37.084342,140.944295
平絹谷,タイラキヌヤ,TAIRA KINUYA,,37.094684,140.917976
平上片寄,タイラカミカタヨセ,TAIRA KAMIKATAYOSE,,37.083485,140.916176
平四ツ波,タイラヨツナミ,TAIRA YOTSUNAMI,,37.083815,140.901128
平下平窪,タイラシモヒラクボ,TAIRA SHIMOHIRAKUBO,,37.08143,140.880115
平中平窪二丁目,タイラナカヒラクボ 2,TAIRA NAKAHIRAKUBO 2,,37.087212,140.878791
平中平窪一丁目,タイラナカヒラクボ 1,TAIRA NAKAHIRAKUBO 1,,37.086641,140.876586
小川町柴原,オガワマチシバハラ,OGAWAMACHI SHIBAHARA,,37.155586,140.87878
小川町関場,オガワマチセキバ,OGAWAMACHI SEKIBA,,37.119665,140.877203
平上平窪,タイラカミヒラクボ,TAIRA KAMIHIRAKUBO,,37.10194,140.886993
好間町北好間,ヨシママチキタヨシマ,YOSHIMAMACHI KITAYOSHIMA,,37.077957,140.82316
小川町上平,オガワマチウワダイラ,OGAWAMACHI UWADAIRA,,37.131335,140.870342
好間町大利,ヨシママチオオリ,YOSHIMAMACHI ORI,,37.074214,140.79546
小川町下小川,オガワマチシモオガワ,OGAWAMACHI SHIMOGAWA,,37.107093,140.871731
三和町上永井,ミワマチカミナガイ,MIWAMACHI KAMINAGAI,,37.155931,140.73211
三和町渡戸,ミワマチワタド,MIWAMACHIWATADO,,37.118719,140.741049
遠野町入遠野,トオノマチイリトオノ,TONOMACHI IRITONO,,37.066261,140.693876
三和町下永井,ミワマチシモナガイ,MIWAMACHI SHIMONAGAI,,37.152746,140.787466
三和町上三坂,ミワマチカミミサカ,MIWAMACHI KAMIMISAKA,,37.17439,140.624831
大久町大久,オオヒサマチオオヒサ,OHISAMACHI OHISA,,37.184308,140.935793
四倉町玉山,ヨツクラマチタマヤマ,YOTSUKURAMACHI TAMAYAMA,,37.144573,140.923961
四倉町八茎,ヨツクラマチヤグキ,YOTSUKURAMACHI YAGUKI,,37.163267,140.902497
小川町上小川,オガワマチカミオガワ,OGAWAMACHI KAMIOGAWA,,37.203075,140.835263
小川町塩田,オガワマチシオダ,OGAWAMACHI SHIODA,,37.159227,140.81923
川前町下桶売,カワマエマチシモオケウリ,KAWAMAEMACHI SHIMOKEURI,,37.259934,140.760707
三和町差塩,ミワマチサイソ,MIWAMACHI SAISO,,37.181884,140.719775
川前町川前,カワマエマチカワマエ,KAWAMAEMACHI KAWAMAE,,37.215858,140.770856
三和町下市萱,ミワマチシモイチガヤ,MIWAMACHI SHIMOICHIGAYA,,37.138459,140.676393
三和町上市萱,ミワマチカミイチガヤ,MIWAMACHI KAMIICHIGAYA,,37.153711,140.650354
三和町中三坂,ミワマチナカミサカ,MIWAMACHI NAKAMISAKA,,37.193737,140.641336
川前町上桶売,カワマエマチカミオケウリ,KAWAMAEMACHI KAMIOKEURI,,37.264925,140.713196
錦町江栗三丁目, 3, 3,,36.91452,140.775971
錦町江栗二丁目, 2, 2,,36.914568,140.77399
錦町中迎三丁目, 3, 3,,36.909418,140.795907
錦町中迎二丁目, 2, 2,,36.907032,140.795121
錦町中迎一丁目, 1, 1,,36.9074,140.792497
錦町中迎四丁目, 4, 4,,36.909849,140.793723
勿来町関田西二丁目, 2, 2,,36.880804,140.786065
勿来町関田西一丁目, 1, 1,,36.882994,140.78547
勿来町窪田町通一丁目, 1, 1,,36.888009,140.770855
勿来町窪田町通二丁目, 2, 2,,36.88891,140.766604
勿来町窪田町通三丁目, 3, 3,,36.890889,140.763535
勿来町窪田町通四丁目, 4, 4,,36.891339,140.760985
植田町本町一丁目, 1, 1,,36.915733,140.796323
植田町南町二丁目, 2, 2,,36.914743,140.801927
植田町南町一丁目, 1, 1,,36.915448,140.799758
植田町本町三丁目, 3, 3,,36.917215,140.801178
植田町本町二丁目, 2, 2,,36.916929,140.798825
錦町江栗一丁目, 1, 1,,36.917861,140.773994
佐糠町三丁目,サヌカマチ 3,SANUKAMACHI 3,,36.909897,140.809968
佐糠町二丁目,サヌカマチ 2,SANUKAMACHI 2,,36.911632,140.807642
佐糠町一丁目,サヌカマチ 1,SANUKAMACHI 1,,36.914675,140.806231
佐糠町東二丁目, 2, 2,,36.916738,140.807583
錦町,ニシキマチ,NISHIKIMACHI,,36.903477,140.799124
佐糠町,サヌカマチ,SANUKAMACHI,,36.911751,140.81352
錦町中央一丁目,ニシキマチチュウオウ 1,NISHIKIMACHI CHUO 1,,36.908117,140.788931
錦町中央三丁目,ニシキマチチュウオウ 3,NISHIKIMACHI CHUO 3,,36.903995,140.7864
錦町中央二丁目,ニシキマチチュウオウ 2,NISHIKIMACHI CHUO 2,,36.906386,140.788327
瀬戸町,セトマチ,SETOMACHI,,36.882241,140.720489
山玉町,ヤマダママチ,YAMADAMAMACHI,,36.902887,140.695145
洋向台三丁目,ヨウコウダイ 3,YOKODAI 3,,36.966647,140.938037
洋向台四丁目,ヨウコウダイ 4,YOKODAI 4,,36.963346,140.931887
洋向台五丁目,ヨウコウダイ 5,YOKODAI 5,,36.963278,140.935811
洋向台二丁目,ヨウコウダイ 2,YOKODAI 2,,36.967341,140.934328
洋向台一丁目,ヨウコウダイ 1,YOKODAI 1,,36.968532,140.937813
折戸,オリト,ORITO,,36.962453,140.952829
中之作,ナカノサク,NAKANOSAKU,,36.960415,140.947695
小名浜下神白,オナハマシモカジロ,ONAHAMA SHIMOKAJIRO,,36.948381,140.923728
湘南台一丁目,ショウナンダイ 1,SHONANDAI 1,,36.959767,140.912655
湘南台二丁目,ショウナンダイ 2,SHONANDAI 2,,36.959523,140.915293
小名浜岡小名四丁目,オナハマオカオナ 4,ONAHAMA OKAONA 4,,36.96299,140.909883
小名浜岡小名一丁目,オナハマオカオナ 1,ONAHAMA OKAONA 1,,36.959414,140.909819
小名浜岡小名三丁目,オナハマオカオナ 3,ONAHAMA OKAONA 3,,36.962888,140.907283
小名浜岡小名二丁目,オナハマオカオナ 2,ONAHAMA OKAONA 2,,36.960078,140.908274
江名,エナ,ENA,,36.971334,140.956617
永崎,ナガサキ,NAGASAKI,,36.962128,140.940809
小名浜上神白,オナハマカミカジロ,ONAHAMA KAMIKAJIRO,,36.969471,140.920103
鹿島町船戸,カシママチフナド,KASHIMAMACHI FUNADO,,36.982029,140.907091
小名浜岡小名,オナハマオカオナ,ONAHAMA OKAONA,,36.966138,140.90693
鹿島町御代,カシママチミヨ,KASHIMAMACHI MIYO,,36.979355,140.899953
小名浜相子島,オナハマアイコシマ,ONAHAMA AIKOSHIMA,,36.974034,140.895461
小名浜大原,オナハマオオハラ,ONAHAMA OHARA,,36.962656,140.890756
小名浜住吉,オナハマスミヨシ,ONAHAMA SUMIYOSHI,,36.974387,140.884698
平豊間,タイラトヨマ,TAIRA TOYOMA,,36.987285,140.958228
鹿島町上蔵持,カシママチカミクラモチ,KASHIMAMACHI KAMIKURAMOCHI,,36.991113,140.931932
鹿島町久保一丁目,カシママチクボ 1,KASHIMAMACHI KUBO 1,,36.99126,140.904753
鹿島町久保二丁目,カシママチクボ 2,KASHIMAMACHI KUBO 2,,36.988951,140.903477
鹿島町久保三丁目,カシママチクボ 3,KASHIMAMACHI KUBO 3,,36.98761,140.902049
鹿島町飯田,カシママチイイダ,KASHIMAMACHI IIDA,,36.989816,140.900262
鹿島町下蔵持,カシママチシモクラモチ,KASHIMAMACHI SHIMOKURAMOCHI,,36.990898,140.915653
鹿島町久保,カシママチクボ,KASHIMAMACHI KUBO,,36.986973,140.908624
鹿島町走熊,カシママチハシリクマ,KASHIMAMACHI HASHIRIKUMA,,36.997461,140.913744
鹿島町米田,カシママチコモダ,KASHIMAMACHI KOMODA,,36.996995,140.903327
小名浜林城,オナハマリンジョウ,ONAHAMA RINJO,,36.985169,140.893995
小名浜玉川町,オナハマタマガワマチ,ONAHAMA TAMAGAWAMACHI,,36.986158,140.882969
小名浜野田,オナハマノダ,ONAHAMA NODA,,36.982624,140.876809
小名浜岩出,オナハマイワデ,ONAHAMA IWADE,,36.989336,140.888185
小名浜金成,オナハマカナリ,ONAHAMA KANARI,,36.99256,140.894829
泉もえぎ台二丁目,イズミモエギダイ 2,IZUMIMOEGIDAI 2,,36.948575,140.846651
泉もえぎ台一丁目,イズミモエギダイ 1,IZUMIMOEGIDAI 1,,36.946156,140.84845
泉もえぎ台三丁目,イズミモエギダイ 3,IZUMIMOEGIDAI 3,,36.947265,140.841773
植田町中央三丁目, 3, 3,,36.923101,140.797546
葉山三丁目,ハヤマ 3,HAYAMA 3,,36.962096,140.870804
葉山一丁目,ハヤマ 1,HAYAMA 1,,36.96431,140.864897
葉山二丁目,ハヤマ 2,HAYAMA 2,,36.964337,140.867691
金山町,カネヤママチ,KANEYAMAMACHI,,36.926661,140.824141
東田町一丁目,アズマダマチ 1,AZUMADAMACHI 1,,36.924218,140.800761
中岡町三丁目,ナカオカマチ 3,NAKAOKAMACHI 3,,36.923296,140.782709
中岡町二丁目,ナカオカマチ 2,NAKAOKAMACHI 2,,36.924161,140.780017
中岡町一丁目,ナカオカマチ 1,NAKAOKAMACHI 1,,36.925527,140.781769
仁井田町,ニイダマチ,NIIDAMACHI,,36.929327,140.775805
南台二丁目,ミナミダイ 2,MINAMIDAI 2,,36.933231,140.751635
泉町三丁目,イズミマチ 3,IZUMIMACHI 3,,36.950978,140.856651
泉町六丁目,イズミマチ 6,IZUMIMACHI 6,,36.945902,140.855932
泉町五丁目,イズミマチ 5,IZUMIMACHI 5,,36.948406,140.855197
泉町四丁目,イズミマチ 4,IZUMIMACHI 4,,36.951329,140.852794
泉町黒須野,イズミマチクロスノ,IZUMIMACHI KUROSUNO,,36.936177,140.836654
石塚町,イシヅカマチ,ISHIZUKAMACHI,,36.931106,140.80721
添野町,ソエノマチ,SOENOMACHI,,36.942809,140.811283
高倉町,タカクラマチ,TAKAKURAMACHI,,36.942097,140.783542
南台三丁目,ミナミダイ 3,MINAMIDAI 3,,36.938586,140.750401
泉町一丁目,イズミマチ 1,IZUMIMACHI 1,,36.954432,140.856787
泉町二丁目,イズミマチ 2,IZUMIMACHI 2,,36.954015,140.852122
泉玉露二丁目,イズミタマツユ 2,IZUMITAMATSUYU 2,,36.956056,140.850667
泉玉露一丁目,イズミタマツユ 1,IZUMITAMATSUYU 1,,36.958326,140.857091
泉玉露三丁目,イズミタマツユ 3,IZUMITAMATSUYU 3,,36.958316,140.853221
泉玉露四丁目,イズミタマツユ 4,IZUMITAMATSUYU 4,,36.958373,140.849407
泉玉露五丁目,イズミタマツユ 5,IZUMITAMATSUYU 5,,36.960614,140.85199
泉ケ丘二丁目,イズミガオカ 2,IZUMIGAOKA 2,,36.96263,140.858012
泉ケ丘一丁目,イズミガオカ 1,IZUMIGAOKA 1,,36.96648,140.857976
泉玉露七丁目,イズミタマツユ 7,IZUMITAMATSUYU 7,,36.95566,140.845514
泉町,イズミマチ,IZUMIMACHI,,36.946223,140.832634
泉玉露六丁目,イズミタマツユ 6,IZUMITAMATSUYU 6,,36.959292,140.845559
泉町玉露,イズミマチタマツユ,IZUMIMACHI TAMATSUYU,,36.962504,140.849618
渡辺町洞,ワタナベマチボラ,WATANABEMACHI BORA,,36.960396,140.841167
常磐岩ケ岡町,ジョウバンイワガオカマチ,JOBAN IWAGAOKAMACHI,,36.978446,140.863956
泉ケ丘三丁目,イズミガオカ 3,IZUMIGAOKA 3,,36.969062,140.858657
常磐長孫町,ジョウバンオサマゴマチ,JOBAN OSAMAGOMACHI,,36.976711,140.855054
中部工業団地,チュウブコウギョウダンチ,CHUBUKOGYODANCHI,,36.969335,140.843893
渡辺町昼野,ワタナベマチヒルノ,WATANABEMACHI HIRUNO,,36.968167,140.835239
渡辺町田部,ワタナベマチタナベ,WATANABEMACHI TANABE,,36.959007,140.830629
渡辺町泉田,ワタナベマチイズミダ,WATANABEMACHI IZUMIDA,,36.972742,140.828511
渡辺町松小屋,ワタナベマチマツゴヤ,WATANABEMACHI MATSUGOYA,,36.956842,140.809939
渡辺町中釜戸,ワタナベマチナカカマド,WATANABEMACHI NAKAKAMADO,,36.966852,140.80629
江畑町,エバタマチ,EBATAMACHI,,36.95164,140.792313
常磐下湯長谷町二丁目,ジョウバンシモユナガヤマチ 2,JOBAN SHIMOYUNAGAYAMACHI 2,,36.990721,140.857687
常磐下湯長谷町三丁目,ジョウバンシモユナガヤマチ 3,JOBAN SHIMOYUNAGAYAMACHI 3,,36.989237,140.857048
常磐西郷町,ジョウバンニシゴウマチ,JOBAN NISHIGOMACHI,,36.984578,140.858473
常磐下湯長谷町一丁目,ジョウバンシモユナガヤマチ 1,JOBAN SHIMOYUNAGAYAMACHI 1,,36.992726,140.85582
常磐下湯長谷町,ジョウバンシモユナガヤマチ,JOBAN SHIMOYUNAGAYAMACHI,,36.992052,140.84874
桜ケ丘二丁目,サクラガオカ 2,SAKURAGAOKA 2,,36.991487,140.841094
桜ケ丘四丁目,サクラガオカ 4,SAKURAGAOKA 4,,36.994208,140.841027
桜ケ丘一丁目,サクラガオカ 1,SAKURAGAOKA 1,,36.99141,140.839495
桜ケ丘三丁目,サクラガオカ 3,SAKURAGAOKA 3,,36.994435,140.839243
常磐白鳥町,ジョウバンシラトリマチ,JOBAN SHIRATORIMACHI,,36.987197,140.843906
中央台高久一丁目,チュウオウダイタカク 1,CHUODAI TAKAKU 1,,37.010552,140.925966
中央台高久四丁目,チュウオウダイタカク 4,CHUODAI TAKAKU 4,,37.012727,140.931001
平北白土,タイラキタシラド,TAIRA KITASHIRADO,,37.05217,140.91606
平南白土二丁目,タイラミナミシラド 2,TAIRA MINAMISHIRADO 2,,37.045626,140.907796
平成二丁目,ヘイセイ 2,HEISEI 2,,37.041681,140.881061
明治団地,メイジダンチ,MEIJIDANCHI,,37.041258,140.888108
平成一丁目,ヘイセイ 1,HEISEI 1,,37.042167,140.883337
小島町一丁目,オジママチ 1,OJIMAMACHI 1,,37.048878,140.881056
内郷御厩町四丁目,ウチゴウミマヤマチ 4,UCHIGO MIMAYAMACHI 4,,37.050952,140.874975
小島町二丁目,オジママチ 2,OJIMAMACHI 2,,37.048403,140.883418
平南白土一丁目,タイラミナミシラド 1,TAIRA MINAMISHIRADO 1,,37.045157,140.903547
内郷小島町,ウチゴウオジママチ,UCHIGO OJIMAMACHI,,37.048561,140.879565
平谷川瀬,タイラヤガワセ,TAIRA YAGAWASE,,37.044154,140.895961
小島町三丁目,オジママチ 3,OJIMAMACHI 3,,37.047926,140.886264
平谷川瀬一丁目,タイラヤガワセ 1,TAIRA YAGAWASE 1,,37.047703,140.890058
平鎌田,タイラカマタ,TAIRA KAMATA,,37.062078,140.91
平沼ノ内諏訪原二丁目,タイラヌマノウチスワハラ 2,TAIRA NUMANOCHISUWAHARA 2,,37.01616,140.969525
平神谷作,タイラカミヤサク,TAIRA KAMIYASAKU,,37.012853,140.959493
中央台高久二丁目,チュウオウダイタカク 2,CHUODAI TAKAKU 2,,37.007543,140.926826
中央台飯野四丁目,チュウオウダイイイノ 4,CHUODAI IINO 4,,37.014446,140.919648
中央台飯野三丁目,チュウオウダイイイノ 3,CHUODAI IINO 3,,37.01544,140.912133
中央台飯野二丁目,チュウオウダイイイノ 2,CHUODAI IINO 2,,37.01219,140.912886
鹿島町鹿島,カシママチカシマ,KASHIMAMACHI KASHIMA,,37.009207,140.903532
平沼ノ内諏訪原一丁目,タイラヌマノウチスワハラ 1,TAIRA NUMANOCHISUWAHARA 1,,37.0197,140.968369
平鶴ケ井,タイラツルガイ,TAIRA TSURUGAI,,37.017159,140.950034
平下山口,タイラシモヤマグチ,TAIRA SHIMOYAMAGUCHI,,37.022004,140.933785
平小泉,タイラコイズミ,TAIRA KOIZUMI,,37.027503,140.922211
郷ケ丘四丁目,サトガオカ 4,SATOGAOKA 4,,37.028764,140.916604
中央台飯野五丁目,チュウオウダイイイノ 5,CHUODAI IINO 5,,37.020237,140.91709
平吉野谷,タイラヨシノヤ,TAIRA YOSHINOYA,,37.023495,140.914861
中央台飯野一丁目,チュウオウダイイイノ 1,CHUODAI IINO 1,,37.01946,140.906773
郷ケ丘三丁目,サトガオカ 3,SATOGAOKA 3,,37.026736,140.910955
郷ケ丘二丁目,サトガオカ 2,SATOGAOKA 2,,37.026272,140.906337
平下荒川,タイラシモアラカワ,TAIRA SHIMOARAKAWA,,37.035489,140.902922
郷ケ丘一丁目,サトガオカ 1,SATOGAOKA 1,,37.025771,140.900014
若葉台二丁目,ワカバダイ 2,WAKABADAI 2,,37.017438,140.896047
若葉台一丁目,ワカバダイ 1,WAKABADAI 1,,37.018952,140.899517
自由ケ丘,ジュウガオカ,JUGAOKA,,37.027386,140.893553
常磐上矢田町,ジョウバンカミヤダマチ,JOBAN KAMIYADAMACHI,,37.017378,140.902825
草木台五丁目,クサキダイ 5,KUSAKIDAI 5,,37.019272,140.874288
平藤間,タイラフジマ,TAIRA FUJIMA,,37.041346,140.965541
平下高久,タイラシモタカク,TAIRA SHIMOTAKAKU,,37.028084,140.957665
平菅波,タイラスギナミ,TAIRA SUGINAMI,,37.045575,140.935911
平中山,タイラナカヤマ,TAIRA NAKAYAMA,,37.035584,140.916864
平上高久,タイラカミタカク,TAIRA KAMITAKAKU,,37.02287,140.925957
平下大越,タイラシモオオゴエ,TAIRA SHIMOOGOE,,37.048075,140.964894
平上大越,タイラカミオオゴエ,TAIRA KAMIOGOE,,37.050699,140.954174
平荒田目,タイラアッタメ,TAIRA ATTAME,,37.055758,140.946325
平山崎,タイラヤマザキ,TAIRA YAMAZAKI,,37.057106,140.93063
平南白土,タイラミナミシラド,TAIRA MINAMISHIRADO,,37.048617,140.918726
平塩,タイラシオ,TAIRA SHIO,,37.060023,140.919236
平鯨岡,タイラクジラオカ,TAIRA KUJIRAOKA,,37.064001,140.902505
平,タイラ,TAIRA,,37.057123,140.88628
平原高野,タイラハラゴヤ,TAIRA HARAGOYA,,37.074543,140.961037
平下神谷,タイラシモカベヤ,TAIRA SHIMOKABEYA,,37.065578,140.956652
平泉崎,タイライズミザキ,TAIRA IZUMIZAKI,,37.076826,140.947299
平下片寄,タイラシモカタヨセ,TAIRA SHIMOKATAYOSE,,37.077492,140.934296
平中神谷,タイラナカカベヤ,TAIRA NAKAKABEYA,,37.065816,140.929759
平上神谷,タイラカミカベヤ,TAIRA KAMIKABEYA,,37.07149,140.916597
平幕ノ内,タイラマクノウチ,TAIRA MAKUNOCHI,,37.067659,140.900908
平大室,タイラオオムロ,TAIRA OMURO,,37.07314,140.910683
石森一丁目,イシモリ 1,ISHIMORI 1,,37.075621,140.899331
石森二丁目,イシモリ 2,ISHIMORI 2,,37.080001,140.899405
平中塩,タイラナカシオ,TAIRA NAKASHIO,,37.076305,140.89334
好間町川中子,ヨシママチカワナゴ,YOSHIMAMACHI KAWANAGO,,37.068165,140.887712
平下平窪一丁目,タイラシモヒラクボ 1,TAIRA SHIMOHIRAKUBO 1,,37.074445,140.882884
平下平窪二丁目,タイラシモヒラクボ 2,TAIRA SHIMOHIRAKUBO 2,,37.076215,140.882947
平下平窪三丁目,タイラシモヒラクボ 3,TAIRA SHIMOHIRAKUBO 3,,37.077662,140.884104
平中平窪三丁目,タイラナカヒラクボ 3,TAIRA NAKAHIRAKUBO 3,,37.085504,140.879399
内郷御厩町一丁目,ウチゴウミマヤマチ 1,UCHIGO MIMAYAMACHI 1,,37.044585,140.867936
草木台二丁目,クサキダイ 2,KUSAKIDAI 2,,37.016529,140.867254
草木台一丁目,クサキダイ 1,KUSAKIDAI 1,,37.020229,140.867168
内郷綴町,ウチゴウツヅラマチ,UCHIGO TSUZURAMACHI,,37.030722,140.855559
内郷内町,ウチゴウウチマチ,UCHIGO UCHIMACHI,,37.036963,140.848125
内郷高坂町二丁目,ウチゴウタカサカマチ 2,UCHIGO TAKASAKAMACHI 2,,37.04675,140.846907
内郷高坂町,ウチゴウタカサカマチ,UCHIGO TAKASAKAMACHI,,37.04608,140.862272
内郷宮町,ウチゴウミヤマチ,UCHIGO MIYAMACHI,,37.043609,140.831124
内郷高坂町一丁目,ウチゴウタカサカマチ 1,UCHIGO TAKASAKAMACHI 1,,37.048074,140.855932
好間町中好間,ヨシママチナカヨシマ,YOSHIMAMACHI NAKAYOSHIMA,,37.058375,140.851037
好間町上好間,ヨシママチカミヨシマ,YOSHIMAMACHI KAMIYOSHIMA,,37.059443,140.827239
好間工業団地,ヨシマコウギョウダンチ,YOSHIMAKOGYODANCHI,,37.077161,140.846478
好間町榊小屋,ヨシママチサカキゴヤ,YOSHIMAMACHI SAKAKIGOYA,,37.065268,140.80325
内郷白水町,ウチゴウシラミズマチ,UCHIGO SHIRAMIZUMACHI,,37.030909,140.823646
内郷高野町,ウチゴウコウヤマチ,UCHIGO KOYAMACHI,,37.047102,140.795054
田人町石住,タビトマチイシズミ,TABITOMACHI ISHIZUMI,,37.039625,140.652494
四倉町上仁井田,ヨツクラマチカミニイダ,YOTSUKURAMACHI KAMINIIDA,,37.09601,140.977921
四倉町塩木,ヨツクラマチシオキ,YOTSUKURAMACHI SHIOKI,,37.096166,140.967152
四倉町名木,ヨツクラマチナギ,YOTSUKURAMACHI NAGI,,37.096754,140.953165
四倉町戸田,ヨツクラマチトダ,YOTSUKURAMACHI TODA,,37.109238,140.962977
平北神谷,タイラキタカベヤ,TAIRA KITAKABEYA,,37.096387,140.939795
四倉町長友,ヨツクラマチナガトモ,YOTSUKURAMACHI NAGATOMO,,37.106022,140.94796
平水品,タイラミズシナ,TAIRA MIZUSHINA,,37.103931,140.930294
四倉町下柳生,ヨツクラマチシモヤギュウ,YOTSUKURAMACHI SHIMOYAGYU,,37.109029,140.91687
四倉町上柳生,ヨツクラマチカミヤギュウ,YOTSUKURAMACHI KAMIYAGYU,,37.108768,140.903969
四倉町中島,ヨツクラマチナカジマ,YOTSUKURAMACHI NAKAJIMA,,37.125225,140.944654
四倉町山田小湊,ヨツクラマチヤマダコミナト,YOTSUKURAMACHI YAMADAKOMINATO,,37.119346,140.922109
四倉町薬王寺,ヨツクラマチヤクオウジ,YOTSUKURAMACHI YAKUOJI,,37.116792,140.917418
久之浜町西三丁目,ヒサノハママチニシ 3,HISANOHAMAMACHI NISHI 3,,37.144585,140.994316
久之浜町西二丁目,ヒサノハママチニシ 2,HISANOHAMAMACHI NISHI 2,,37.145534,140.993264
久之浜町西一丁目,ヒサノハママチニシ 1,HISANOHAMAMACHI NISHI 1,,37.14725,140.992453
大久町小山田,オオヒサマチオヤマダ,OHISAMACHI OYAMADA,,37.135942,140.963537
四倉町駒込,ヨツクラマチコマゴメ,YOTSUKURAMACHI KOMAGOME,,37.123264,140.89614
四倉町白岩,ヨツクラマチシライワ,YOTSUKURAMACHI SHIRAIWA,,37.135747,140.944311
大久町小久,オオヒサマチコヒサ,OHISAMACHI KOHISA,,37.144661,140.967952
四倉町上岡,ヨツクラマチカミオカ,YOTSUKURAMACHI KAMIOKA,,37.14265,140.892916
平赤井比良三丁目,タイラアカイヒラ 3,TAIRA AKAIHIRA 3,,37.088289,140.859588
平赤井比良二丁目,タイラアカイヒラ 2,TAIRA AKAIHIRA 2,,37.088704,140.85622
平赤井比良一丁目,タイラアカイヒラ 1,TAIRA AKAIHIRA 1,,37.091041,140.854558
小川町三島,オガワマチミシマ,OGAWAMACHI MISHIMA,,37.123001,140.868486
小川町高萩,オガワマチタカハギ,OGAWAMACHI TAKAHAGI,,37.127233,140.828352
小川町福岡,オガワマチフクオカ,OGAWAMACHI FUKUOKA,,37.143859,140.848299
小川町西小川,オガワマチニシオガワ,OGAWAMACHI NISHIOGAWA,,37.11439,140.834718
三和町中寺,ミワマチナカデラ,MIWAMACHI NAKADERA,,37.123303,140.712996
三和町下三坂,ミワマチシモミサカ,MIWAMACHI SHIMOMISAKA,,37.203431,140.679403
川前町小白井,カワマエマチオジロイ,KAWAMAEMACHI OJIROI,,37.3,140.714002
平下平窪山土内町,タイラシモヒラクボヤマドウチマチ,TAIRA SHIMOHIRAKUBOYAMADOCHIMACHI,,37.082341,140.876832
平下平窪中島町,タイラシモヒラクボナカジマチョウ,TAIRA SHIMOHIRAKUBONAKAJIMACHO,,37.080883,140.876855
平中平窪東高砂,,,,37.084435,140.873257
平中平窪新町,タイラナカヒラクボシンマチ,TAIRA NAKAHIRAKUBOSHIMMACHI,,37.084004,140.875549
平下平窪古川町,タイラシモヒラクボフルカワチョウ,TAIRA SHIMOHIRAKUBOFURUKAWACHO,,37.079785,140.878202
平中平窪細田町,タイラナカヒラクボホソダマチ,TAIRA NAKAHIRAKUBOHOSODAMACHI,,37.084507,140.877166
小名浜花畑町,オナハマハナバタケチョウ,ONAHAMA HANABATAKECHO,,36.954762,140.904957
小名浜諏訪町,オナハマスワチョウ,ONAHAMA SUWACHO,,36.953132,140.90977
小名浜南君ヶ塚町,,,,36.95612,140.900557
小名浜西君ヶ塚町,,,,36.95612,140.89394
小名浜寺廻町,オナハマテラマワリチョウ,ONAHAMA TERAMAWARICHO,,36.952046,140.89879
小名浜中町境,オナハマナカチョウザカイ,ONAHAMA NAKACHOZAKAI,,36.954007,140.898978
小名浜君ヶ塚町,,,,36.958594,140.898301
小名浜愛宕町,オナハマアタゴチョウ,ONAHAMA ATAGOCHO,,36.951503,140.894391
小名浜港ヶ丘,,,,36.945482,140.916422
小名浜愛宕上,オナハマアタゴウエ,ONAHAMA ATAGOE,,36.953826,140.89409
小名浜西町,オナハマニシチョウ,ONAHAMA NISHICHO,,36.950716,140.898448
薄磯一丁目,ウスイソ 1,USUISO 1,,37.005768,140.977782
薄磯二丁目,ウスイソ 2,USUISO 2,,37.003198,140.974613
薄磯三丁目,ウスイソ 3,USUISO 3,,37.002153,140.978096
平谷川瀬二丁目,タイラヤガワセ 2,TAIRA YAGAWASE 2,,37.047476,140.895223
平谷川瀬三丁目,タイラヤガワセ 3,TAIRA YAGAWASE 3,,37.045236,140.899647
平中塩,タイラナカシオ,TAIRA NAKASHIO,沖,37.070195,140.891336
平,タイラ,TAIRA,四軒町,37.063033,140.890626
平,タイラ,TAIRA,十五町目,37.054035,140.893264
平,タイラ,TAIRA,紅葉町,37.06463,140.891715
平,タイラ,TAIRA,梅香町,37.06341,140.891783
平,タイラ,TAIRA,旧城跡,37.060264,140.890656
平,タイラ,TAIRA,田町,37.057153,140.890662
平上荒川,タイラカミアラカワ,TAIRA KAMIARAKAWA,安草,37.036911,140.894129
平,タイラ,TAIRA,三町目,37.05559,140.893032
平,タイラ,TAIRA,小太郎町,37.052422,140.892278
平,タイラ,TAIRA,菱川町,37.050647,140.891905
平上荒川,タイラカミアラカワ,TAIRA KAMIARAKAWA,砂屋戸,37.039552,140.893577
好間町川中子,ヨシママチカワナゴ,YOSHIMAMACHI KAWANAGO,五ノ神,37.067573,140.890836
常磐松久須根町,ジョウバンマツクスネマチ,JOBAN MATSUKUSUNEMACHI,坂下,37.014785,140.892146
平谷川瀬,タイラヤガワセ,TAIRA YAGAWASE,西作,37.044436,140.892758
平中塩,タイラナカシオ,TAIRA NAKASHIO,広畑,37.069632,140.89366
常磐上矢田町,ジョウバンカミヤダマチ,JOBAN KAMIYADAMACHI,獺沢,37.022157,140.893324
平中塩,タイラナカシオ,TAIRA NAKASHIO,滝,37.074259,140.895002
平,タイラ,TAIRA,権現塚,37.064239,140.894766
平,タイラ,TAIRA,柳町,37.061472,140.894034
平,タイラ,TAIRA,下の町,37.049625,140.89388
平,タイラ,TAIRA,白銀町,37.058471,140.89347
平,タイラ,TAIRA,新田前,37.050151,140.896035
平,タイラ,TAIRA,四町目,37.055815,140.894762
四倉町駒込,ヨツクラマチコマゴメ,YOTSUKURAMACHI KOMAGOME,久原,37.118985,140.896713
常磐松久須根町,ジョウバンマツクスネマチ,JOBAN MATSUKUSUNEMACHI,大夫内,37.013941,140.896765
好間町川中子,ヨシママチカワナゴ,YOSHIMAMACHI KAWANAGO,落合,37.069066,140.894712
平,タイラ,TAIRA,佃町,37.051865,140.894713
常磐上矢田町,ジョウバンカミヤダマチ,JOBAN KAMIYADAMACHI,穂町作,37.024054,140.897221
平下荒川,タイラシモアラカワ,TAIRA SHIMOARAKAWA,鶴ケ町,37.035982,140.896511
平,タイラ,TAIRA,五町目,37.056621,140.895954
平中塩,タイラナカシオ,TAIRA NAKASHIO,岸,37.072064,140.896958
平,タイラ,TAIRA,九品寺町,37.061733,140.896855
平,タイラ,TAIRA,大工町,37.057583,140.895839
平,タイラ,TAIRA,新川町,37.05552,140.897131
平下荒川,タイラシモアラカワ,TAIRA SHIMOARAKAWA,南作,37.030624,140.896494
平,タイラ,TAIRA,仲間町,37.060567,140.896208
平中塩,タイラナカシオ,TAIRA NAKASHIO,大内,37.067204,140.896568
平下荒川,タイラシモアラカワ,TAIRA SHIMOARAKAWA,諏訪下,37.039969,140.899196
平,タイラ,TAIRA,月見町,37.052052,140.897309
平,タイラ,TAIRA,堤ノ内,37.053331,140.897183
平谷川瀬,タイラヤガワセ,TAIRA YAGAWASE,吉野作,37.042555,140.896997
平,タイラ,TAIRA,城東二丁目,37.059929,140.899038
平,タイラ,TAIRA,六町目,37.057074,140.89932
平幕ノ内,タイラマクノウチ,TAIRA MAKUNOCHI,我曾内,37.067096,140.897646
平,タイラ,TAIRA,城東一丁目,37.061794,140.898485
平,タイラ,TAIRA,三倉,37.051418,140.898646
平下荒川,タイラシモアラカワ,TAIRA SHIMOARAKAWA,砂田,37.036494,140.899266
平,タイラ,TAIRA,正月町,37.056055,140.900767
平,タイラ,TAIRA,倉前,37.048485,140.898837
平中塩,タイラナカシオ,TAIRA NAKASHIO,下久田,37.068461,140.897529
平幕ノ内,タイラマクノウチ,TAIRA MAKUNOCHI,広畑,37.065289,140.898937
平,タイラ,TAIRA,正内町,37.053626,140.899805
四倉町駒込,ヨツクラマチコマゴメ,YOTSUKURAMACHI KOMAGOME,馬場,37.120424,140.900802
平幕ノ内,タイラマクノウチ,TAIRA MAKUNOCHI,田中,37.066807,140.899081
四倉町駒込,ヨツクラマチコマゴメ,YOTSUKURAMACHI KOMAGOME,戸沢,37.115367,140.902911
常磐松久須根町,ジョウバンマツクスネマチ,JOBAN MATSUKUSUNEMACHI,根岸,37.012574,140.900001
平,タイラ,TAIRA,城東三丁目,37.058869,140.90074
平鯨岡,タイラクジラオカ,TAIRA KUJIRAOKA,河端,37.064386,140.900069
平鯨岡,タイラクジラオカ,TAIRA KUJIRAOKA,林下,37.065479,140.901241
四倉町駒込,ヨツクラマチコマゴメ,YOTSUKURAMACHI KOMAGOME,榎町,37.11401,140.901509
平,タイラ,TAIRA,祢宜町,37.057829,140.901144
平鯨岡,タイラクジラオカ,TAIRA KUJIRAOKA,表門,37.063878,140.900925
平中塩,タイラナカシオ,TAIRA NAKASHIO,一町田,37.071523,140.90115
平,タイラ,TAIRA,作町一丁目,37.051533,140.902796
平,タイラ,TAIRA,作町二丁目,37.049857,140.903237
平,タイラ,TAIRA,作町三丁目,37.047936,140.902837
平幕ノ内,タイラマクノウチ,TAIRA MAKUNOCHI,一水口,37.06844,140.901854
常磐上矢田町,ジョウバンカミヤダマチ,JOBAN KAMIYADAMACHI,北ノ内,37.016957,140.90166
平中塩,タイラナカシオ,TAIRA NAKASHIO,草鹿,37.073292,140.902212
平下荒川,タイラシモアラカワ,TAIRA SHIMOARAKAWA,剃町,37.03597,140.906478
平,タイラ,TAIRA,五色町,37.053946,140.903712
平南白土,タイラミナミシラド,TAIRA MINAMISHIRADO,八ツ坂,37.042285,140.905198
平中塩,タイラナカシオ,TAIRA NAKASHIO,一水口,37.070721,140.90204
四倉町駒込,ヨツクラマチコマゴメ,YOTSUKURAMACHI KOMAGOME,広畑,37.113763,140.9023
常磐松久須根町,ジョウバンマツクスネマチ,JOBAN MATSUKUSUNEMACHI,内田,37.011796,140.903013
平南白土,タイラミナミシラド,TAIRA MINAMISHIRADO,筒ノ下,37.044276,140.902198
平下荒川,タイラシモアラカワ,TAIRA SHIMOARAKAWA,中剃,37.04005,140.903908
平幕ノ内,タイラマクノウチ,TAIRA MAKUNOCHI,猿ケ作,37.069475,140.904306
平鯨岡,タイラクジラオカ,TAIRA KUJIRAOKA,大街,37.066028,140.903145
四倉町駒込,ヨツクラマチコマゴメ,YOTSUKURAMACHI KOMAGOME,空地,37.124906,140.902779
平,タイラ,TAIRA,鎌田町,37.056789,140.903591
平鎌田,タイラカマタ,TAIRA KAMATA,西山下,37.058808,140.906159
平下荒川,タイラシモアラカワ,TAIRA SHIMOARAKAWA,久世原,37.033998,140.906132
平四ツ波,タイラヨツナミ,TAIRA YOTSUNAMI,糖塚,37.073742,140.90407
四倉町上柳生,ヨツクラマチカミヤギュウ,YOTSUKURAMACHI KAMIYAGYU,戸沢,37.11249,140.904429
平南白土,タイラミナミシラド,TAIRA MINAMISHIRADO,松魚田,37.044169,140.903845
常磐上矢田町,ジョウバンカミヤダマチ,JOBAN KAMIYADAMACHI,堂ノ作,37.013597,140.903671
平四ツ波,タイラヨツナミ,TAIRA YOTSUNAMI,石森,37.089873,140.903936
平鯨岡,タイラクジラオカ,TAIRA KUJIRAOKA,弥十郎,37.066138,140.904317
平四ツ波,タイラヨツナミ,TAIRA YOTSUNAMI,三反田,37.075989,140.904361
平鯨岡,タイラクジラオカ,TAIRA KUJIRAOKA,洞口,37.067242,140.905379
平,タイラ,TAIRA,下川原,37.053786,140.904918
平下荒川,タイラシモアラカワ,TAIRA SHIMOARAKAWA,川前,37.039335,140.907994
平北白土,タイラキタシラド,TAIRA KITASHIRADO,鍛治淵,37.052173,140.905287
平,タイラ,TAIRA,愛谷町一丁目,37.050368,140.906285
四倉町上柳生,ヨツクラマチカミヤギュウ,YOTSUKURAMACHI KAMIYAGYU,中山,37.108954,140.905362
平,タイラ,TAIRA,東町,37.053215,140.906917
平鎌田,タイラカマタ,TAIRA KAMATA,石名坂,37.062082,140.907711
平,タイラ,TAIRA,愛谷町二丁目,37.048079,140.906224
平中山,タイラナカヤマ,TAIRA NAKAYAMA,矢ノ倉,37.031417,140.907503
平上片寄,タイラカミカタヨセ,TAIRA KAMIKATAYOSE,下平,37.088158,140.907068
常磐上矢田町,ジョウバンカミヤダマチ,JOBAN KAMIYADAMACHI,花木下,37.011453,140.907071
平鎌田,タイラカマタ,TAIRA KAMATA,寿金沢,37.058261,140.908726
平鎌田,タイラカマタ,TAIRA KAMATA,岸,37.055482,140.908745
四倉町駒込,ヨツクラマチコマゴメ,YOTSUKURAMACHI KOMAGOME,大久保,37.116145,140.908053
四倉町上柳生,ヨツクラマチカミヤギュウ,YOTSUKURAMACHI KAMIYAGYU,沖ノ宮,37.114137,140.907962
常磐上矢田町,ジョウバンカミヤダマチ,JOBAN KAMIYADAMACHI,田端,37.009487,140.907665
平,タイラ,TAIRA,愛谷町四丁目,37.050368,140.909247
平大室,タイラオオムロ,TAIRA OMURO,白土,37.068334,140.907905
平,タイラ,TAIRA,愛谷町三丁目,37.048369,140.909596
四倉町上柳生,ヨツクラマチカミヤギュウ,YOTSUKURAMACHI KAMIYAGYU,宮下,37.11421,140.912721
平南白土,タイラミナミシラド,TAIRA MINAMISHIRADO,勝負田,37.044634,140.909475
平大室,タイラオオムロ,TAIRA OMURO,古堂,37.069317,140.90799
鹿島町下矢田,カシママチシモヤダ,KASHIMAMACHI SHIMOYADA,十王前,37.008435,140.90779
鹿島町下矢田,カシママチシモヤダ,KASHIMAMACHI SHIMOYADA,蓬作,37.00922,140.909777
四倉町八茎,ヨツクラマチヤグキ,YOTSUKURAMACHI YAGUKI,沼ノ原,37.129279,140.912298
平中山,タイラナカヤマ,TAIRA NAKAYAMA,宮下,37.035482,140.910398
四倉町下柳生,ヨツクラマチシモヤギュウ,YOTSUKURAMACHI SHIMOYAGYU,宮下,37.115029,140.913857
常磐上矢田町,ジョウバンカミヤダマチ,JOBAN KAMIYADAMACHI,磐ノ作,37.012565,140.910523
平北白土,タイラキタシラド,TAIRA KITASHIRADO,愛谷町,37.04898,140.910611
平北白土,タイラキタシラド,TAIRA KITASHIRADO,宮前,37.050512,140.911291
平鎌田,タイラカマタ,TAIRA KAMATA,込内,37.063736,140.911706
平吉野谷,タイラヨシノヤ,TAIRA YOSHINOYA,館下,37.023433,140.912786
平鎌田,タイラカマタ,TAIRA KAMATA,大角,37.058283,140.911543
平鎌田,タイラカマタ,TAIRA KAMATA,小山下,37.056456,140.910659
平南白土,タイラミナミシラド,TAIRA MINAMISHIRADO,広町,37.04589,140.912275
平北白土,タイラキタシラド,TAIRA KITASHIRADO,西ノ内,37.052901,140.910925
平鎌田,タイラカマタ,TAIRA KAMATA,砂田,37.061434,140.912384
平北白土,タイラキタシラド,TAIRA KITASHIRADO,中道,37.054158,140.912136
平北白土,タイラキタシラド,TAIRA KITASHIRADO,ネキ内,37.051036,140.915323
平鎌田,タイラカマタ,TAIRA KAMATA,萩名田,37.064266,140.913714
平中山,タイラナカヤマ,TAIRA NAKAYAMA,諏訪下,37.037816,140.912951
平塩,タイラシオ,TAIRA SHIO,宮前,37.05732,140.913862
平北白土,タイラキタシラド,TAIRA KITASHIRADO,堀ノ内,37.053118,140.912992
平南白土,タイラミナミシラド,TAIRA MINAMISHIRADO,古宿,37.049639,140.914924
平北白土,タイラキタシラド,TAIRA KITASHIRADO,田代,37.055126,140.913988
平北白土,タイラキタシラド,TAIRA KITASHIRADO,中島,37.052438,140.914653
平中山,タイラナカヤマ,TAIRA NAKAYAMA,柳町,37.037291,140.914967
平塩,タイラシオ,TAIRA SHIO,中野町,37.061349,140.918174
平上神谷,タイラカミカベヤ,TAIRA KAMIKABEYA,五反町,37.066218,140.915033
平塩,タイラシオ,TAIRA SHIO,中島,37.057425,140.916304
平吉野谷,タイラヨシノヤ,TAIRA YOSHINOYA,石畑,37.025218,140.914987
平中山,タイラナカヤマ,TAIRA NAKAYAMA,赤,37.033837,140.915652
平中山,タイラナカヤマ,TAIRA NAKAYAMA,柿ノ目,37.035006,140.916178
平北白土,タイラキタシラド,TAIRA KITASHIRADO,上平,37.053762,140.915335
平上神谷,タイラカミカベヤ,TAIRA KAMIKABEYA,反町,37.06675,140.915831
平中山,タイラナカヤマ,TAIRA NAKAYAMA,下ノ内,37.033028,140.91834
平北白土,タイラキタシラド,TAIRA KITASHIRADO,穂積,37.054524,140.919727
平北白土,タイラキタシラド,TAIRA KITASHIRADO,上河原,37.054959,140.916176
平上神谷,タイラカミカベヤ,TAIRA KAMIKABEYA,中,37.068942,140.917337
平北白土,タイラキタシラド,TAIRA KITASHIRADO,知原,37.054499,140.915647
平上神谷,タイラカミカベヤ,TAIRA KAMIKABEYA,石ノ町,37.068249,140.91698
平北白土,タイラキタシラド,TAIRA KITASHIRADO,木ノ下,37.052688,140.91686
平上片寄,タイラカミカタヨセ,TAIRA KAMIKATAYOSE,上ノ内,37.079614,140.91414
四倉町下柳生,ヨツクラマチシモヤギュウ,YOTSUKURAMACHI SHIMOYAGYU,井戸ノ上,37.111549,140.918081
平中神谷,タイラナカカベヤ,TAIRA NAKAKABEYA,寺前,37.071046,140.923561
四倉町薬王寺,ヨツクラマチヤクオウジ,YOTSUKURAMACHI YAKUOJI,上川原,37.113621,140.917963
平中山,タイラナカヤマ,TAIRA NAKAYAMA,小山,37.034545,140.918986
平上神谷,タイラカミカベヤ,TAIRA KAMIKABEYA,神谷分,37.068397,140.918149
平小泉,タイラコイズミ,TAIRA KOIZUMI,磐ノ作,37.026466,140.920345
平上神谷,タイラカミカベヤ,TAIRA KAMIKABEYA,下,37.069354,140.9185
平北白土,タイラキタシラド,TAIRA KITASHIRADO,宮田,37.052328,140.919995
平小泉,タイラコイズミ,TAIRA KOIZUMI,西,37.030785,140.919462
平上片寄,タイラカミカタヨセ,TAIRA KAMIKATAYOSE,藤倉,37.081646,140.921298
平上神谷,タイラカミカベヤ,TAIRA KAMIKABEYA,北ノ町,37.068681,140.91943
四倉町薬王寺,ヨツクラマチヤクオウジ,YOTSUKURAMACHI YAKUOJI,玉広,37.114912,140.919417
平南白土,タイラミナミシラド,TAIRA MINAMISHIRADO,赤坂,37.042266,140.919975
平南白土,タイラミナミシラド,TAIRA MINAMISHIRADO,関根,37.050341,140.9152
四倉町下柳生,ヨツクラマチシモヤギュウ,YOTSUKURAMACHI SHIMOYAGYU,熊ノ御嶽,37.110612,140.920068
平塩,タイラシオ,TAIRA SHIO,風内,37.058764,140.920957
四倉町下柳生,ヨツクラマチシモヤギュウ,YOTSUKURAMACHI SHIMOYAGYU,右近田,37.110016,140.919772
平塩,タイラシオ,TAIRA SHIO,出口,37.060924,140.921046
平上神谷,タイラカミカベヤ,TAIRA KAMIKABEYA,一町田,37.06877,140.920676
平中山,タイラナカヤマ,TAIRA NAKAYAMA,藁谷,37.034453,140.921104
平小泉,タイラコイズミ,TAIRA KOIZUMI,奥町,37.032711,140.922239
平小泉,タイラコイズミ,TAIRA KOIZUMI,東,37.03024,140.925024
平塩,タイラシオ,TAIRA SHIO,徳房内,37.05715,140.921878
平上神谷,タイラカミカベヤ,TAIRA KAMIKABEYA,黒磯,37.069258,140.922395
平上片寄,タイラカミカタヨセ,TAIRA KAMIKATAYOSE,石町,37.080838,140.924047
平上片寄,タイラカミカタヨセ,TAIRA KAMIKATAYOSE,矢田ノ目,37.077576,140.92261
平上高久,タイラカミタカク,TAIRA KAMITAKAKU,妻下,37.026928,140.932127
平中神谷,タイラナカカベヤ,TAIRA NAKAKABEYA,大沼,37.06884,140.92329
平菅波,タイラスギナミ,TAIRA SUGINAMI,菅波入,37.047269,140.928823
平小泉,タイラコイズミ,TAIRA KOIZUMI,北川,37.033786,140.923815
平南白土,タイラミナミシラド,TAIRA MINAMISHIRADO,岡ノ内,37.052576,140.924246
平上片寄,タイラカミカタヨセ,TAIRA KAMIKATAYOSE,寺下,37.079196,140.9245
平上片寄,タイラカミカタヨセ,TAIRA KAMIKATAYOSE,大平,37.0756,140.927797
平塩,タイラシオ,TAIRA SHIO,塩向,37.059285,140.92377
平中神谷,タイラナカカベヤ,TAIRA NAKAKABEYA,六本榎,37.063222,140.925862
平中神谷,タイラナカカベヤ,TAIRA NAKAKABEYA,十二所,37.061373,140.925618
平中神谷,タイラナカカベヤ,TAIRA NAKAKABEYA,水前,37.070192,140.926102
四倉町薬王寺,ヨツクラマチヤクオウジ,YOTSUKURAMACHI YAKUOJI,割田,37.113508,140.924698
平上高久,タイラカミタカク,TAIRA KAMITAKAKU,植田郷,37.037184,140.924953
平中神谷,タイラナカカベヤ,TAIRA NAKAKABEYA,十二所河原,37.060657,140.925886
平山崎,タイラヤマザキ,TAIRA YAMAZAKI,悪戸,37.059288,140.927986
四倉町薬王寺,ヨツクラマチヤクオウジ,YOTSUKURAMACHI YAKUOJI,高玉,37.114894,140.924559
平山崎,タイラヤマザキ,TAIRA YAMAZAKI,梅福山,37.057184,140.926579
四倉町山田小湊,ヨツクラマチヤマダコミナト,YOTSUKURAMACHI YAMADAKOMINATO,馬上,37.108404,140.928501
平絹谷,タイラキヌヤ,TAIRA KINUYA,諏訪作,37.09442,140.926208
平上高久,タイラカミタカク,TAIRA KAMITAKAKU,片岡,37.034965,140.927507
平上高久,タイラカミタカク,TAIRA KAMITAKAKU,白坂,37.034815,140.925018
四倉町山田小湊,ヨツクラマチヤマダコミナト,YOTSUKURAMACHI YAMADAKOMINATO,塙,37.115567,140.925447
平上高久,タイラカミタカク,TAIRA KAMITAKAKU,外鶴巻,37.033052,140.927525
四倉町山田小湊,ヨツクラマチヤマダコミナト,YOTSUKURAMACHI YAMADAKOMINATO,暮坪,37.115873,140.927311
四倉町山田小湊,ヨツクラマチヤマダコミナト,YOTSUKURAMACHI YAMADAKOMINATO,反沼,37.114794,140.928283
平山崎,タイラヤマザキ,TAIRA YAMAZAKI,山岸,37.057923,140.92746
四倉町玉山,ヨツクラマチタマヤマ,YOTSUKURAMACHI TAMAYAMA,原田内,37.121291,140.931059
平中神谷,タイラナカカベヤ,TAIRA NAKAKABEYA,瀬戸,37.062069,140.930809
平山崎,タイラヤマザキ,TAIRA YAMAZAKI,明シ内,37.057683,140.929057
平中神谷,タイラナカカベヤ,TAIRA NAKAKABEYA,金沢,37.069027,140.928056
平中神谷,タイラナカカベヤ,TAIRA NAKAKABEYA,塚ノ町,37.063808,140.930293
平中神谷,タイラナカカベヤ,TAIRA NAKAKABEYA,北出口,37.063267,140.930837
四倉町玉山,ヨツクラマチタマヤマ,YOTSUKURAMACHI TAMAYAMA,炭釜,37.129317,140.930014
平中神谷,タイラナカカベヤ,TAIRA NAKAKABEYA,清水,37.070389,140.929185
四倉町山田小湊,ヨツクラマチヤマダコミナト,YOTSUKURAMACHI YAMADAKOMINATO,小湊,37.114894,140.930415
平中神谷,タイラナカカベヤ,TAIRA NAKAKABEYA,石脇,37.067569,140.930844
平中神谷,タイラナカカベヤ,TAIRA NAKAKABEYA,前河原,37.060237,140.930696
平上高久,タイラカミタカク,TAIRA KAMITAKAKU,塚田,37.031694,140.931858
平山崎,タイラヤマザキ,TAIRA YAMAZAKI,田仲島,37.055747,140.930827
平山崎,タイラヤマザキ,TAIRA YAMAZAKI,沼田,37.055582,140.933663
平上高久,タイラカミタカク,TAIRA KAMITAKAKU,竹ノ後,37.032671,140.932383
平下山口,タイラシモヤマグチ,TAIRA SHIMOYAMAGUCHI,地切,37.022846,140.931863
平下片寄,タイラシモカタヨセ,TAIRA SHIMOKATAYOSE,江ノ上,37.080586,140.931886
平上高久,タイラカミタカク,TAIRA KAMITAKAKU,神下,37.029024,140.933751
平上高久,タイラカミタカク,TAIRA KAMITAKAKU,塩田,37.034086,140.9353
平上高久,タイラカミタカク,TAIRA KAMITAKAKU,塩崎,37.036394,140.933288
平下片寄,タイラシモカタヨセ,TAIRA SHIMOKATAYOSE,貝坂,37.077497,140.932334
平中神谷,タイラナカカベヤ,TAIRA NAKAKABEYA,後原,37.066089,140.934616
平中神谷,タイラナカカベヤ,TAIRA NAKAKABEYA,北鳥沼,37.064334,140.934107
平上片寄,タイラカミカタヨセ,TAIRA KAMIKATAYOSE,森戸,37.076729,140.932279
平北神谷,タイラキタカベヤ,TAIRA KITAKABEYA,戸ノ内,37.09523,140.935909
平中神谷,タイラナカカベヤ,TAIRA NAKAKABEYA,南鳥沼,37.063424,140.934191
四倉町玉山,ヨツクラマチタマヤマ,YOTSUKURAMACHI TAMAYAMA,宇ノ淵,37.11932,140.934936
平上山口,タイラカミヤマグチ,TAIRA KAMIYAMAGUCHI,寺沢,37.017162,140.933426
平下片寄,タイラシモカタヨセ,TAIRA SHIMOKATAYOSE,南町,37.076876,140.933009
平下山口,タイラシモヤマグチ,TAIRA SHIMOYAMAGUCHI,後沢,37.022344,140.933722
平下片寄,タイラシモカタヨセ,TAIRA SHIMOKATAYOSE,北町,37.07925,140.936185
四倉町山田小湊,ヨツクラマチヤマダコミナト,YOTSUKURAMACHI YAMADAKOMINATO,直出,37.109382,140.933607
平下山口,タイラシモヤマグチ,TAIRA SHIMOYAMAGUCHI,上地切,37.021578,140.933742
平下片寄,タイラシモカタヨセ,TAIRA SHIMOKATAYOSE,志多田,37.080009,140.934305
平中神谷,タイラナカカベヤ,TAIRA NAKAKABEYA,宿畑,37.062681,140.934383
平下山口,タイラシモヤマグチ,TAIRA SHIMOYAMAGUCHI,鬼渡,37.019313,140.9339
平中神谷,タイラナカカベヤ,TAIRA NAKAKABEYA,苅萱,37.06189,140.935344
四倉町玉山,ヨツクラマチタマヤマ,YOTSUKURAMACHI TAMAYAMA,屋敷前,37.121881,140.934479
平菅波,タイラスギナミ,TAIRA SUGINAMI,数町,37.050605,140.937486
平中神谷,タイラナカカベヤ,TAIRA NAKAKABEYA,大年,37.059397,140.935167
平下片寄,タイラシモカタヨセ,TAIRA SHIMOKATAYOSE,北作,37.08251,140.936893
四倉町玉山,ヨツクラマチタマヤマ,YOTSUKURAMACHI TAMAYAMA,宮ノ脇,37.122379,140.936382
平絹谷,タイラキヌヤ,TAIRA KINUYA,小塙,37.09039,140.937098
四倉町山田小湊,ヨツクラマチヤマダコミナト,YOTSUKURAMACHI YAMADAKOMINATO,光竹,37.111455,140.935464
四倉町玉山,ヨツクラマチタマヤマ,YOTSUKURAMACHI TAMAYAMA,宮前,37.120616,140.937075
平上山口,タイラカミヤマグチ,TAIRA KAMIYAMAGUCHI,川前,37.020035,140.938002
平上高久,タイラカミタカク,TAIRA KAMITAKAKU,宮田,37.033016,140.936658
平山崎,タイラヤマザキ,TAIRA YAMAZAKI,小才内,37.056166,140.936753
平下神谷,タイラシモカベヤ,TAIRA SHIMOKABEYA,岸前,37.070032,140.938778
平中神谷,タイラナカカベヤ,TAIRA NAKAKABEYA,細田,37.063024,140.936855
平北神谷,タイラキタカベヤ,TAIRA KITAKABEYA,神下,37.097973,140.937348
平上山口,タイラカミヤマグチ,TAIRA KAMIYAMAGUCHI,赤前,37.018663,140.937987
平絹谷,タイラキヌヤ,TAIRA KINUYA,大苗代,37.091478,140.936675
平北神谷,タイラキタカベヤ,TAIRA KITAKABEYA,御代作,37.096555,140.93736
四倉町玉山,ヨツクラマチタマヤマ,YOTSUKURAMACHI TAMAYAMA,星作,37.11845,140.945598
四倉町玉山,ヨツクラマチタマヤマ,YOTSUKURAMACHI TAMAYAMA,御城,37.116989,140.937529
平下神谷,タイラシモカベヤ,TAIRA SHIMOKABEYA,後原,37.065967,140.937697
平下神谷,タイラシモカベヤ,TAIRA SHIMOKABEYA,立田帯,37.064973,140.938501
四倉町玉山,ヨツクラマチタマヤマ,YOTSUKURAMACHI TAMAYAMA,門馬前,37.119689,140.937111
平下片寄,タイラシモカタヨセ,TAIRA SHIMOKATAYOSE,立坂,37.079804,140.937036
平上山口,タイラカミヤマグチ,TAIRA KAMIYAMAGUCHI,大沢,37.011587,140.938983
平中神谷,タイラナカカベヤ,TAIRA NAKAKABEYA,下知内,37.062545,140.938303
四倉町玉山,ヨツクラマチタマヤマ,YOTSUKURAMACHI TAMAYAMA,宿,37.113472,140.938496
平下片寄,タイラシモカタヨセ,TAIRA SHIMOKATAYOSE,後山,37.07378,140.937823
四倉町長友,ヨツクラマチナガトモ,YOTSUKURAMACHI NAGATOMO,済戸,37.107949,140.942419
四倉町長友,ヨツクラマチナガトモ,YOTSUKURAMACHI NAGATOMO,磯田,37.108816,140.938821
平上高久,タイラカミタカク,TAIRA KAMITAKAKU,横田,37.031706,140.938449
平中神谷,タイラナカカベヤ,TAIRA NAKAKABEYA,柳橋,37.064277,140.938846
四倉町玉山,ヨツクラマチタマヤマ,YOTSUKURAMACHI TAMAYAMA,宿後,37.112812,140.937438
平泉崎,タイライズミザキ,TAIRA IZUMIZAKI,京塚,37.072153,140.9394
平北神谷,タイラキタカベヤ,TAIRA KITAKABEYA,七曲,37.100397,140.939999
平下山口,タイラシモヤマグチ,TAIRA SHIMOYAMAGUCHI,熊ノ下,37.02099,140.9383
四倉町玉山,ヨツクラマチタマヤマ,YOTSUKURAMACHI TAMAYAMA,水無沢,37.116814,140.942076
平泉崎,タイライズミザキ,TAIRA IZUMIZAKI,田仲,37.077824,140.940514
四倉町玉山,ヨツクラマチタマヤマ,YOTSUKURAMACHI TAMAYAMA,森内,37.119945,140.94029
平山崎,タイラヤマザキ,TAIRA YAMAZAKI,馬場,37.058181,140.94074
平荒田目,タイラアッタメ,TAIRA ATTAME,山根,37.054743,140.94048
平山崎,タイラヤマザキ,TAIRA YAMAZAKI,熊ノ宮,37.056658,140.939049
平上山口,タイラカミヤマグチ,TAIRA KAMIYAMAGUCHI,田中,37.016028,140.939149
平泉崎,タイライズミザキ,TAIRA IZUMIZAKI,磐井作,37.080406,140.940247
平下神谷,タイラシモカベヤ,TAIRA SHIMOKABEYA,北一里塚,37.068776,140.941531
平菅波,タイラスギナミ,TAIRA SUGINAMI,宮前,37.051288,140.939728
平上山口,タイラカミヤマグチ,TAIRA KAMIYAMAGUCHI,薬師前,37.022269,140.940366
平北神谷,タイラキタカベヤ,TAIRA KITAKABEYA,砂田,37.097306,140.939384
平下神谷,タイラシモカベヤ,TAIRA SHIMOKABEYA,馬洗,37.065662,140.942023
平下神谷,タイラシモカベヤ,TAIRA SHIMOKABEYA,天神,37.064479,140.94192
平上山口,タイラカミヤマグチ,TAIRA KAMIYAMAGUCHI,恵比須内,37.015981,140.940715
平上高久,タイラカミタカク,TAIRA KAMITAKAKU,鹿前,37.031542,140.940395
平上山口,タイラカミヤマグチ,TAIRA KAMIYAMAGUCHI,反町,37.017377,140.940075
平北神谷,タイラキタカベヤ,TAIRA KITAKABEYA,前ノ作,37.098586,140.940214
平絹谷,タイラキヌヤ,TAIRA KINUYA,八反田,37.090227,140.941924
平泉崎,タイライズミザキ,TAIRA IZUMIZAKI,夫料町,37.07514,140.943577
四倉町玉山,ヨツクラマチタマヤマ,YOTSUKURAMACHI TAMAYAMA,牧ノ下,37.1145,140.940942
平馬目,タイラマノメ,TAIRA MANOME,池田,37.086511,140.940456
平菅波,タイラスギナミ,TAIRA SUGINAMI,九日田,37.049121,140.940943
平泉崎,タイライズミザキ,TAIRA IZUMIZAKI,向山,37.071793,140.940894
平泉崎,タイライズミザキ,TAIRA IZUMIZAKI,上河原,37.077965,140.941568
平下神谷,タイラシモカベヤ,TAIRA SHIMOKABEYA,南一里塚,37.06564,140.940823
平泉崎,タイライズミザキ,TAIRA IZUMIZAKI,大町,37.072308,140.941912
平山崎,タイラヤマザキ,TAIRA YAMAZAKI,小茶円,37.056778,140.941793
平菅波,タイラスギナミ,TAIRA SUGINAMI,礼堂,37.051823,140.942116
四倉町玉山,ヨツクラマチタマヤマ,YOTSUKURAMACHI TAMAYAMA,桜田,37.118725,140.943114
平下高久,タイラシモタカク,TAIRA SHIMOTAKAKU,志農田,37.024685,140.945097
平菅波,タイラスギナミ,TAIRA SUGINAMI,新屋敷,37.048933,140.943358
平山崎,タイラヤマザキ,TAIRA YAMAZAKI,金沢,37.059186,140.942407
四倉町玉山,ヨツクラマチタマヤマ,YOTSUKURAMACHI TAMAYAMA,大門前,37.112602,140.942413
平泉崎,タイライズミザキ,TAIRA IZUMIZAKI,岸,37.079972,140.944839
平馬目,タイラマノメ,TAIRA MANOME,作ノ内,37.085722,140.944139
平下高久,タイラシモタカク,TAIRA SHIMOTAKAKU,滝前,37.030445,140.946008
平泉崎,タイライズミザキ,TAIRA IZUMIZAKI,岸前,37.078677,140.94337
平菅波,タイラスギナミ,TAIRA SUGINAMI,行人下,37.047153,140.943955
平泉崎,タイライズミザキ,TAIRA IZUMIZAKI,花輪,37.071771,140.943619
平下神谷,タイラシモカベヤ,TAIRA SHIMOKABEYA,石淵,37.067522,140.945351
平下神谷,タイラシモカベヤ,TAIRA SHIMOKABEYA,宿,37.068458,140.945556
平泉崎,タイライズミザキ,TAIRA IZUMIZAKI,東浦,37.070489,140.94444
平泉崎,タイライズミザキ,TAIRA IZUMIZAKI,南集,37.073449,140.943817
平山崎,タイラヤマザキ,TAIRA YAMAZAKI,鼠内,37.059336,140.943678
平荒田目,タイラアッタメ,TAIRA ATTAME,田中内北,37.05827,140.946046
平荒田目,タイラアッタメ,TAIRA ATTAME,田中内南,37.056094,140.947895
平馬目,タイラマノメ,TAIRA MANOME,官銀田,37.087531,140.944307
平泉崎,タイライズミザキ,TAIRA IZUMIZAKI,辻道,37.072176,140.946878
四倉町中島,ヨツクラマチナカジマ,YOTSUKURAMACHI NAKAJIMA,中島,37.120084,140.947415
平菅波,タイラスギナミ,TAIRA SUGINAMI,柿作,37.049423,140.94479
平北神谷,タイラキタカベヤ,TAIRA KITAKABEYA,鎌倉,37.095352,140.948952
平下神谷,タイラシモカベヤ,TAIRA SHIMOKABEYA,下川原,37.066278,140.946244
平下神谷,タイラシモカベヤ,TAIRA SHIMOKABEYA,古河,37.064308,140.945899
四倉町玉山,ヨツクラマチタマヤマ,YOTSUKURAMACHI TAMAYAMA,杉内,37.114253,140.946606
四倉町玉山,ヨツクラマチタマヤマ,YOTSUKURAMACHI TAMAYAMA,林崎,37.114639,140.946113
平絹谷,タイラキヌヤ,TAIRA KINUYA,柳町,37.089621,140.94607
平菅波,タイラスギナミ,TAIRA SUGINAMI,東作,37.049052,140.947024
四倉町中島,ヨツクラマチナカジマ,YOTSUKURAMACHI NAKAJIMA,四反田,37.117409,140.946807
四倉町中島,ヨツクラマチナカジマ,YOTSUKURAMACHI NAKAJIMA,大久保,37.124838,140.947902
平下神谷,タイラシモカベヤ,TAIRA SHIMOKABEYA,志賀分,37.061318,140.949001
平泉崎,タイライズミザキ,TAIRA IZUMIZAKI,中島,37.077625,140.948928
平下神谷,タイラシモカベヤ,TAIRA SHIMOKABEYA,鍛冶分,37.063315,140.948277
平下高久,タイラシモタカク,TAIRA SHIMOTAKAKU,袴田,37.02868,140.948214
平馬目,タイラマノメ,TAIRA MANOME,宮下,37.083468,140.947557
平下高久,タイラシモタカク,TAIRA SHIMOTAKAKU,中川,37.025211,140.948272
平下神谷,タイラシモカベヤ,TAIRA SHIMOKABEYA,内宿,37.069582,140.948693
四倉町長友,ヨツクラマチナガトモ,YOTSUKURAMACHI NAGATOMO,構江,37.108085,140.947073
平上大越,タイラカミオオゴエ,TAIRA KAMIOGOE,大乗坊,37.045193,140.952612
平泉崎,タイライズミザキ,TAIRA IZUMIZAKI,向原,37.074114,140.949279
平泉崎,タイライズミザキ,TAIRA IZUMIZAKI,前原,37.073237,140.947534
平馬目,タイラマノメ,TAIRA MANOME,馬目崎,37.080651,140.949379
平泉崎,タイライズミザキ,TAIRA IZUMIZAKI,北川,37.079296,140.948607
四倉町白岩,ヨツクラマチシライワ,YOTSUKURAMACHI SHIRAIWA,金波,37.128687,140.950487
平下大越,タイラシモオオゴエ,TAIRA SHIMOOGOE,南作,37.041069,140.953351
平荒田目,タイラアッタメ,TAIRA ATTAME,中田,37.053175,140.951318
平馬目,タイラマノメ,TAIRA MANOME,中道,37.083532,140.950098
四倉町中島,ヨツクラマチナカジマ,YOTSUKURAMACHI NAKAJIMA,反町,37.115556,140.95007
平北神谷,タイラキタカベヤ,TAIRA KITAKABEYA,五反田,37.091989,140.949838
平下神谷,タイラシモカベヤ,TAIRA SHIMOKABEYA,出口,37.071687,140.951644
平下高久,タイラシモタカク,TAIRA SHIMOTAKAKU,馬場,37.030172,140.951062
平下高久,タイラシモタカク,TAIRA SHIMOTAKAKU,前之内,37.027787,140.950692
四倉町中島,ヨツクラマチナカジマ,YOTSUKURAMACHI NAKAJIMA,三反田,37.12183,140.950336
平泉崎,タイライズミザキ,TAIRA IZUMIZAKI,三谷,37.078531,140.950577
平下高久,タイラシモタカク,TAIRA SHIMOTAKAKU,若宮,37.023921,140.95067
平下神谷,タイラシモカベヤ,TAIRA SHIMOKABEYA,六十枚,37.064704,140.950251
平下神谷,タイラシモカベヤ,TAIRA SHIMOKABEYA,南六十枚,37.062692,140.95128
平泉崎,タイライズミザキ,TAIRA IZUMIZAKI,川端,37.076169,140.949989
四倉町玉山,ヨツクラマチタマヤマ,YOTSUKURAMACHI TAMAYAMA,砂子田,37.114507,140.950468
平下神谷,タイラシモカベヤ,TAIRA SHIMOKABEYA,本内,37.067968,140.950744
平泉崎,タイライズミザキ,TAIRA IZUMIZAKI,砂田,37.076905,140.952475
平下神谷,タイラシモカベヤ,TAIRA SHIMOKABEYA,御城,37.069925,140.95173
平荒田目,タイラアッタメ,TAIRA ATTAME,古川,37.055804,140.951585
平絹谷,タイラキヌヤ,TAIRA KINUYA,高田,37.08976,140.951638
平下神谷,タイラシモカベヤ,TAIRA SHIMOKABEYA,仲田,37.074025,140.953196
平荒田目,タイラアッタメ,TAIRA ATTAME,石崎,37.052022,140.95123
平下神谷,タイラシモカベヤ,TAIRA SHIMOKABEYA,表川,37.060002,140.951511
四倉町長友,ヨツクラマチナガトモ,YOTSUKURAMACHI NAGATOMO,霞田,37.110312,140.951703
四倉町中島,ヨツクラマチナカジマ,YOTSUKURAMACHI NAKAJIMA,寺田,37.119167,140.951633
四倉町長友,ヨツクラマチナガトモ,YOTSUKURAMACHI NAGATOMO,五反田,37.105651,140.953794
平馬目,タイラマノメ,TAIRA MANOME,火ノ宮,37.082144,140.952894
四倉町中島,ヨツクラマチナカジマ,YOTSUKURAMACHI NAKAJIMA,六重代,37.116083,140.951916
四倉町長友,ヨツクラマチナガトモ,YOTSUKURAMACHI NAGATOMO,壱町田,37.104876,140.953862
四倉町大森,ヨツクラマチオオモリ,YOTSUKURAMACHI OMORI,上,37.090102,140.954167
平上大越,タイラカミオオゴエ,TAIRA KAMIOGOE,塚越,37.050591,140.952827
四倉町大森,ヨツクラマチオオモリ,YOTSUKURAMACHI OMORI,女房作,37.09165,140.953872
四倉町白岩,ヨツクラマチシライワ,YOTSUKURAMACHI SHIRAIWA,保木田,37.121866,140.95185
四倉町白岩,ヨツクラマチシライワ,YOTSUKURAMACHI SHIRAIWA,戸ノ内,37.12637,140.951487
平荒田目,タイラアッタメ,TAIRA ATTAME,高原,37.055328,140.950688
四倉町白岩,ヨツクラマチシライワ,YOTSUKURAMACHI SHIRAIWA,嘉蔵坊,37.116679,140.952923
四倉町長友,ヨツクラマチナガトモ,YOTSUKURAMACHI NAGATOMO,四反田,37.102236,140.952222
平下神谷,タイラシモカベヤ,TAIRA SHIMOKABEYA,屋敷,37.062453,140.953995
平下高久,タイラシモタカク,TAIRA SHIMOTAKAKU,中妻,37.027373,140.954193
四倉町白岩,ヨツクラマチシライワ,YOTSUKURAMACHI SHIRAIWA,八反田,37.121425,140.953234
平上大越,タイラカミオオゴエ,TAIRA KAMIOGOE,八ツ手,37.051413,140.954969
四倉町名木,ヨツクラマチナギ,YOTSUKURAMACHI NAGI,道下,37.099529,140.952992
四倉町名木,ヨツクラマチナギ,YOTSUKURAMACHI NAGI,葱作,37.100991,140.952569
四倉町白岩,ヨツクラマチシライワ,YOTSUKURAMACHI SHIRAIWA,宮ノ前,37.123673,140.952919
四倉町白岩,ヨツクラマチシライワ,YOTSUKURAMACHI SHIRAIWA,立町,37.118706,140.952982
四倉町名木,ヨツクラマチナギ,YOTSUKURAMACHI NAGI,宮ノ脇,37.10019,140.952781
四倉町名木,ヨツクラマチナギ,YOTSUKURAMACHI NAGI,仲ノ内,37.097382,140.950342
四倉町名木,ヨツクラマチナギ,YOTSUKURAMACHI NAGI,前田,37.097779,140.953079
平下高久,タイラシモタカク,TAIRA SHIMOTAKAKU,古川,37.029727,140.953257
四倉町白岩,ヨツクラマチシライワ,YOTSUKURAMACHI SHIRAIWA,原,37.126142,140.953496
四倉町長友,ヨツクラマチナガトモ,YOTSUKURAMACHI NAGATOMO,宮ノ前,37.101807,140.95525
平上大越,タイラカミオオゴエ,TAIRA KAMIOGOE,沼畑,37.053702,140.953559
四倉町戸田,ヨツクラマチトダ,YOTSUKURAMACHI TODA,水押,37.114428,140.953021
平下神谷,タイラシモカベヤ,TAIRA SHIMOKABEYA,馬場塚,37.064058,140.955433
平下高久,タイラシモタカク,TAIRA SHIMOTAKAKU,蛭坪,37.031671,140.954121
四倉町名木,ヨツクラマチナギ,YOTSUKURAMACHI NAGI,宮ノ前,37.10071,140.954726
平上大越,タイラカミオオゴエ,TAIRA KAMIOGOE,石淵,37.055408,140.954087
四倉町白岩,ヨツクラマチシライワ,YOTSUKURAMACHI SHIRAIWA,川原,37.127934,140.954292
平上大越,タイラカミオオゴエ,TAIRA KAMIOGOE,岸前,37.049936,140.954835
平下神谷,タイラシモカベヤ,TAIRA SHIMOKABEYA,大師,37.067776,140.95488
四倉町名木,ヨツクラマチナギ,YOTSUKURAMACHI NAGI,榎坪,37.09966,140.954784
四倉町白岩,ヨツクラマチシライワ,YOTSUKURAMACHI SHIRAIWA,沼ノ作,37.125525,140.956504
平下神谷,タイラシモカベヤ,TAIRA SHIMOKABEYA,山ノ内,37.070253,140.956377
平下神谷,タイラシモカベヤ,TAIRA SHIMOKABEYA,仲代,37.059601,140.955152
平下神谷,タイラシモカベヤ,TAIRA SHIMOKABEYA,大田代,37.062301,140.955685
平藤間,タイラフジマ,TAIRA FUJIMA,中之内,37.041106,140.958141
平泉崎,タイライズミザキ,TAIRA IZUMIZAKI,下百目木,37.078295,140.956754
平下神谷,タイラシモカベヤ,TAIRA SHIMOKABEYA,原際,37.074954,140.955923
四倉町名木,ヨツクラマチナギ,YOTSUKURAMACHI NAGI,角田,37.095038,140.954921
四倉町白岩,ヨツクラマチシライワ,YOTSUKURAMACHI SHIRAIWA,壱丁田,37.115229,140.955824
平上大越,タイラカミオオゴエ,TAIRA KAMIOGOE,内代,37.055708,140.955929
四倉町名木,ヨツクラマチナギ,YOTSUKURAMACHI NAGI,五反田,37.094481,140.95758
平下高久,タイラシモタカク,TAIRA SHIMOTAKAKU,清水,37.025137,140.957971
四倉町名木,ヨツクラマチナギ,YOTSUKURAMACHI NAGI,荒神下,37.093655,140.954199
四倉町大森,ヨツクラマチオオモリ,YOTSUKURAMACHI OMORI,百目木,37.082206,140.959433
四倉町大森,ヨツクラマチオオモリ,YOTSUKURAMACHI OMORI,八堀,37.091213,140.956843
四倉町狐塚,ヨツクラマチキツネヅカ,YOTSUKURAMACHI KITSUNEZUKA,鎌神,37.097633,140.957446
四倉町名木,ヨツクラマチナギ,YOTSUKURAMACHI NAGI,大仁田,37.095525,140.957538
平原高野,タイラハラゴヤ,TAIRA HARAGOYA,百目木,37.076834,140.956922
平原高野,タイラハラゴヤ,TAIRA HARAGOYA,伊勢前,37.075549,140.957904
平下大越,タイラシモオオゴエ,TAIRA SHIMOOGOE,岸前,37.047491,140.959035
平下大越,タイラシモオオゴエ,TAIRA SHIMOOGOE,石田,37.045095,140.957028
平下大越,タイラシモオオゴエ,TAIRA SHIMOOGOE,根岸,37.044003,140.960157
平下神谷,タイラシモカベヤ,TAIRA SHIMOKABEYA,赤沼,37.06915,140.958873
平下大越,タイラシモオオゴエ,TAIRA SHIMOOGOE,中北,37.049448,140.957931
四倉町戸田,ヨツクラマチトダ,YOTSUKURAMACHI TODA,南高柳,37.109568,140.957296
平下神谷,タイラシモカベヤ,TAIRA SHIMOKABEYA,土井,37.064251,140.959013
平下高久,タイラシモタカク,TAIRA SHIMOTAKAKU,原極,37.029036,140.958556
平下神谷,タイラシモカベヤ,TAIRA SHIMOKABEYA,下屋敷,37.071295,140.958039
四倉町大森,ヨツクラマチオオモリ,YOTSUKURAMACHI OMORI,岸前,37.08664,140.957791
四倉町狐塚,ヨツクラマチキツネヅカ,YOTSUKURAMACHI KITSUNEZUKA,高野堀,37.09149,140.958245
四倉町,ヨツクラマチ,YOTSUKURAMACHI,芳ノ沢,37.124762,140.96852
平下高久,タイラシモタカク,TAIRA SHIMOTAKAKU,大和久,37.035887,140.95798
平藤間,タイラフジマ,TAIRA FUJIMA,千ケ久保,37.036498,140.962538
四倉町大森,ヨツクラマチオオモリ,YOTSUKURAMACHI OMORI,民野町,37.081441,140.960164
平下高久,タイラシモタカク,TAIRA SHIMOTAKAKU,水門,37.031479,140.960453
四倉町大森,ヨツクラマチオオモリ,YOTSUKURAMACHI OMORI,高野,37.088524,140.958926
平原高野,タイラハラゴヤ,TAIRA HARAGOYA,高原,37.076309,140.959916
平下大越,タイラシモオオゴエ,TAIRA SHIMOOGOE,根廻,37.045957,140.958978
平原高野,タイラハラゴヤ,TAIRA HARAGOYA,民野町,37.078709,140.958841
平下神谷,タイラシモカベヤ,TAIRA SHIMOKABEYA,近藤,37.066179,140.962153
平下神谷,タイラシモカベヤ,TAIRA SHIMOKABEYA,久保田,37.061489,140.96121
四倉町,ヨツクラマチ,YOTSUKURAMACHI,田戸前,37.114914,140.971444
平下高久,タイラシモタカク,TAIRA SHIMOTAKAKU,川和久,37.025223,140.960891
四倉町狐塚,ヨツクラマチキツネヅカ,YOTSUKURAMACHI KITSUNEZUKA,八合,37.09981,140.960133
四倉町狐塚,ヨツクラマチキツネヅカ,YOTSUKURAMACHI KITSUNEZUKA,出口,37.097645,140.960328
四倉町狐塚,ヨツクラマチキツネヅカ,YOTSUKURAMACHI KITSUNEZUKA,沼田,37.088295,140.9609
四倉町狐塚,ヨツクラマチキツネヅカ,YOTSUKURAMACHI KITSUNEZUKA,前原,37.095557,140.960261
平下高久,タイラシモタカク,TAIRA SHIMOTAKAKU,定田,37.029578,140.961267
四倉町狐塚,ヨツクラマチキツネヅカ,YOTSUKURAMACHI KITSUNEZUKA,東,37.094311,140.960361
平原高野,タイラハラゴヤ,TAIRA HARAGOYA,北原,37.076394,140.960936
四倉町大森,ヨツクラマチオオモリ,YOTSUKURAMACHI OMORI,原,37.085174,140.960914
平下神谷,タイラシモカベヤ,TAIRA SHIMOKABEYA,杭沼,37.058789,140.960981
四倉町細谷,ヨツクラマチホソヤ,YOTSUKURAMACHI HOSOYA,荒町,37.079127,140.961151
平下神谷,タイラシモカベヤ,TAIRA SHIMOKABEYA,人取沼,37.062816,140.96099
平原高野,タイラハラゴヤ,TAIRA HARAGOYA,大堰,37.071781,140.961289
平下神谷,タイラシモカベヤ,TAIRA SHIMOKABEYA,北大坂,37.063977,140.961186
平原高野,タイラハラゴヤ,TAIRA HARAGOYA,中里,37.074126,140.961886
平下大越,タイラシモオオゴエ,TAIRA SHIMOOGOE,山ノ神,37.051468,140.963367
平下大越,タイラシモオオゴエ,TAIRA SHIMOOGOE,中ノ町,37.04575,140.961227
平下大越,タイラシモオオゴエ,TAIRA SHIMOOGOE,柳葉,37.051326,140.961698
四倉町戸田,ヨツクラマチトダ,YOTSUKURAMACHI TODA,稲荷作,37.110314,140.961189
平下神谷,タイラシモカベヤ,TAIRA SHIMOKABEYA,蓑輪,37.066108,140.960887
四倉町細谷,ヨツクラマチホソヤ,YOTSUKURAMACHI HOSOYA,民野町,37.082309,140.962483
平下大越,タイラシモオオゴエ,TAIRA SHIMOOGOE,屋貸内,37.0448,140.960998
平下高久,タイラシモタカク,TAIRA SHIMOTAKAKU,下原,37.021638,140.96557
四倉町狐塚,ヨツクラマチキツネヅカ,YOTSUKURAMACHI KITSUNEZUKA,雨田,37.096744,140.962884
平神谷作,タイラカミヤサク,TAIRA KAMIYASAKU,堂前,37.015418,140.963005
平下神谷,タイラシモカベヤ,TAIRA SHIMOKABEYA,立場,37.069693,140.961516
四倉町細谷,ヨツクラマチホソヤ,YOTSUKURAMACHI HOSOYA,弁天前,37.085888,140.963158
四倉町細谷,ヨツクラマチホソヤ,YOTSUKURAMACHI HOSOYA,飼料畑,37.080456,140.962252
四倉町狐塚,ヨツクラマチキツネヅカ,YOTSUKURAMACHI KITSUNEZUKA,蟹内,37.095617,140.962913
平神谷作,タイラカミヤサク,TAIRA KAMIYASAKU,腰巻,37.017515,140.961921
四倉町狐塚,ヨツクラマチキツネヅカ,YOTSUKURAMACHI KITSUNEZUKA,水沢,37.093594,140.962967
平下高久,タイラシモタカク,TAIRA SHIMOTAKAKU,牛転,37.033244,140.963273
四倉町狐塚,ヨツクラマチキツネヅカ,YOTSUKURAMACHI KITSUNEZUKA,西原,37.089508,140.964664
平下神谷,タイラシモカベヤ,TAIRA SHIMOKABEYA,南内記,37.058419,140.96391
平下大越,タイラシモオオゴエ,TAIRA SHIMOOGOE,正慶,37.047927,140.965057
四倉町細谷,ヨツクラマチホソヤ,YOTSUKURAMACHI HOSOYA,大町,37.081176,140.96281
四倉町戸田,ヨツクラマチトダ,YOTSUKURAMACHI TODA,堰原,37.106323,140.963862
四倉町戸田,ヨツクラマチトダ,YOTSUKURAMACHI TODA,倉之町,37.105802,140.963738
四倉町狐塚,ヨツクラマチキツネヅカ,YOTSUKURAMACHI KITSUNEZUKA,弁天原,37.086943,140.964014
平下高久,タイラシモタカク,TAIRA SHIMOTAKAKU,八幡,37.0206,140.963043
平原高野,タイラハラゴヤ,TAIRA HARAGOYA,地神田,37.074088,140.963282
平藤間,タイラフジマ,TAIRA FUJIMA,松原,37.042309,140.964455
平下神谷,タイラシモカベヤ,TAIRA SHIMOKABEYA,本内記,37.061027,140.965131
平神谷作,タイラカミヤサク,TAIRA KAMIYASAKU,白穴,37.016796,140.963462
平藤間,タイラフジマ,TAIRA FUJIMA,北町田,37.044454,140.963136
平下高久,タイラシモタカク,TAIRA SHIMOTAKAKU,原,37.026903,140.963139
平下神谷,タイラシモカベヤ,TAIRA SHIMOKABEYA,大神原,37.066596,140.966074
四倉町細谷,ヨツクラマチホソヤ,YOTSUKURAMACHI HOSOYA,大久保,37.078596,140.965091
平下高久,タイラシモタカク,TAIRA SHIMOTAKAKU,中谷地,37.030277,140.963903
平下高久,タイラシモタカク,TAIRA SHIMOTAKAKU,大平,37.033741,140.964933
平藤間,タイラフジマ,TAIRA FUJIMA,南町田,37.039869,140.964002
平下大越,タイラシモオオゴエ,TAIRA SHIMOOGOE,清水,37.051563,140.965124
平神谷作,タイラカミヤサク,TAIRA KAMIYASAKU,中原,37.015916,140.964511
平下神谷,タイラシモカベヤ,TAIRA SHIMOKABEYA,吉袋,37.061611,140.966801
四倉町狐塚,ヨツクラマチキツネヅカ,YOTSUKURAMACHI KITSUNEZUKA,松橋,37.093462,140.966213
平藤間,タイラフジマ,TAIRA FUJIMA,新林,37.036857,140.96472
四倉町細谷,ヨツクラマチホソヤ,YOTSUKURAMACHI HOSOYA,御厩,37.075476,140.96495
平沼ノ内,タイラヌマノウチ,TAIRA NUMANOCHI,西原,37.015026,140.966758
平下大越,タイラシモオオゴエ,TAIRA SHIMOOGOE,川和久,37.048382,140.965014
四倉町狐塚,ヨツクラマチキツネヅカ,YOTSUKURAMACHI KITSUNEZUKA,古川,37.092359,140.966675
平沼ノ内,タイラヌマノウチ,TAIRA NUMANOCHI,諏訪原,37.01845,140.966335
平神谷作,タイラカミヤサク,TAIRA KAMIYASAKU,細谷,37.015346,140.964907
四倉町細谷,ヨツクラマチホソヤ,YOTSUKURAMACHI HOSOYA,馬場,37.080809,140.96513
四倉町細谷,ヨツクラマチホソヤ,YOTSUKURAMACHI HOSOYA,細谷前,37.082508,140.965255
平藤間,タイラフジマ,TAIRA FUJIMA,安養原,37.044275,140.967384
四倉町細谷,ヨツクラマチホソヤ,YOTSUKURAMACHI HOSOYA,大江下,37.085927,140.965604
平神谷作,タイラカミヤサク,TAIRA KAMIYASAKU,古屋敷,37.013305,140.96512
平藤間,タイラフジマ,TAIRA FUJIMA,中谷地,37.039012,140.965974
四倉町狐塚,ヨツクラマチキツネヅカ,YOTSUKURAMACHI KITSUNEZUKA,東原,37.088858,140.966187
四倉町戸田,ヨツクラマチトダ,YOTSUKURAMACHI TODA,平次郎前,37.106429,140.965538
平藤間,タイラフジマ,TAIRA FUJIMA,林,37.043169,140.966376
大久町小山田,オオヒサマチオヤマダ,OHISAMACHI OYAMADA,沢田,37.132253,140.970211
平下高久,タイラシモタカク,TAIRA SHIMOTAKAKU,南谷地,37.027204,140.969877
平下神谷,タイラシモカベヤ,TAIRA SHIMOKABEYA,西大苗代,37.073348,140.967176
四倉町戸田,ヨツクラマチトダ,YOTSUKURAMACHI TODA,寺田,37.105171,140.966568
大久町小山田,オオヒサマチオヤマダ,OHISAMACHI OYAMADA,道下,37.136897,140.969975
四倉町戸田,ヨツクラマチトダ,YOTSUKURAMACHI TODA,古川,37.10508,140.967712
四倉町細谷,ヨツクラマチホソヤ,YOTSUKURAMACHI HOSOYA,小橋前,37.08615,140.968982
四倉町塩木,ヨツクラマチシオキ,YOTSUKURAMACHI SHIOKI,水久保,37.098341,140.96668
平下大越,タイラシモオオゴエ,TAIRA SHIMOOGOE,北横手,37.051765,140.967359
平下大越,タイラシモオオゴエ,TAIRA SHIMOOGOE,南横手,37.048592,140.970933
平下大越,タイラシモオオゴエ,TAIRA SHIMOOGOE,高畑,37.049346,140.96724
平沼ノ内,タイラヌマノウチ,TAIRA NUMANOCHI,代ノ下,37.010432,140.969042
平藤間,タイラフジマ,TAIRA FUJIMA,鯨,37.044066,140.971629
平下神谷,タイラシモカベヤ,TAIRA SHIMOKABEYA,東根田倉,37.06459,140.967544
平沼ノ内,タイラヌマノウチ,TAIRA NUMANOCHI,原後,37.012296,140.969149
四倉町細谷,ヨツクラマチホソヤ,YOTSUKURAMACHI HOSOYA,四反歩,37.080679,140.967729
四倉町塩木,ヨツクラマチシオキ,YOTSUKURAMACHI SHIOKI,家ノ内,37.098099,140.968772
平下大越,タイラシモオオゴエ,TAIRA SHIMOOGOE,北萱野,37.054021,140.96815
平藤間,タイラフジマ,TAIRA FUJIMA,沼田,37.039101,140.967796
平下神谷,タイラシモカベヤ,TAIRA SHIMOKABEYA,東大苗代,37.072723,140.967886
四倉町狐塚,ヨツクラマチキツネヅカ,YOTSUKURAMACHI KITSUNEZUKA,川田,37.088533,140.969393
平下神谷,タイラシモカベヤ,TAIRA SHIMOKABEYA,堤原,37.068297,140.970623
四倉町戸田,ヨツクラマチトダ,YOTSUKURAMACHI TODA,堰下,37.104138,140.969404
四倉町戸田,ヨツクラマチトダ,YOTSUKURAMACHI TODA,蛭田,37.107514,140.968093
平下神谷,タイラシモカベヤ,TAIRA SHIMOKABEYA,亀下,37.061479,140.970949
平藤間,タイラフジマ,TAIRA FUJIMA,柴崎,37.044328,140.968481
四倉町戸田,ヨツクラマチトダ,YOTSUKURAMACHI TODA,浮島,37.108743,140.96799
四倉町上仁井田,ヨツクラマチカミニイダ,YOTSUKURAMACHI KAMINIIDA,鬼越,37.100805,140.97011
平藤間,タイラフジマ,TAIRA FUJIMA,北谷地,37.042267,140.969165
四倉町細谷,ヨツクラマチホソヤ,YOTSUKURAMACHI HOSOYA,菖蒲谷地,37.080559,140.969164
平下神谷,タイラシモカベヤ,TAIRA SHIMOKABEYA,釜ノ後,37.065125,140.969945
四倉町狐塚,ヨツクラマチキツネヅカ,YOTSUKURAMACHI KITSUNEZUKA,小橋,37.089334,140.968612
平下高久,タイラシモタカク,TAIRA SHIMOTAKAKU,北谷地,37.033139,140.970101
四倉町塩木,ヨツクラマチシオキ,YOTSUKURAMACHI SHIOKI,高田,37.094597,140.969707
平下神谷,タイラシモカベヤ,TAIRA SHIMOKABEYA,古屋敷,37.067727,140.969216
平沼ノ内,タイラヌマノウチ,TAIRA NUMANOCHI,新街,37.012002,140.971149
平下神谷,タイラシモカベヤ,TAIRA SHIMOKABEYA,松影,37.066102,140.970317
四倉町下仁井田,ヨツクラマチシモニイダ,YOTSUKURAMACHI SHIMONIIDA,西袋,37.087987,140.970879
四倉町細谷,ヨツクラマチホソヤ,YOTSUKURAMACHI HOSOYA,日渡,37.084397,140.970561
四倉町細谷,ヨツクラマチホソヤ,YOTSUKURAMACHI HOSOYA,胎月前,37.080363,140.970469
四倉町,ヨツクラマチ,YOTSUKURAMACHI,田戸,37.116634,140.97443
四倉町塩木,ヨツクラマチシオキ,YOTSUKURAMACHI SHIOKI,小橋本,37.091308,140.97001
四倉町下仁井田,ヨツクラマチシモニイダ,YOTSUKURAMACHI SHIMONIIDA,南追切,37.089905,140.97242
四倉町下仁井田,ヨツクラマチシモニイダ,YOTSUKURAMACHI SHIMONIIDA,道庭,37.087682,140.97279
平藤間,タイラフジマ,TAIRA FUJIMA,川前,37.036265,140.969875
四倉町上仁井田,ヨツクラマチカミニイダ,YOTSUKURAMACHI KAMINIIDA,松葉,37.095707,140.974297
四倉町下仁井田,ヨツクラマチシモニイダ,YOTSUKURAMACHI SHIMONIIDA,北追切,37.093371,140.973153
大久町小山田,オオヒサマチオヤマダ,OHISAMACHI OYAMADA,岸田,37.136461,140.972008
四倉町細谷,ヨツクラマチホソヤ,YOTSUKURAMACHI HOSOYA,御殿東,37.077677,140.972429
四倉町塩木,ヨツクラマチシオキ,YOTSUKURAMACHI SHIOKI,高橋本,37.093651,140.972475
四倉町細谷,ヨツクラマチホソヤ,YOTSUKURAMACHI HOSOYA,豊向,37.079981,140.972608
四倉町下仁井田,ヨツクラマチシモニイダ,YOTSUKURAMACHI SHIMONIIDA,樋向,37.082287,140.974708
四倉町,ヨツクラマチ,YOTSUKURAMACHI,鬼越,37.103959,140.977222
四倉町下仁井田,ヨツクラマチシモニイダ,YOTSUKURAMACHI SHIMONIIDA,上古川,37.083265,140.972809
四倉町上仁井田,ヨツクラマチカミニイダ,YOTSUKURAMACHI KAMINIIDA,岸前,37.09999,140.972538
平沼ノ内,タイラヌマノウチ,TAIRA NUMANOCHI,浜街,37.011843,140.974668
四倉町上仁井田,ヨツクラマチカミニイダ,YOTSUKURAMACHI KAMINIIDA,家ノ前,37.093513,140.974989
四倉町細谷,ヨツクラマチホソヤ,YOTSUKURAMACHI HOSOYA,水俣,37.07486,140.974062
四倉町下仁井田,ヨツクラマチシモニイダ,YOTSUKURAMACHI SHIMONIIDA,町田,37.090472,140.975622
平下神谷,タイラシモカベヤ,TAIRA SHIMOKABEYA,釜ノ台,37.068209,140.974879
四倉町下仁井田,ヨツクラマチシモニイダ,YOTSUKURAMACHI SHIMONIIDA,夕原,37.087791,140.974733
四倉町細谷,ヨツクラマチホソヤ,YOTSUKURAMACHI HOSOYA,堀込,37.079839,140.974296
四倉町上仁井田,ヨツクラマチカミニイダ,YOTSUKURAMACHI KAMINIIDA,内城,37.100503,140.975788
四倉町上仁井田,ヨツクラマチカミニイダ,YOTSUKURAMACHI KAMINIIDA,東ノ内,37.094145,140.975611
四倉町,ヨツクラマチ,YOTSUKURAMACHI,栗木作,37.11937,140.978568
四倉町上仁井田,ヨツクラマチカミニイダ,YOTSUKURAMACHI KAMINIIDA,矢ノ田,37.099353,140.975868
四倉町,ヨツクラマチ,YOTSUKURAMACHI,下仁井田須賀向,37.081383,140.979341
四倉町,ヨツクラマチ,YOTSUKURAMACHI,梅ケ丘南,37.105654,140.97643
四倉町上仁井田,ヨツクラマチカミニイダ,YOTSUKURAMACHI KAMINIIDA,折敷田,37.096477,140.976298
四倉町細谷,ヨツクラマチホソヤ,YOTSUKURAMACHI HOSOYA,明神前,37.081743,140.977583
大久町大久,オオヒサマチオオヒサ,OHISAMACHI OHISA,川上,37.158179,140.975613
大久町小久,オオヒサマチコヒサ,OHISAMACHI KOHISA,下蔵内,37.139256,140.976821
四倉町上仁井田,ヨツクラマチカミニイダ,YOTSUKURAMACHI KAMINIIDA,南細谷,37.09812,140.977395
四倉町上仁井田,ヨツクラマチカミニイダ,YOTSUKURAMACHI KAMINIIDA,千歳,37.101265,140.976425
四倉町上仁井田,ヨツクラマチカミニイダ,YOTSUKURAMACHI KAMINIIDA,南姥田,37.095129,140.976954
四倉町下仁井田,ヨツクラマチシモニイダ,YOTSUKURAMACHI SHIMONIIDA,明神前,37.083319,140.977851
四倉町上仁井田,ヨツクラマチカミニイダ,YOTSUKURAMACHI KAMINIIDA,砂田,37.092491,140.979218
四倉町,ヨツクラマチ,YOTSUKURAMACHI,町田,37.111803,140.982005
大久町大久,オオヒサマチオオヒサ,OHISAMACHI OHISA,田仲,37.155841,140.97827
四倉町上仁井田,ヨツクラマチカミニイダ,YOTSUKURAMACHI KAMINIIDA,夕円,37.098846,140.979939
四倉町上仁井田,ヨツクラマチカミニイダ,YOTSUKURAMACHI KAMINIIDA,北姥田,37.095759,140.977471
四倉町上仁井田,ヨツクラマチカミニイダ,YOTSUKURAMACHI KAMINIIDA,雁又,37.096991,140.979028
四倉町,ヨツクラマチ,YOTSUKURAMACHI,梅ケ丘,37.106774,140.98132
四倉町上仁井田,ヨツクラマチカミニイダ,YOTSUKURAMACHI KAMINIIDA,鰻沼,37.091828,140.977625
四倉町上仁井田,ヨツクラマチカミニイダ,YOTSUKURAMACHI KAMINIIDA,横川,37.094704,140.98305
大久町小久,オオヒサマチコヒサ,OHISAMACHI KOHISA,柳沢,37.138562,140.980772
大久町小久,オオヒサマチコヒサ,OHISAMACHI KOHISA,町田前,37.140417,140.97988
四倉町,ヨツクラマチ,YOTSUKURAMACHI,西一丁目,37.101194,140.981269
四倉町上仁井田,ヨツクラマチカミニイダ,YOTSUKURAMACHI KAMINIIDA,前原,37.098262,140.980872
四倉町上仁井田,ヨツクラマチカミニイダ,YOTSUKURAMACHI KAMINIIDA,南浜,37.094643,140.980194
四倉町上仁井田,ヨツクラマチカミニイダ,YOTSUKURAMACHI KAMINIIDA,北浜,37.09709,140.981856
四倉町上仁井田,ヨツクラマチカミニイダ,YOTSUKURAMACHI KAMINIIDA,蒲沼,37.094194,140.981491
久之浜町久之浜,ヒサノハママチヒサノハマ,HISANOHAMAMACHI HISANOHAMA,入大場,37.147283,140.981051
四倉町,ヨツクラマチ,YOTSUKURAMACHI,北向,37.109596,140.982074
四倉町上仁井田,ヨツクラマチカミニイダ,YOTSUKURAMACHI KAMINIIDA,東山,37.094239,140.984631
大久町小久,オオヒサマチコヒサ,OHISAMACHI KOHISA,仲川,37.141132,140.982762
四倉町,ヨツクラマチ,YOTSUKURAMACHI,西二丁目,37.103674,140.983859
大久町小久,オオヒサマチコヒサ,OHISAMACHI KOHISA,大場,37.147639,140.980228
大久町小久,オオヒサマチコヒサ,OHISAMACHI KOHISA,田仲,37.142438,140.98488
四倉町,ヨツクラマチ,YOTSUKURAMACHI,東一丁目,37.099395,140.984707
大久町大久,オオヒサマチオオヒサ,OHISAMACHI OHISA,脇,37.153241,140.985228
大久町大久,オオヒサマチオオヒサ,OHISAMACHI OHISA,滝尻,37.157816,140.98196
四倉町,ヨツクラマチ,YOTSUKURAMACHI,和具,37.113613,140.983546
四倉町,ヨツクラマチ,YOTSUKURAMACHI,東二丁目,37.102295,140.98809
四倉町,ヨツクラマチ,YOTSUKURAMACHI,西四丁目,37.109847,140.987185
大久町大久,オオヒサマチオオヒサ,OHISAMACHI OHISA,猿田,37.153491,140.988018
四倉町,ヨツクラマチ,YOTSUKURAMACHI,八日十日,37.112714,140.986141
四倉町,ヨツクラマチ,YOTSUKURAMACHI,東三丁目,37.105661,140.989084
大久町大久,オオヒサマチオオヒサ,OHISAMACHI OHISA,砂里,37.149916,140.986935
大久町小久,オオヒサマチコヒサ,OHISAMACHI KOHISA,狸作,37.136634,140.989159
四倉町,ヨツクラマチ,YOTSUKURAMACHI,東四丁目,37.107642,140.990668
久之浜町久之浜,ヒサノハママチヒサノハマ,HISANOHAMAMACHI HISANOHAMA,犬松沢,37.138503,140.99077
久之浜町久之浜,ヒサノハママチヒサノハマ,HISANOHAMAMACHI HISANOHAMA,中野,37.131678,140.994088
久之浜町久之浜,ヒサノハママチヒサノハマ,HISANOHAMAMACHI HISANOHAMA,正蛇,37.147997,140.989951
久之浜町久之浜,ヒサノハママチヒサノハマ,HISANOHAMAMACHI HISANOHAMA,大場,37.146117,140.990186
大久町小久,オオヒサマチコヒサ,OHISAMACHI KOHISA,連郷,37.143153,140.990863
四倉町,ヨツクラマチ,YOTSUKURAMACHI,五丁目,37.109568,140.990921
大久町大久,オオヒサマチオオヒサ,OHISAMACHI OHISA,北田,37.152665,140.994483
久之浜町久之浜,ヒサノハママチヒサノハマ,HISANOHAMAMACHI HISANOHAMA,連郷,37.142578,140.990998
久之浜町久之浜,ヒサノハママチヒサノハマ,HISANOHAMAMACHI HISANOHAMA,木ノ下,37.142725,140.991685
久之浜町田之網,ヒサノハママチタノアミ,HISANOHAMAMACHI TANOAMI,西ノ内,37.125144,140.991795
久之浜町久之浜,ヒサノハママチヒサノハマ,HISANOHAMAMACHI HISANOHAMA,水上,37.141076,140.992601
四倉町,ヨツクラマチ,YOTSUKURAMACHI,六丁目,37.108822,140.99545
久之浜町久之浜,ヒサノハママチヒサノハマ,HISANOHAMAMACHI HISANOHAMA,北畑田,37.144099,140.995591
久之浜町久之浜,ヒサノハママチヒサノハマ,HISANOHAMAMACHI HISANOHAMA,館ノ山,37.150122,140.996821
久之浜町久之浜,ヒサノハママチヒサノハマ,HISANOHAMAMACHI HISANOHAMA,東三松,37.146062,140.998149
久之浜町久之浜,ヒサノハママチヒサノハマ,HISANOHAMAMACHI HISANOHAMA,前三松,37.145794,140.99631
久之浜町田之網,ヒサノハママチタノアミ,HISANOHAMAMACHI TANOAMI,江之網,37.115222,140.997264
久之浜町久之浜,ヒサノハママチヒサノハマ,HISANOHAMAMACHI HISANOHAMA,北荒蒔,37.142334,140.996465
久之浜町久之浜,ヒサノハママチヒサノハマ,HISANOHAMAMACHI HISANOHAMA,南荒蒔,37.141295,140.996671
久之浜町田之網,ヒサノハママチタノアミ,HISANOHAMAMACHI TANOAMI,横内,37.120233,140.995687
久之浜町久之浜,ヒサノハママチヒサノハマ,HISANOHAMAMACHI HISANOHAMA,水深,37.139428,140.996713
久之浜町久之浜,ヒサノハママチヒサノハマ,HISANOHAMAMACHI HISANOHAMA,沢目,37.142954,140.996826
久之浜町久之浜,ヒサノハママチヒサノハマ,HISANOHAMAMACHI HISANOHAMA,後原,37.138535,140.996887
久之浜町久之浜,ヒサノハママチヒサノハマ,HISANOHAMAMACHI HISANOHAMA,南町,37.138595,140.997629
久之浜町久之浜,ヒサノハママチヒサノハマ,HISANOHAMAMACHI HISANOHAMA,東町尻,37.144843,140.998065
久之浜町久之浜,ヒサノハママチヒサノハマ,HISANOHAMAMACHI HISANOHAMA,北町,37.143073,140.998942
久之浜町久之浜,ヒサノハママチヒサノハマ,HISANOHAMAMACHI HISANOHAMA,町後,37.144141,140.99936
久之浜町久之浜,ヒサノハママチヒサノハマ,HISANOHAMAMACHI HISANOHAMA,中町,37.140368,140.998961
久之浜町金ケ沢,ヒサノハママチカネガサワ,HISANOHAMAMACHI KANEGASAWA,南磯脇,37.151048,141.000484
久之浜町久之浜,ヒサノハママチヒサノハマ,HISANOHAMAMACHI HISANOHAMA,東町,37.142623,140.99994
久之浜町久之浜,ヒサノハママチヒサノハマ,HISANOHAMAMACHI HISANOHAMA,立町,37.146379,140.999717
久之浜町金ケ沢,ヒサノハママチカネガサワ,HISANOHAMAMACHI KANEGASAWA,江添,37.162239,140.99884
久之浜町金ケ沢,ヒサノハママチカネガサワ,HISANOHAMAMACHI KANEGASAWA,藪下,37.158379,140.996406
久之浜町金ケ沢,ヒサノハママチカネガサワ,HISANOHAMAMACHI KANEGASAWA,明不作,37.155988,140.996974
久之浜町金ケ沢,ヒサノハママチカネガサワ,HISANOHAMAMACHI KANEGASAWA,戸ノ入,37.155946,141.000207
久之浜町金ケ沢,ヒサノハママチカネガサワ,HISANOHAMAMACHI KANEGASAWA,原見坂,37.153168,140.998286
大久町大久,オオヒサマチオオヒサ,OHISAMACHI OHISA,石坪,37.153648,140.990288
久之浜町金ケ沢,ヒサノハママチカネガサワ,HISANOHAMAMACHI KANEGASAWA,鹿野,37.157839,140.999041
大久町大久,オオヒサマチオオヒサ,OHISAMACHI OHISA,日渡,37.157415,140.978486
久之浜町久之浜,ヒサノハママチヒサノハマ,HISANOHAMAMACHI HISANOHAMA,北田,37.148934,140.995919
久之浜町久之浜,ヒサノハママチヒサノハマ,HISANOHAMAMACHI HISANOHAMA,川田,37.147922,140.996099
久之浜町久之浜,ヒサノハママチヒサノハマ,HISANOHAMAMACHI HISANOHAMA,代,37.149499,140.996541
久之浜町久之浜,ヒサノハママチヒサノハマ,HISANOHAMAMACHI HISANOHAMA,代ノ下,37.147862,140.997278
久之浜町久之浜,ヒサノハママチヒサノハマ,HISANOHAMAMACHI HISANOHAMA,立下,37.145544,141.000392
大久町大久,オオヒサマチオオヒサ,OHISAMACHI OHISA,沢小屋,37.153814,140.975623
大久町大久,オオヒサマチオオヒサ,OHISAMACHI OHISA,唐貝内,37.153873,140.978739
大久町小久,オオヒサマチコヒサ,OHISAMACHI KOHISA,滝ノ沢,37.141961,140.979054
大久町小久,オオヒサマチコヒサ,OHISAMACHI KOHISA,堤田,37.145213,140.972055
大久町小久,オオヒサマチコヒサ,OHISAMACHI KOHISA,空代内,37.139158,140.970839
大久町小久,オオヒサマチコヒサ,OHISAMACHI KOHISA,小屋下,37.140088,140.973466
大久町小久,オオヒサマチコヒサ,OHISAMACHI KOHISA,猿田,37.136141,140.9815
大久町小久,オオヒサマチコヒサ,OHISAMACHI KOHISA,研内,37.136643,140.986425
久之浜町久之浜,ヒサノハママチヒサノハマ,HISANOHAMAMACHI HISANOHAMA,後三松,37.14656,140.996295
久之浜町久之浜,ヒサノハママチヒサノハマ,HISANOHAMAMACHI HISANOHAMA,西町尻,37.144775,140.99678
久之浜町久之浜,ヒサノハママチヒサノハマ,HISANOHAMAMACHI HISANOHAMA,南畑田,37.143039,140.9947
久之浜町久之浜,ヒサノハママチヒサノハマ,HISANOHAMAMACHI HISANOHAMA,新地,37.145695,140.995498
久之浜町久之浜,ヒサノハママチヒサノハマ,HISANOHAMAMACHI HISANOHAMA,堀ノ内,37.145033,140.995595
久之浜町久之浜,ヒサノハママチヒサノハマ,HISANOHAMAMACHI HISANOHAMA,九反坪,37.140627,140.996691
久之浜町久之浜,ヒサノハママチヒサノハマ,HISANOHAMAMACHI HISANOHAMA,岸内,37.139862,140.993563
久之浜町久之浜,ヒサノハママチヒサノハマ,HISANOHAMAMACHI HISANOHAMA,達中,37.138144,140.996789
久之浜町久之浜,ヒサノハママチヒサノハマ,HISANOHAMAMACHI HISANOHAMA,御前田,37.143011,140.99502
久之浜町久之浜,ヒサノハママチヒサノハマ,HISANOHAMAMACHI HISANOHAMA,柳町,37.141395,140.994702
久之浜町久之浜,ヒサノハママチヒサノハマ,HISANOHAMAMACHI HISANOHAMA,前山,37.13605,140.996327
久之浜町久之浜,ヒサノハママチヒサノハマ,HISANOHAMAMACHI HISANOHAMA,沢ノ平,37.136407,140.993486
久之浜町田之網,ヒサノハママチタノアミ,HISANOHAMAMACHI TANOAMI,静,37.126095,140.997209
久之浜町田之網,ヒサノハママチタノアミ,HISANOHAMAMACHI TANOAMI,浜川,37.123613,140.996533
久之浜町田之網,ヒサノハママチタノアミ,HISANOHAMAMACHI TANOAMI,北ノ町,37.124523,140.995145
久之浜町田之網,ヒサノハママチタノアミ,HISANOHAMAMACHI TANOAMI,向山,37.122743,140.98842
久之浜町田之網,ヒサノハママチタノアミ,HISANOHAMAMACHI TANOAMI,南作,37.121008,140.993194
久之浜町田之網,ヒサノハママチタノアミ,HISANOHAMAMACHI TANOAMI,浜田,37.123711,140.995582
久之浜町田之網,ヒサノハママチタノアミ,HISANOHAMAMACHI TANOAMI,鷹ノ巣,37.116259,140.999818
四倉町,ヨツクラマチ,YOTSUKURAMACHI,志津,37.11184,140.997196
四倉町,ヨツクラマチ,YOTSUKURAMACHI,寺作,37.111421,140.978693
四倉町戸田,ヨツクラマチトダ,YOTSUKURAMACHI TODA,箒作,37.106509,140.969271
四倉町上仁井田,ヨツクラマチカミニイダ,YOTSUKURAMACHI KAMINIIDA,北細谷,37.099633,140.980342
四倉町塩木,ヨツクラマチシオキ,YOTSUKURAMACHI SHIOKI,道東,37.092198,140.971833
四倉町細谷,ヨツクラマチホソヤ,YOTSUKURAMACHI HOSOYA,御殿,37.076901,140.970452
四倉町細谷,ヨツクラマチホソヤ,YOTSUKURAMACHI HOSOYA,蒲沼,37.074384,140.972474
平下神谷,タイラシモカベヤ,TAIRA SHIMOKABEYA,壁無,37.070576,140.971468
平下神谷,タイラシモカベヤ,TAIRA SHIMOKABEYA,九ノ内,37.063056,140.971696
平下神谷,タイラシモカベヤ,TAIRA SHIMOKABEYA,沢帯,37.059657,140.966365
平下大越,タイラシモオオゴエ,TAIRA SHIMOOGOE,芦替,37.054811,140.97053
平下大越,タイラシモオオゴエ,TAIRA SHIMOOGOE,大麦畑,37.049301,140.964957
平下大越,タイラシモオオゴエ,TAIRA SHIMOOGOE,細田,37.049187,140.960026
平神谷作,タイラカミヤサク,TAIRA KAMIYASAKU,原前,37.014309,140.963052
平沼ノ内,タイラヌマノウチ,TAIRA NUMANOCHI,関ノ上,37.013896,140.96771
平沼ノ内,タイラヌマノウチ,TAIRA NUMANOCHI,北ノ内,37.012032,140.967234
平沼ノ内,タイラヌマノウチ,TAIRA NUMANOCHI,仕付田,37.008974,140.967037
大久町大久,オオヒサマチオオヒサ,OHISAMACHI OHISA,松小屋,37.152906,140.971761
大久町大久,オオヒサマチオオヒサ,OHISAMACHI OHISA,大場,37.145886,140.981341
大久町大久,オオヒサマチオオヒサ,OHISAMACHI OHISA,祢宜内,37.149788,140.982455
大久町大久,オオヒサマチオオヒサ,OHISAMACHI OHISA,中里,37.153243,140.981422
大久町小久,オオヒサマチコヒサ,OHISAMACHI KOHISA,火之口,37.14419,140.974917
久之浜町久之浜,ヒサノハママチヒサノハマ,HISANOHAMAMACHI HISANOHAMA,糠塚,37.142986,140.992897
久之浜町久之浜,ヒサノハママチヒサノハマ,HISANOHAMAMACHI HISANOHAMA,桂田,37.142013,140.992843
久之浜町久之浜,ヒサノハママチヒサノハマ,HISANOHAMAMACHI HISANOHAMA,籠内,37.140764,140.994483
久之浜町田之網,ヒサノハママチタノアミ,HISANOHAMAMACHI TANOAMI,古内,37.126272,140.99451
久之浜町田之網,ヒサノハママチタノアミ,HISANOHAMAMACHI TANOAMI,小豆田,37.124574,140.992248
久之浜町田之網,ヒサノハママチタノアミ,HISANOHAMAMACHI TANOAMI,柿内,37.126678,140.984741
大久町小久,オオヒサマチコヒサ,OHISAMACHI KOHISA,西船場,37.131368,140.987131
四倉町白岩,ヨツクラマチシライワ,YOTSUKURAMACHI SHIRAIWA,中ノ内,37.127563,140.952484
四倉町白岩,ヨツクラマチシライワ,YOTSUKURAMACHI SHIRAIWA,北ノ作,37.123342,140.951003
四倉町白岩,ヨツクラマチシライワ,YOTSUKURAMACHI SHIRAIWA,堀ノ内,37.124803,140.951047
久之浜町田之網,ヒサノハママチタノアミ,HISANOHAMAMACHI TANOAMI,舟戸,37.117442,140.998894
平下大越,タイラシモオオゴエ,TAIRA SHIMOOGOE,堀川,37.04808,140.963274
平上大越,タイラカミオオゴエ,TAIRA KAMIOGOE,五味作,37.048807,140.953021
平上大越,タイラカミオオゴエ,TAIRA KAMIOGOE,中丸,37.045686,140.950394
平上大越,タイラカミオオゴエ,TAIRA KAMIOGOE,石崎,37.049557,140.948938
平菅波,タイラスギナミ,TAIRA SUGINAMI,永井,37.044536,140.941321
平菅波,タイラスギナミ,TAIRA SUGINAMI,永南,37.046307,140.940651
平菅波,タイラスギナミ,TAIRA SUGINAMI,南作,37.041639,140.935532
平下高久,タイラシモタカク,TAIRA SHIMOTAKAKU,山之入,37.037572,140.949294
平下高久,タイラシモタカク,TAIRA SHIMOTAKAKU,小館,37.033692,140.947596
平上高久,タイラカミタカク,TAIRA KAMITAKAKU,高島,37.034849,140.940064
平上高久,タイラカミタカク,TAIRA KAMITAKAKU,菅田,37.036596,140.929842
平中山,タイラナカヤマ,TAIRA NAKAYAMA,桜町,37.031829,140.9148
平小泉,タイラコイズミ,TAIRA KOIZUMI,馬場,37.028703,140.919718
平谷川瀬,タイラヤガワセ,TAIRA YAGAWASE,堂ノ入,37.044295,140.893264
平上荒川,タイラカミアラカワ,TAIRA KAMIARAKAWA,島田,37.035807,140.894242
平下荒川,タイラシモアラカワ,TAIRA SHIMOARAKAWA,大作,37.036172,140.900629
常磐上矢田町,ジョウバンカミヤダマチ,JOBAN KAMIYADAMACHI,叶作,37.02157,140.902094
常磐上矢田町,ジョウバンカミヤダマチ,JOBAN KAMIYADAMACHI,道上作,37.014495,140.905878
常磐上矢田町,ジョウバンカミヤダマチ,JOBAN KAMIYADAMACHI,荒神作,37.016938,140.903415
常磐上矢田町,ジョウバンカミヤダマチ,JOBAN KAMIYADAMACHI,小屋下,37.013744,140.906227
常磐上矢田町,ジョウバンカミヤダマチ,JOBAN KAMIYADAMACHI,中沢目,37.012865,140.905848
常磐上矢田町,ジョウバンカミヤダマチ,JOBAN KAMIYADAMACHI,草ケ谷,37.013199,140.906796
鹿島町下矢田,カシママチシモヤダ,KASHIMAMACHI SHIMOYADA,勝負作,37.009642,140.915195
平上山口,タイラカミヤマグチ,TAIRA KAMIYAMAGUCHI,反返,37.0179,140.937504
平上山口,タイラカミヤマグチ,TAIRA KAMIYAMAGUCHI,古保内,37.016986,140.938132
平上山口,タイラカミヤマグチ,TAIRA KAMIYAMAGUCHI,片畑,37.017149,140.937359
平鶴ケ井,タイラツルガイ,TAIRA TSURUGAI,八反田,37.021929,140.947873
平鶴ケ井,タイラツルガイ,TAIRA TSURUGAI,辰ノ沢,37.019777,140.948571
平下高久,タイラシモタカク,TAIRA SHIMOTAKAKU,大志田,37.020141,140.954907
平下高久,タイラシモタカク,TAIRA SHIMOTAKAKU,久保ノ作,37.024081,140.952692
平菅波,タイラスギナミ,TAIRA SUGINAMI,稲荷前,37.05073,140.932604
平菅波,タイラスギナミ,TAIRA SUGINAMI,腰巻,37.051544,140.936143
平山崎,タイラヤマザキ,TAIRA YAMAZAKI,辰ノ口,37.055591,140.938448
平荒田目,タイラアッタメ,TAIRA ATTAME,八反田,37.05555,140.940448
平北白土,タイラキタシラド,TAIRA KITASHIRADO,三倉,37.05223,140.904214
平北白土,タイラキタシラド,TAIRA KITASHIRADO,原後,37.052435,140.901269
平北白土,タイラキタシラド,TAIRA KITASHIRADO,笊田,37.052339,140.90273
平,タイラ,TAIRA,南町,37.054577,140.892987
常磐上矢田町,ジョウバンカミヤダマチ,JOBAN KAMIYADAMACHI,山ノ神前,37.01938,140.901515
常磐上矢田町,ジョウバンカミヤダマチ,JOBAN KAMIYADAMACHI,申田,37.017239,140.9012
常磐上矢田町,ジョウバンカミヤダマチ,JOBAN KAMIYADAMACHI,江添,37.018351,140.902005
常磐上矢田町,ジョウバンカミヤダマチ,JOBAN KAMIYADAMACHI,居作,37.017726,140.903974
常磐上矢田町,ジョウバンカミヤダマチ,JOBAN KAMIYADAMACHI,わらび作,37.019575,140.903061
常磐上矢田町,ジョウバンカミヤダマチ,JOBAN KAMIYADAMACHI,頭田,37.021545,140.900071
常磐上矢田町,ジョウバンカミヤダマチ,JOBAN KAMIYADAMACHI,南ノ沢,37.021132,140.892081
平下荒川,タイラシモアラカワ,TAIRA SHIMOARAKAWA,五理内,37.038724,140.907881
平南白土,タイラミナミシラド,TAIRA MINAMISHIRADO,竜沢,37.046364,140.91945
平南白土,タイラミナミシラド,TAIRA MINAMISHIRADO,湯崎,37.046174,140.922729
常磐上矢田町,ジョウバンカミヤダマチ,JOBAN KAMIYADAMACHI,深田,37.021813,140.899103
平,タイラ,TAIRA,上川原,37.061432,140.900874
平鎌田,タイラカマタ,TAIRA KAMATA,味噌能,37.059944,140.90726
平鎌田,タイラカマタ,TAIRA KAMATA,石切場,37.060379,140.911862
平鎌田,タイラカマタ,TAIRA KAMATA,大町,37.059245,140.910424
平塩,タイラシオ,TAIRA SHIO,古川,37.059888,140.915967
平塩,タイラシオ,TAIRA SHIO,上川原,37.057723,140.918779
平塩,タイラシオ,TAIRA SHIO,呑内,37.05807,140.919573
平塩,タイラシオ,TAIRA SHIO,西川原,37.057732,140.919705
平下神谷,タイラシモカベヤ,TAIRA SHIMOKABEYA,二合地,37.063771,140.949154
四倉町細谷,ヨツクラマチホソヤ,YOTSUKURAMACHI HOSOYA,胎月原,37.083707,140.969679
四倉町細谷,ヨツクラマチホソヤ,YOTSUKURAMACHI HOSOYA,北江添,37.08209,140.969327
四倉町下仁井田,ヨツクラマチシモニイダ,YOTSUKURAMACHI SHIMONIIDA,南袋,37.085477,140.97168
四倉町細谷,ヨツクラマチホソヤ,YOTSUKURAMACHI HOSOYA,江向,37.084119,140.967339
四倉町塩木,ヨツクラマチシオキ,YOTSUKURAMACHI SHIOKI,八合,37.093746,140.968216
四倉町長友,ヨツクラマチナガトモ,YOTSUKURAMACHI NAGATOMO,町田,37.107529,140.955002
四倉町長友,ヨツクラマチナガトモ,YOTSUKURAMACHI NAGATOMO,七反田,37.10792,140.951319
四倉町玉山,ヨツクラマチタマヤマ,YOTSUKURAMACHI TAMAYAMA,宮田,37.110654,140.951413
四倉町戸田,ヨツクラマチトダ,YOTSUKURAMACHI TODA,川子田,37.115335,140.960058
四倉町戸田,ヨツクラマチトダ,YOTSUKURAMACHI TODA,五反田,37.113914,140.962482
四倉町戸田,ヨツクラマチトダ,YOTSUKURAMACHI TODA,馬場,37.109384,140.967251
四倉町戸田,ヨツクラマチトダ,YOTSUKURAMACHI TODA,仲作,37.109782,140.965301
四倉町,ヨツクラマチ,YOTSUKURAMACHI,太夫坂,37.113199,140.991157
平中塩,タイラナカシオ,TAIRA NAKASHIO,下タ田,37.069758,140.898217
平幕ノ内,タイラマクノウチ,TAIRA MAKUNOCHI,五反田,37.068158,140.900317
平幕ノ内,タイラマクノウチ,TAIRA MAKUNOCHI,高田,37.066855,140.900903
平幕ノ内,タイラマクノウチ,TAIRA MAKUNOCHI,手倉,37.067038,140.902848
平幕ノ内,タイラマクノウチ,TAIRA MAKUNOCHI,曾利町,37.067909,140.902553
平鯨岡,タイラクジラオカ,TAIRA KUJIRAOKA,田中山,37.065751,140.902048
平鯨岡,タイラクジラオカ,TAIRA KUJIRAOKA,裏門,37.064255,140.902787
平大室,タイラオオムロ,TAIRA OMURO,井戸作,37.068212,140.906316
平四ツ波,タイラヨツナミ,TAIRA YOTSUNAMI,笹目田,37.08185,140.904039
平四ツ波,タイラヨツナミ,TAIRA YOTSUNAMI,藤ケ岡,37.088591,140.901228
平四ツ波,タイラヨツナミ,TAIRA YOTSUNAMI,稗田,37.079989,140.905816
平中塩,タイラナカシオ,TAIRA NAKASHIO,漆立目,37.072499,140.89903
平中塩,タイラナカシオ,TAIRA NAKASHIO,浦沢,37.073516,140.898996
平上片寄,タイラカミカタヨセ,TAIRA KAMIKATAYOSE,後藤桐,37.079307,140.915321
平上神谷,タイラカミカベヤ,TAIRA KAMIKABEYA,宮ノ上,37.070526,140.918363
平上神谷,タイラカミカベヤ,TAIRA KAMIKABEYA,上,37.067546,140.91512
平上神谷,タイラカミカベヤ,TAIRA KAMIKABEYA,熊ノ下,37.065769,140.914269
平鎌田,タイラカマタ,TAIRA KAMATA,江ノ上,37.068171,140.911946
平鎌田,タイラカマタ,TAIRA KAMATA,喜藤作,37.066139,140.911823
平塩,タイラシオ,TAIRA SHIO,虚空蔵,37.064093,140.914801
平菅波,タイラスギナミ,TAIRA SUGINAMI,籠石,37.048245,140.925714
平菅波,タイラスギナミ,TAIRA SUGINAMI,太鼓田,37.048878,140.931222
平菅波,タイラスギナミ,TAIRA SUGINAMI,井作,37.047659,140.933188
平北白土,タイラキタシラド,TAIRA KITASHIRADO,札場,37.055019,140.912806
平北白土,タイラキタシラド,TAIRA KITASHIRADO,宮脇,37.05313,140.910107
平南白土,タイラミナミシラド,TAIRA MINAMISHIRADO,長塚,37.043686,140.905697
平,タイラ,TAIRA,鷹匠町,37.061459,140.894623
平,タイラ,TAIRA,番匠町,37.059602,140.895325
平鎌田,タイラカマタ,TAIRA KAMATA,西,37.057406,140.905647
平幕ノ内,タイラマクノウチ,TAIRA MAKUNOCHI,西田,37.066567,140.898191
平幕ノ内,タイラマクノウチ,TAIRA MAKUNOCHI,大内,37.066019,140.897206
平中塩,タイラナカシオ,TAIRA NAKASHIO,松山,37.074579,140.8927
平上片寄,タイラカミカタヨセ,TAIRA KAMIKATAYOSE,竹ノ花,37.07984,140.928914
平上片寄,タイラカミカタヨセ,TAIRA KAMIKATAYOSE,棆町,37.080257,140.927358
平上片寄,タイラカミカタヨセ,TAIRA KAMIKATAYOSE,関場,37.082009,140.925358
平上片寄,タイラカミカタヨセ,TAIRA KAMIKATAYOSE,才子作,37.086026,140.923949
平上片寄,タイラカミカタヨセ,TAIRA KAMIKATAYOSE,作田,37.089754,140.922429
平上片寄,タイラカミカタヨセ,TAIRA KAMIKATAYOSE,柳沢,37.090499,140.919781
四倉町駒込,ヨツクラマチコマゴメ,YOTSUKURAMACHI KOMAGOME,椚,37.128208,140.904525
四倉町駒込,ヨツクラマチコマゴメ,YOTSUKURAMACHI KOMAGOME,山崎,37.125384,140.906149
四倉町駒込,ヨツクラマチコマゴメ,YOTSUKURAMACHI KOMAGOME,上ノ内,37.127779,140.901568
四倉町駒込,ヨツクラマチコマゴメ,YOTSUKURAMACHI KOMAGOME,中平,37.123543,140.900987
四倉町駒込,ヨツクラマチコマゴメ,YOTSUKURAMACHI KOMAGOME,川ノ入,37.114029,140.89703
四倉町上柳生,ヨツクラマチカミヤギュウ,YOTSUKURAMACHI KAMIYAGYU,安手口,37.111504,140.904017
四倉町薬王寺,ヨツクラマチヤクオウジ,YOTSUKURAMACHI YAKUOJI,粟刈沢,37.116136,140.915041
四倉町薬王寺,ヨツクラマチヤクオウジ,YOTSUKURAMACHI YAKUOJI,塙,37.115532,140.918354
四倉町山田小湊,ヨツクラマチヤマダコミナト,YOTSUKURAMACHI YAMADAKOMINATO,山田,37.118339,140.92765
四倉町玉山,ヨツクラマチタマヤマ,YOTSUKURAMACHI TAMAYAMA,作,37.115442,140.936627
四倉町玉山,ヨツクラマチタマヤマ,YOTSUKURAMACHI TAMAYAMA,南作,37.113687,140.936315
四倉町山田小湊,ヨツクラマチヤマダコミナト,YOTSUKURAMACHI YAMADAKOMINATO,方礼,37.113647,140.935014
四倉町山田小湊,ヨツクラマチヤマダコミナト,YOTSUKURAMACHI YAMADAKOMINATO,笊城,37.112897,140.935432
四倉町上仁井田,ヨツクラマチカミニイダ,YOTSUKURAMACHI KAMINIIDA,九反坪,37.10241,140.977153
四倉町上仁井田,ヨツクラマチカミニイダ,YOTSUKURAMACHI KAMINIIDA,穴狐原,37.099912,140.976843
四倉町大森,ヨツクラマチオオモリ,YOTSUKURAMACHI OMORI,館,37.089235,140.95623
平水品,タイラミズシナ,TAIRA MIZUSHINA,西ノ内,37.106187,140.93208
平水品,タイラミズシナ,TAIRA MIZUSHINA,山崎,37.105632,140.93392
平水品,タイラミズシナ,TAIRA MIZUSHINA,荒神平,37.10575,140.936824
平水品,タイラミズシナ,TAIRA MIZUSHINA,根岸,37.10451,140.935804
平水品,タイラミズシナ,TAIRA MIZUSHINA,沼久保,37.105382,140.938685
平水品,タイラミズシナ,TAIRA MIZUSHINA,カキ田,37.103249,140.937028
平水品,タイラミズシナ,TAIRA MIZUSHINA,境ノ目,37.102416,140.938368
平北神谷,タイラキタカベヤ,TAIRA KITAKABEYA,是慶,37.100308,140.935699
平北神谷,タイラキタカベヤ,TAIRA KITAKABEYA,竹ノ内,37.099153,140.936987
平北神谷,タイラキタカベヤ,TAIRA KITAKABEYA,北ノ作,37.099217,140.935487
平北神谷,タイラキタカベヤ,TAIRA KITAKABEYA,吉野作,37.101157,140.942839
平北神谷,タイラキタカベヤ,TAIRA KITAKABEYA,仲ノ作,37.099117,140.942261
平北神谷,タイラキタカベヤ,TAIRA KITAKABEYA,馬場,37.094497,140.947431
平北神谷,タイラキタカベヤ,TAIRA KITAKABEYA,松倉,37.095214,140.944474
常磐上矢田町,ジョウバンカミヤダマチ,JOBAN KAMIYADAMACHI,北ノ沢,37.024461,140.891643
平北白土,タイラキタシラド,TAIRA KITASHIRADO,塩取,37.054041,140.913537
平南白土,タイラミナミシラド,TAIRA MINAMISHIRADO,館岸,37.045231,140.914707
平菅波,タイラスギナミ,TAIRA SUGINAMI,太郎作,37.04961,140.928269
平菅波,タイラスギナミ,TAIRA SUGINAMI,砂畑,37.05112,140.941339
平下片寄,タイラシモカタヨセ,TAIRA SHIMOKATAYOSE,野々目,37.075206,140.932653
平下片寄,タイラシモカタヨセ,TAIRA SHIMOKATAYOSE,鬼越,37.072648,140.932264
平上片寄,タイラカミカタヨセ,TAIRA KAMIKATAYOSE,本屋敷,37.077099,140.930973
平上片寄,タイラカミカタヨセ,TAIRA KAMIKATAYOSE,山田作,37.070356,140.916381
平上神谷,タイラカミカベヤ,TAIRA KAMIKABEYA,矢田ノ目,37.073794,140.915994
平中神谷,タイラナカカベヤ,TAIRA NAKAKABEYA,地曾作,37.071285,140.927195
平中神谷,タイラナカカベヤ,TAIRA NAKAKABEYA,東作,37.072531,140.92537
平上片寄,タイラカミカタヨセ,TAIRA KAMIKATAYOSE,根廻,37.082829,140.920324
平上片寄,タイラカミカタヨセ,TAIRA KAMIKATAYOSE,堂ノ作,37.089098,140.913509
平上片寄,タイラカミカタヨセ,TAIRA KAMIKATAYOSE,五反作,37.083951,140.919005
平泉崎,タイライズミザキ,TAIRA IZUMIZAKI,作,37.081676,140.941404
平泉崎,タイライズミザキ,TAIRA IZUMIZAKI,馬場,37.078036,140.952678
平泉崎,タイライズミザキ,TAIRA IZUMIZAKI,集,37.074212,140.945874
平絹谷,タイラキヌヤ,TAIRA KINUYA,四反田,37.092412,140.938715
平絹谷,タイラキヌヤ,TAIRA KINUYA,館下,37.093519,140.940521
平絹谷,タイラキヌヤ,TAIRA KINUYA,杉内,37.09417,140.93264
平絹谷,タイラキヌヤ,TAIRA KINUYA,呉坪,37.096406,140.928448
平絹谷,タイラキヌヤ,TAIRA KINUYA,恩作,37.088328,140.929235
平絹谷,タイラキヌヤ,TAIRA KINUYA,扇作,37.098717,140.923175
四倉町長友,ヨツクラマチナガトモ,YOTSUKURAMACHI NAGATOMO,大宮作,37.106603,140.948738
四倉町名木,ヨツクラマチナギ,YOTSUKURAMACHI NAGI,八ツ内,37.095237,140.953621
平絹谷,タイラキヌヤ,TAIRA KINUYA,一町田,37.093156,140.936346
平絹谷,タイラキヌヤ,TAIRA KINUYA,前泉屋,37.08853,140.938571
平中神谷,タイラナカカベヤ,TAIRA NAKAKABEYA,立鉾,37.066473,140.932422
平中神谷,タイラナカカベヤ,TAIRA NAKAKABEYA,籠田,37.066133,140.930564
平中神谷,タイラナカカベヤ,TAIRA NAKAKABEYA,薬師前,37.068562,140.934752
平中神谷,タイラナカカベヤ,TAIRA NAKAKABEYA,天神,37.060795,140.936539
平下片寄,タイラシモカタヨセ,TAIRA SHIMOKATAYOSE,袋内,37.082439,140.932982
平下片寄,タイラシモカタヨセ,TAIRA SHIMOKATAYOSE,明徳神,37.08056,140.929593
平下片寄,タイラシモカタヨセ,TAIRA SHIMOKATAYOSE,沼ノ作,37.082678,140.929352
平上片寄,タイラカミカタヨセ,TAIRA KAMIKATAYOSE,菖蒲沢,37.084483,140.908806
平鯨岡,タイラクジラオカ,TAIRA KUJIRAOKA,中根,37.064303,140.906359
平鎌田,タイラカマタ,TAIRA KAMATA,内田,37.062843,140.909803
平鯨岡,タイラクジラオカ,TAIRA KUJIRAOKA,石名坂,37.061924,140.905227
平谷川瀬,タイラヤガワセ,TAIRA YAGAWASE,田中内,37.04246,140.899397
平谷川瀬,タイラヤガワセ,TAIRA YAGAWASE,塚ノ町,37.042062,140.900517
常磐上矢田町,ジョウバンカミヤダマチ,JOBAN KAMIYADAMACHI,戸石,37.016564,140.902709
常磐上矢田町,ジョウバンカミヤダマチ,JOBAN KAMIYADAMACHI,南ノ内,37.015119,140.902456
常磐上矢田町,ジョウバンカミヤダマチ,JOBAN KAMIYADAMACHI,湯草田,37.012247,140.905419
常磐上矢田町,ジョウバンカミヤダマチ,JOBAN KAMIYADAMACHI,中屋敷,37.012777,140.905213
常磐上矢田町,ジョウバンカミヤダマチ,JOBAN KAMIYADAMACHI,太良作,37.015073,140.904938
常磐上矢田町,ジョウバンカミヤダマチ,JOBAN KAMIYADAMACHI,竹ノ下,37.013646,140.904873
常磐上矢田町,ジョウバンカミヤダマチ,JOBAN KAMIYADAMACHI,寺ノ作,37.014165,140.900696
常磐上矢田町,ジョウバンカミヤダマチ,JOBAN KAMIYADAMACHI,上ノ作,37.01533,140.90093
平吉野谷,タイラヨシノヤ,TAIRA YOSHINOYA,南作,37.017276,140.913756
平上高久,タイラカミタカク,TAIRA KAMITAKAKU,一町田,37.024103,140.924274
平上高久,タイラカミタカク,TAIRA KAMITAKAKU,松木前,37.027376,140.928799
平下山口,タイラシモヤマグチ,TAIRA SHIMOYAMAGUCHI,内田,37.025111,140.935121
平下山口,タイラシモヤマグチ,TAIRA SHIMOYAMAGUCHI,湯ノ口,37.023401,140.934783
平下山口,タイラシモヤマグチ,TAIRA SHIMOYAMAGUCHI,妻,37.026947,140.936196
平下山口,タイラシモヤマグチ,TAIRA SHIMOYAMAGUCHI,妻館,37.02771,140.935717
平下山口,タイラシモヤマグチ,TAIRA SHIMOYAMAGUCHI,後生郎,37.020086,140.933439
平下山口,タイラシモヤマグチ,TAIRA SHIMOYAMAGUCHI,中内,37.020789,140.932076
平下山口,タイラシモヤマグチ,TAIRA SHIMOYAMAGUCHI,皀内,37.018431,140.930076
平下山口,タイラシモヤマグチ,TAIRA SHIMOYAMAGUCHI,高塚,37.02171,140.937245
平下山口,タイラシモヤマグチ,TAIRA SHIMOYAMAGUCHI,長作,37.021931,140.935259
平下山口,タイラシモヤマグチ,TAIRA SHIMOYAMAGUCHI,小館,37.019798,140.936668
平下山口,タイラシモヤマグチ,TAIRA SHIMOYAMAGUCHI,窪田,37.021081,140.936733
平下山口,タイラシモヤマグチ,TAIRA SHIMOYAMAGUCHI,三島,37.02042,140.93581
平下山口,タイラシモヤマグチ,TAIRA SHIMOYAMAGUCHI,平野,37.021136,140.934855
平下山口,タイラシモヤマグチ,TAIRA SHIMOYAMAGUCHI,狐田,37.018321,140.934694
平下山口,タイラシモヤマグチ,TAIRA SHIMOYAMAGUCHI,細田,37.017901,140.933636
平鶴ケ井,タイラツルガイ,TAIRA TSURUGAI,高神,37.015287,140.947618
平下山口,タイラシモヤマグチ,TAIRA SHIMOYAMAGUCHI,南,37.017838,140.944134
平下山口,タイラシモヤマグチ,TAIRA SHIMOYAMAGUCHI,犬吠,37.022889,140.943157
平鶴ケ井,タイラツルガイ,TAIRA TSURUGAI,脇ノ作,37.021451,140.951137
平鶴ケ井,タイラツルガイ,TAIRA TSURUGAI,申田,37.012404,140.949847
平鶴ケ井,タイラツルガイ,TAIRA TSURUGAI,清水,37.015992,140.951105
平神谷作,タイラカミヤサク,TAIRA KAMIYASAKU,神ノ前,37.012008,140.954179
四倉町玉山,ヨツクラマチタマヤマ,YOTSUKURAMACHI TAMAYAMA,小高倉,37.123482,140.929843
四倉町長友,ヨツクラマチナガトモ,YOTSUKURAMACHI NAGATOMO,作樋口,37.103733,140.946434
四倉町長友,ヨツクラマチナガトモ,YOTSUKURAMACHI NAGATOMO,古屋敷,37.103701,140.950673
平中神谷,タイラナカカベヤ,TAIRA NAKAKABEYA,馬場前,37.066732,140.933883
平南白土,タイラミナミシラド,TAIRA MINAMISHIRADO,北沢,37.048855,140.920465
常磐上矢田町,ジョウバンカミヤダマチ,JOBAN KAMIYADAMACHI,台,37.011839,140.90489
平山崎,タイラヤマザキ,TAIRA YAMAZAKI,谷田川,37.05395,140.928301
平山崎,タイラヤマザキ,TAIRA YAMAZAKI,根木内,37.055523,140.929359
平菅波,タイラスギナミ,TAIRA SUGINAMI,西ノ内,37.047878,140.928331
平上高久,タイラカミタカク,TAIRA KAMITAKAKU,八ツ海,37.029917,140.933008
平上山口,タイラカミヤマグチ,TAIRA KAMIYAMAGUCHI,浜之作,37.013397,140.935411
平上山口,タイラカミヤマグチ,TAIRA KAMIYAMAGUCHI,萱ノ作,37.011164,140.942073
平上山口,タイラカミヤマグチ,TAIRA KAMIYAMAGUCHI,国玉,37.010504,140.943943
平神谷作,タイラカミヤサク,TAIRA KAMIYASAKU,内田,37.015084,140.958863
平神谷作,タイラカミヤサク,TAIRA KAMIYASAKU,神田,37.013826,140.960293
平下高久,タイラシモタカク,TAIRA SHIMOTAKAKU,片帆,37.034672,140.953932
四倉町駒込,ヨツクラマチコマゴメ,YOTSUKURAMACHI KOMAGOME,向山,37.118982,140.906547
平山崎,タイラヤマザキ,TAIRA YAMAZAKI,矢ノ目,37.055847,140.935701
平上山口,タイラカミヤマグチ,TAIRA KAMIYAMAGUCHI,小伝作,37.009515,140.942213
平赤井,タイラアカイ,TAIRA AKAI,大倉,37.100296,140.830838
内郷高野町,ウチゴウコウヤマチ,UCHIGO KOYAMACHI,山崎,37.037634,140.809362
好間町北好間,ヨシママチキタヨシマ,YOSHIMAMACHI KITAYOSHIMA,堂平,37.07742,140.81585
好間町大利,ヨシママチオオリ,YOSHIMAMACHI ORI,井田木,37.084772,140.812565
内郷白水町,ウチゴウシラミズマチ,UCHIGO SHIRAMIZUMACHI,高倉,37.034763,140.813445
常磐藤原町,ジョウバンフジワラマチ,JOBAN FUJIWARAMACHI,斑堂,37.005629,140.816522
好間町上好間,ヨシママチカミヨシマ,YOSHIMAMACHI KAMIYOSHIMA,大畑,37.05812,140.824652
常磐上湯長谷町,ジョウバンカミユナガヤマチ,JOBAN KAMIYUNAGAYAMACHI,辰ノ口,37.019775,140.812965
好間町北好間,ヨシママチキタヨシマ,YOSHIMAMACHI KITAYOSHIMA,下ケ屋敷,37.083568,140.815976
常磐上湯長谷町,ジョウバンカミユナガヤマチ,JOBAN KAMIYUNAGAYAMACHI,嶽道,37.017599,140.816254
内郷白水町,ウチゴウシラミズマチ,UCHIGO SHIRAMIZUMACHI,川平,37.027201,140.819014
好間町北好間,ヨシママチキタヨシマ,YOSHIMAMACHI KITAYOSHIMA,上ノ原,37.064537,140.827784
好間町北好間,ヨシママチキタヨシマ,YOSHIMAMACHI KITAYOSHIMA,椎木平,37.072559,140.82346
常磐上湯長谷町,ジョウバンカミユナガヤマチ,JOBAN KAMIYUNAGAYAMACHI,力石,37.015788,140.819332
好間町上好間,ヨシママチカミヨシマ,YOSHIMAMACHI KAMIYOSHIMA,南唐松,37.057162,140.818911
平赤井,タイラアカイ,TAIRA AKAI,南茨,37.088394,140.827482
常磐上湯長谷町,ジョウバンカミユナガヤマチ,JOBAN KAMIYUNAGAYAMACHI,森,37.014447,140.822804
常磐上湯長谷町,ジョウバンカミユナガヤマチ,JOBAN KAMIYUNAGAYAMACHI,梅ケ平,37.010153,140.827752
内郷宮町,ウチゴウミヤマチ,UCHIGO MIYAMACHI,竹ノ内,37.052376,140.836632
小川町西小川,オガワマチニシオガワ,OGAWAMACHI NISHIOGAWA,川原端,37.106527,140.829631
好間町北好間,ヨシママチキタヨシマ,YOSHIMAMACHI KITAYOSHIMA,寺入,37.060258,140.828041
好間町北好間,ヨシママチキタヨシマ,YOSHIMAMACHI KITAYOSHIMA,堂田,37.071646,140.82825
常磐湯本町,ジョウバンユモトマチ,JOBAN YUMOTOMACHI,高倉,37.01603,140.827982
内郷宮町,ウチゴウミヤマチ,UCHIGO MIYAMACHI,町田,37.041438,140.836284
好間町上好間,ヨシママチカミヨシマ,YOSHIMAMACHI KAMIYOSHIMA,田代,37.056278,140.835114
好間町北好間,ヨシママチキタヨシマ,YOSHIMAMACHI KITAYOSHIMA,三反田,37.069663,140.830888
好間町北好間,ヨシママチキタヨシマ,YOSHIMAMACHI KITAYOSHIMA,源平野地,37.067437,140.830558
好間町北好間,ヨシママチキタヨシマ,YOSHIMAMACHI KITAYOSHIMA,権現堂,37.071147,140.831422
好間町北好間,ヨシママチキタヨシマ,YOSHIMAMACHI KITAYOSHIMA,羽竜,37.063951,140.834279
内郷白水町,ウチゴウシラミズマチ,UCHIGO SHIRAMIZUMACHI,広畑,37.034793,140.833382
好間町上好間,ヨシママチカミヨシマ,YOSHIMAMACHI KAMIYOSHIMA,中川原,37.061038,140.833818
常磐湯本町,ジョウバンユモトマチ,JOBAN YUMOTOMACHI,天神,37.016026,140.833638
常磐上湯長谷町,ジョウバンカミユナガヤマチ,JOBAN KAMIYUNAGAYAMACHI,長倉,37.006584,140.83001
内郷白水町,ウチゴウシラミズマチ,UCHIGO SHIRAMIZUMACHI,柳間,37.031722,140.837923
内郷宮町,ウチゴウミヤマチ,UCHIGO MIYAMACHI,滝,37.045033,140.837443
好間町北好間,ヨシママチキタヨシマ,YOSHIMAMACHI KITAYOSHIMA,槐作,37.072425,140.83772
好間町北好間,ヨシママチキタヨシマ,YOSHIMAMACHI KITAYOSHIMA,上ノ台,37.065824,140.835148
常磐湯本町,ジョウバンユモトマチ,JOBAN YUMOTOMACHI,山ノ神,37.013735,140.837881
好間町上好間,ヨシママチカミヨシマ,YOSHIMAMACHI KAMIYOSHIMA,内ノ草,37.061111,140.835565
常磐上湯長谷町,ジョウバンカミユナガヤマチ,JOBAN KAMIYUNAGAYAMACHI,湯台堂,37.006602,140.836467
好間町北好間,ヨシママチキタヨシマ,YOSHIMAMACHI KITAYOSHIMA,山崎,37.068357,140.835291
平赤井,タイラアカイ,TAIRA AKAI,川原畑,37.104063,140.837021
好間町上好間,ヨシママチカミヨシマ,YOSHIMAMACHI KAMIYOSHIMA,岩穴,37.063884,140.837357
内郷白水町,ウチゴウシラミズマチ,UCHIGO SHIRAMIZUMACHI,上代,37.032807,140.838809
内郷白水町,ウチゴウシラミズマチ,UCHIGO SHIRAMIZUMACHI,大門,37.035595,140.838282
好間町上好間,ヨシママチカミヨシマ,YOSHIMAMACHI KAMIYOSHIMA,今宿,37.0626,140.837853
好間町上好間,ヨシママチカミヨシマ,YOSHIMAMACHI KAMIYOSHIMA,大堰,37.065248,140.839078
常磐湯本町,ジョウバンユモトマチ,JOBAN YUMOTOMACHI,日渡,37.022421,140.841682
常磐湯本町,ジョウバンユモトマチ,JOBAN YUMOTOMACHI,宝海,37.016161,140.842706
好間町上好間,ヨシママチカミヨシマ,YOSHIMAMACHI KAMIYOSHIMA,上野原,37.06184,140.845339
好間町北好間,ヨシママチキタヨシマ,YOSHIMAMACHI KITAYOSHIMA,南町田,37.069774,140.839848
内郷宮町,ウチゴウミヤマチ,UCHIGO MIYAMACHI,蛭子,37.047839,140.837369
好間町北好間,ヨシママチキタヨシマ,YOSHIMAMACHI KITAYOSHIMA,小田郷,37.069008,140.841064
好間町上好間,ヨシママチカミヨシマ,YOSHIMAMACHI KAMIYOSHIMA,道成川原,37.067182,140.841664
好間町北好間,ヨシママチキタヨシマ,YOSHIMAMACHI KITAYOSHIMA,北町田,37.070873,140.841794
好間町中好間,ヨシママチナカヨシマ,YOSHIMAMACHI NAKAYOSHIMA,半貫沢,37.053255,140.841911
常磐湯本町,ジョウバンユモトマチ,JOBAN YUMOTOMACHI,傾城,37.019335,140.84587
内郷内町,ウチゴウウチマチ,UCHIGO UCHIMACHI,桜本,37.034485,140.84318
好間町北好間,ヨシママチキタヨシマ,YOSHIMAMACHI KITAYOSHIMA,山ノ坊,37.072684,140.844262
平赤井,タイラアカイ,TAIRA AKAI,大平,37.097171,140.849188
内郷宮町,ウチゴウミヤマチ,UCHIGO MIYAMACHI,金坂,37.045093,140.844012
内郷宮町,ウチゴウミヤマチ,UCHIGO MIYAMACHI,宮沢,37.038266,140.840826
内郷宮町,ウチゴウミヤマチ,UCHIGO MIYAMACHI,代,37.041055,140.841816
好間町北好間,ヨシママチキタヨシマ,YOSHIMAMACHI KITAYOSHIMA,向町田,37.069201,140.84362
平赤井,タイラアカイ,TAIRA AKAI,常住,37.092363,140.848357
内郷白水町,ウチゴウシラミズマチ,UCHIGO SHIRAMIZUMACHI,蛭内,37.032292,140.842322
常磐湯本町,ジョウバンユモトマチ,JOBAN YUMOTOMACHI,三函,37.011383,140.845239
内郷白水町,ウチゴウシラミズマチ,UCHIGO SHIRAMIZUMACHI,長槻,37.031282,140.841017
内郷白水町,ウチゴウシラミズマチ,UCHIGO SHIRAMIZUMACHI,桜田,37.033057,140.844311
好間町上好間,ヨシママチカミヨシマ,YOSHIMAMACHI KAMIYOSHIMA,南町田,37.068432,140.84452
内郷白水町,ウチゴウシラミズマチ,UCHIGO SHIRAMIZUMACHI,大神田,37.030706,140.846778
好間町上好間,ヨシママチカミヨシマ,YOSHIMAMACHI KAMIYOSHIMA,北町田,37.069495,140.845442
平赤井,タイラアカイ,TAIRA AKAI,不動堂,37.093074,140.85237
内郷内町,ウチゴウウチマチ,UCHIGO UCHIMACHI,前田,37.035048,140.847617
内郷内町,ウチゴウウチマチ,UCHIGO UCHIMACHI,金坂,37.038525,140.847601
平赤井,タイラアカイ,TAIRA AKAI,浅口,37.085832,140.848909
内郷綴町,ウチゴウツヅラマチ,UCHIGO TSUZURAMACHI,笠松,37.024808,140.847413
常磐湯本町,ジョウバンユモトマチ,JOBAN YUMOTOMACHI,上川,37.016567,140.846492
好間町北好間,ヨシママチキタヨシマ,YOSHIMAMACHI KITAYOSHIMA,松坂,37.072857,140.847208
常磐湯本町,ジョウバンユモトマチ,JOBAN YUMOTOMACHI,吹谷,37.005904,140.845515
常磐湯本町,ジョウバンユモトマチ,JOBAN YUMOTOMACHI,辰ノ口,37.016568,140.847717
内郷高坂町,ウチゴウタカサカマチ,UCHIGO TAKASAKAMACHI,おさヶ作,37.050635,140.852776
常磐湯本町,ジョウバンユモトマチ,JOBAN YUMOTOMACHI,天王崎,37.006748,140.84904
好間町上好間,ヨシママチカミヨシマ,YOSHIMAMACHI KAMIYOSHIMA,洞,37.070384,140.8473
好間町上好間,ヨシママチカミヨシマ,YOSHIMAMACHI KAMIYOSHIMA,新屋敷,37.07085,140.846596
好間町中好間,ヨシママチナカヨシマ,YOSHIMAMACHI NAKAYOSHIMA,上ノ原,37.059851,140.84803
常磐湯本町,ジョウバンユモトマチ,JOBAN YUMOTOMACHI,八仙,37.009869,140.849196
好間町上好間,ヨシママチカミヨシマ,YOSHIMAMACHI KAMIYOSHIMA,稲荷下,37.068061,140.849281
常磐湯本町,ジョウバンユモトマチ,JOBAN YUMOTOMACHI,台山,37.011193,140.848883
内郷内町,ウチゴウウチマチ,UCHIGO UCHIMACHI,磐堰,37.036928,140.848292
好間町上好間,ヨシママチカミヨシマ,YOSHIMAMACHI KAMIYOSHIMA,馬場西,37.069374,140.849537
好間町北好間,ヨシママチキタヨシマ,YOSHIMAMACHI KITAYOSHIMA,下松坂,37.072709,140.848643
内郷高坂町,ウチゴウタカサカマチ,UCHIGO TAKASAKAMACHI,立野,37.043215,140.853513
好間町上好間,ヨシママチカミヨシマ,YOSHIMAMACHI KAMIYOSHIMA,山下,37.066698,140.848761
内郷内町,ウチゴウウチマチ,UCHIGO UCHIMACHI,立町,37.036729,140.850351
内郷内町,ウチゴウウチマチ,UCHIGO UCHIMACHI,水之出,37.034182,140.851526
内郷高坂町,ウチゴウタカサカマチ,UCHIGO TAKASAKAMACHI,桜井,37.044996,140.854729
内郷白水町,ウチゴウシラミズマチ,UCHIGO SHIRAMIZUMACHI,浜井場,37.033003,140.850372
内郷綴町,ウチゴウツヅラマチ,UCHIGO TSUZURAMACHI,堀坂,37.023608,140.851979
内郷高坂町,ウチゴウタカサカマチ,UCHIGO TAKASAKAMACHI,御殿,37.040919,140.850502
内郷綴町,ウチゴウツヅラマチ,UCHIGO TSUZURAMACHI,道陸神,37.023381,140.85037
好間町上好間,ヨシママチカミヨシマ,YOSHIMAMACHI KAMIYOSHIMA,忽滑,37.065121,140.851048
好間町上好間,ヨシママチカミヨシマ,YOSHIMAMACHI KAMIYOSHIMA,馬場前,37.066728,140.851461
小川町高萩,オガワマチタカハギ,OGAWAMACHI TAKAHAGI,鹿野,37.126365,140.852414
内郷綴町,ウチゴウツヅラマチ,UCHIGO TSUZURAMACHI,一ノ坪,37.033156,140.851354
内郷綴町,ウチゴウツヅラマチ,UCHIGO TSUZURAMACHI,七反田,37.031912,140.853315
内郷御台境町,ウチゴウミダイサカイマチ,UCHIGO MIDAISAKAIMACHI,草刈平,37.054754,140.852772
好間町上好間,ヨシママチカミヨシマ,YOSHIMAMACHI KAMIYOSHIMA,上川原,37.069546,140.851034
小川町西小川,オガワマチニシオガワ,OGAWAMACHI NISHIOGAWA,南ノ根,37.106271,140.853171
内郷内町,ウチゴウウチマチ,UCHIGO UCHIMACHI,堤田,37.037914,140.853787
小川町西小川,オガワマチニシオガワ,OGAWAMACHI NISHIOGAWA,中川原,37.124773,140.852235
好間町中好間,ヨシママチナカヨシマ,YOSHIMAMACHI NAKAYOSHIMA,田中,37.062433,140.85288
内郷内町,ウチゴウウチマチ,UCHIGO UCHIMACHI,駒谷,37.039751,140.854185
内郷高坂町,ウチゴウタカサカマチ,UCHIGO TAKASAKAMACHI,三本杉,37.041959,140.85339
好間町中好間,ヨシママチナカヨシマ,YOSHIMAMACHI NAKAYOSHIMA,上川原,37.065021,140.853508
小川町西小川,オガワマチニシオガワ,OGAWAMACHI NISHIOGAWA,平久田,37.123264,140.854654
好間町中好間,ヨシママチナカヨシマ,YOSHIMAMACHI NAKAYOSHIMA,江添,37.061989,140.851976
内郷綴町,ウチゴウツヅラマチ,UCHIGO TSUZURAMACHI,町ノ内,37.034647,140.85388
小川町西小川,オガワマチニシオガワ,OGAWAMACHI NISHIOGAWA,入屋敷,37.112632,140.854643
内郷御台境町,ウチゴウミダイサカイマチ,UCHIGO MIDAISAKAIMACHI,御台,37.051783,140.859976
常磐湯本町,ジョウバンユモトマチ,JOBAN YUMOTOMACHI,下浅貝,37.007388,140.852651
小川町西小川,オガワマチニシオガワ,OGAWAMACHI NISHIOGAWA,中野地,37.121901,140.854423
小川町高萩,オガワマチタカハギ,OGAWAMACHI TAKAHAGI,家ノ前,37.126109,140.856686
常磐湯本町,ジョウバンユモトマチ,JOBAN YUMOTOMACHI,上浅貝,37.01492,140.859291
小川町塩田,オガワマチシオダ,OGAWAMACHI SHIODA,宮ノ後,37.126863,140.853791
内郷綴町,ウチゴウツヅラマチ,UCHIGO TSUZURAMACHI,秋山,37.032958,140.855588
好間町中好間,ヨシママチナカヨシマ,YOSHIMAMACHI NAKAYOSHIMA,川原子,37.059964,140.854789
小川町高萩,オガワマチタカハギ,OGAWAMACHI TAKAHAGI,前川原,37.12413,140.856566
好間町中好間,ヨシママチナカヨシマ,YOSHIMAMACHI NAKAYOSHIMA,八反田,37.062016,140.855472
好間町中好間,ヨシママチナカヨシマ,YOSHIMAMACHI NAKAYOSHIMA,中川原,37.063048,140.856521
平赤井,タイラアカイ,TAIRA AKAI,御代内,37.078245,140.85908
小川町西小川,オガワマチニシオガワ,OGAWAMACHI NISHIOGAWA,上ノ原,37.119735,140.857734
内郷高坂町,ウチゴウタカサカマチ,UCHIGO TAKASAKAMACHI,大平,37.042964,140.858064
内郷綴町,ウチゴウツヅラマチ,UCHIGO TSUZURAMACHI,榎下,37.035692,140.855418
平赤井,タイラアカイ,TAIRA AKAI,五の町,37.085082,140.855071
平赤井,タイラアカイ,TAIRA AKAI,四の町,37.08182,140.856134
小川町上小川,オガワマチカミオガワ,OGAWAMACHI KAMIOGAWA,下广門,37.128203,140.858253
内郷高坂町,ウチゴウタカサカマチ,UCHIGO TAKASAKAMACHI,台,37.041342,140.858425
内郷内町,ウチゴウウチマチ,UCHIGO UCHIMACHI,四方北,37.039614,140.858113
平赤井,タイラアカイ,TAIRA AKAI,三の町,37.080091,140.856869
内郷綴町,ウチゴウツヅラマチ,UCHIGO TSUZURAMACHI,上馬場,37.038431,140.857654
小川町西小川,オガワマチニシオガワ,OGAWAMACHI NISHIOGAWA,相川,37.112667,140.856749
好間町北好間,ヨシママチキタヨシマ,YOSHIMAMACHI KITAYOSHIMA,上野,37.066339,140.860263
好間町中好間,ヨシママチナカヨシマ,YOSHIMAMACHI NAKAYOSHIMA,鍛冶内,37.060015,140.858382
小川町上平,オガワマチウワダイラ,OGAWAMACHI UWADAIRA,竹ノ内,37.129138,140.858743
好間町中好間,ヨシママチナカヨシマ,YOSHIMAMACHI NAKAYOSHIMA,寺台,37.058831,140.856689
好間町北好間,ヨシママチキタヨシマ,YOSHIMAMACHI KITAYOSHIMA,外川原,37.0649,140.856464
小川町西小川,オガワマチニシオガワ,OGAWAMACHI NISHIOGAWA,館,37.108068,140.858971
内郷綴町,ウチゴウツヅラマチ,UCHIGO TSUZURAMACHI,川原田,37.037578,140.858491
好間町中好間,ヨシママチナカヨシマ,YOSHIMAMACHI NAKAYOSHIMA,下川原,37.061038,140.859438
好間町中好間,ヨシママチナカヨシマ,YOSHIMAMACHI NAKAYOSHIMA,照田,37.058564,140.858596
内郷綴町,ウチゴウツヅラマチ,UCHIGO TSUZURAMACHI,大木下,37.035137,140.858122
好間町北好間,ヨシママチキタヨシマ,YOSHIMAMACHI KITAYOSHIMA,沢小谷,37.065377,140.858206
小川町上小川,オガワマチカミオガワ,OGAWAMACHI KAMIOGAWA,伊吾内,37.13417,140.85941
小川町西小川,オガワマチニシオガワ,OGAWAMACHI NISHIOGAWA,下野地,37.120501,140.858912
好間町小谷作,ヨシママチオヤサク,YOSHIMAMACHI OYASAKU,北向,37.070407,140.85903
小川町高萩,オガワマチタカハギ,OGAWAMACHI TAKAHAGI,上代,37.124877,140.859097
内郷綴町,ウチゴウツヅラマチ,UCHIGO TSUZURAMACHI,板宮,37.03477,140.86017
内郷高坂町,ウチゴウタカサカマチ,UCHIGO TAKASAKAMACHI,八反田,37.043563,140.85999
内郷高坂町,ウチゴウタカサカマチ,UCHIGO TAKASAKAMACHI,中平,37.046527,140.861048
小川町西小川,オガワマチニシオガワ,OGAWAMACHI NISHIOGAWA,豊田,37.115078,140.85997
好間町下好間,ヨシママチシモヨシマ,YOSHIMAMACHI SHIMOYOSHIMA,一町坪,37.058403,140.863042
小川町上平,オガワマチウワダイラ,OGAWAMACHI UWADAIRA,中島,37.129968,140.861816
内郷高坂町,ウチゴウタカサカマチ,UCHIGO TAKASAKAMACHI,高橋,37.040458,140.857118
平赤井,タイラアカイ,TAIRA AKAI,団粉田,37.089806,140.862299
小川町上平,オガワマチウワダイラ,OGAWAMACHI UWADAIRA,清水,37.131227,140.861837
小川町西小川,オガワマチニシオガワ,OGAWAMACHI NISHIOGAWA,小玉,37.120054,140.864996
常磐水野谷町,ジョウバンミズノヤマチ,JOBAN MIZUNOYAMACHI,竜ケ沢,37.010728,140.864382
内郷綴町,ウチゴウツヅラマチ,UCHIGO TSUZURAMACHI,金谷,37.038059,140.862534
好間町下好間,ヨシママチシモヨシマ,YOSHIMAMACHI SHIMOYOSHIMA,沼田,37.059899,140.860512
小川町下小川,オガワマチシモオガワ,OGAWAMACHI SHIMOGAWA,迎川原,37.112433,140.861885
小川町高萩,オガワマチタカハギ,OGAWAMACHI TAKAHAGI,下川原,37.127749,140.861022
平赤井,タイラアカイ,TAIRA AKAI,窪田,37.077195,140.863463
平赤井,タイラアカイ,TAIRA AKAI,諏訪原,37.095139,140.858669
小川町高萩,オガワマチタカハギ,OGAWAMACHI TAKAHAGI,下代,37.124947,140.861005
小川町西小川,オガワマチニシオガワ,OGAWAMACHI NISHIOGAWA,高畔,37.119323,140.861795
小川町上平,オガワマチウワダイラ,OGAWAMACHI UWADAIRA,以後内,37.132392,140.861352
内郷高坂町,ウチゴウタカサカマチ,UCHIGO TAKASAKAMACHI,大町,37.046746,140.863021
好間町小谷作,ヨシママチオヤサク,YOSHIMAMACHI OYASAKU,石名,37.069671,140.864082
内郷綴町,ウチゴウツヅラマチ,UCHIGO TSUZURAMACHI,沼尻,37.039789,140.862867
内郷御台境町,ウチゴウミダイサカイマチ,UCHIGO MIDAISAKAIMACHI,鬼越,37.054179,140.862491
内郷高坂町,ウチゴウタカサカマチ,UCHIGO TAKASAKAMACHI,四方木田,37.042174,140.862391
好間町小谷作,ヨシママチオヤサク,YOSHIMAMACHI OYASAKU,ヲミカト,37.060771,140.864456
好間町小谷作,ヨシママチオヤサク,YOSHIMAMACHI OYASAKU,広畑,37.063428,140.864732
平赤井,タイラアカイ,TAIRA AKAI,二の町,37.081844,140.863637
小川町下小川,オガワマチシモオガワ,OGAWAMACHI SHIMOGAWA,広畑,37.11345,140.865279
小川町上平,オガワマチウワダイラ,OGAWAMACHI UWADAIRA,前田原,37.131769,140.863324
平中平窪,タイラナカヒラクボ,TAIRA NAKAHIRAKUBO,松川,37.097759,140.862936
小川町三島,オガワマチミシマ,OGAWAMACHI MISHIMA,上川原,37.124217,140.865097
好間町下好間,ヨシママチシモヨシマ,YOSHIMAMACHI SHIMOYOSHIMA,中島,37.061505,140.867594
平中平窪,タイラナカヒラクボ,TAIRA NAKAHIRAKUBO,大谷,37.095984,140.865071
好間町小谷作,ヨシママチオヤサク,YOSHIMAMACHI OYASAKU,作畑,37.065502,140.86542
内郷高坂町,ウチゴウタカサカマチ,UCHIGO TAKASAKAMACHI,砂子田,37.045084,140.865051
平赤井,タイラアカイ,TAIRA AKAI,笹目田,37.085358,140.864776
平中平窪,タイラナカヒラクボ,TAIRA NAKAHIRAKUBO,桂進,37.098048,140.866059
平赤井,タイラアカイ,TAIRA AKAI,田町,37.086096,140.865551
平赤井,タイラアカイ,TAIRA AKAI,田中,37.083138,140.864553
好間町下好間,ヨシママチシモヨシマ,YOSHIMAMACHI SHIMOYOSHIMA,手倉,37.060202,140.867798
内郷御台境町,ウチゴウミダイサカイマチ,UCHIGO MIDAISAKAIMACHI,五反田,37.048986,140.866008
内郷御厩町,ウチゴウミマヤマチ,UCHIGO MIMAYAMACHI,久世原,37.042305,140.869117
平赤井,タイラアカイ,TAIRA AKAI,日渡,37.083454,140.866601
内郷御台境町,ウチゴウミダイサカイマチ,UCHIGO MIDAISAKAIMACHI,鶴巻,37.051406,140.867694
小川町上平,オガワマチウワダイラ,OGAWAMACHI UWADAIRA,上平,37.13066,140.866564
好間町北好間,ヨシママチキタヨシマ,YOSHIMAMACHI KITAYOSHIMA,作田,37.064379,140.866205
内郷綴町,ウチゴウツヅラマチ,UCHIGO TSUZURAMACHI,高野作,37.037716,140.868763
好間町小谷作,ヨシママチオヤサク,YOSHIMAMACHI OYASAKU,腰巻,37.068972,140.868128
小川町上平,オガワマチウワダイラ,OGAWAMACHI UWADAIRA,前田,37.129233,140.868022
平中平窪,タイラナカヒラクボ,TAIRA NAKAHIRAKUBO,富貴内,37.091524,140.867431
平赤井,タイラアカイ,TAIRA AKAI,反町,37.080168,140.867963
内郷御台境町,ウチゴウミダイサカイマチ,UCHIGO MIDAISAKAIMACHI,六反田,37.053112,140.869064
小川町下小川,オガワマチシモオガワ,OGAWAMACHI SHIMOGAWA,台,37.099976,140.869504
小川町上平,オガワマチウワダイラ,OGAWAMACHI UWADAIRA,熊ノ前,37.131804,140.868558
好間町下好間,ヨシママチシモヨシマ,YOSHIMAMACHI SHIMOYOSHIMA,鬼越,37.057965,140.869705
平上平窪,タイラカミヒラクボ,TAIRA KAMIHIRAKUBO,横山,37.095251,140.871376
小川町下小川,オガワマチシモオガワ,OGAWAMACHI SHIMOGAWA,上ノ台,37.111836,140.871586
平上荒川,タイラカミアラカワ,TAIRA KAMIARAKAWA,笑堂,37.035546,140.873672
小川町下小川,オガワマチシモオガワ,OGAWAMACHI SHIMOGAWA,味噌野,37.103676,140.870423
小川町三島,オガワマチミシマ,OGAWAMACHI MISHIMA,後川原,37.125408,140.868474
内郷御厩町,ウチゴウミマヤマチ,UCHIGO MIMAYAMACHI,番匠地,37.044441,140.874479
小川町三島,オガワマチミシマ,OGAWAMACHI MISHIMA,仲屋敷,37.12412,140.869039
小川町関場,オガワマチセキバ,OGAWAMACHI SEKIBA,川原,37.11827,140.869175
小川町関場,オガワマチセキバ,OGAWAMACHI SEKIBA,前田,37.116017,140.871604
小川町三島,オガワマチミシマ,OGAWAMACHI MISHIMA,瀬棚,37.12223,140.869829
平中平窪,タイラナカヒラクボ,TAIRA NAKAHIRAKUBO,布川,37.092115,140.86972
平上荒川,タイラカミアラカワ,TAIRA KAMIARAKAWA,大沢,37.026571,140.875509
平赤井,タイラアカイ,TAIRA AKAI,大根内,37.080446,140.868817
平中平窪,タイラナカヒラクボ,TAIRA NAKAHIRAKUBO,宮田,37.094417,140.869844
平赤井,タイラアカイ,TAIRA AKAI,柳川原,37.088862,140.87009
小川町下小川,オガワマチシモオガワ,OGAWAMACHI SHIMOGAWA,寺内,37.10863,140.870206
小川町下小川,オガワマチシモオガワ,OGAWAMACHI SHIMOGAWA,中柴,37.113552,140.870639
平赤井,タイラアカイ,TAIRA AKAI,中道,37.077815,140.869754
平赤井,タイラアカイ,TAIRA AKAI,諸荷,37.080899,140.870219
小川町関場,オガワマチセキバ,OGAWAMACHI SEKIBA,宿,37.119749,140.87298
小川町上平,オガワマチウワダイラ,OGAWAMACHI UWADAIRA,祝作,37.1306,140.870173
小川町下小川,オガワマチシモオガワ,OGAWAMACHI SHIMOGAWA,八幡林,37.106681,140.869886
平中平窪,タイラナカヒラクボ,TAIRA NAKAHIRAKUBO,西高砂,37.08726,140.871215
平赤井,タイラアカイ,TAIRA AKAI,向後川原,37.085404,140.872336
好間町愛谷,ヨシママチアイヤ,YOSHIMAMACHI AIYA,堀ノ内,37.072352,140.870407
内郷御厩町,ウチゴウミマヤマチ,UCHIGO MIMAYAMACHI,川向,37.052613,140.872206
好間町小谷作,ヨシママチオヤサク,YOSHIMAMACHI OYASAKU,小谷作,37.06723,140.869143
平赤井,タイラアカイ,TAIRA AKAI,大作場,37.078625,140.870333
好間町今新田,ヨシママチイマニイダ,YOSHIMAMACHI IMANIIDA,姫子内,37.064807,140.871551
好間町今新田,ヨシママチイマニイダ,YOSHIMAMACHI IMANIIDA,石平,37.065884,140.872008
好間町今新田,ヨシママチイマニイダ,YOSHIMAMACHI IMANIIDA,二ノ坪,37.068443,140.872521
好間町下好間,ヨシママチシモヨシマ,YOSHIMAMACHI SHIMOYOSHIMA,渋井,37.061466,140.872462
小川町下小川,オガワマチシモオガワ,OGAWAMACHI SHIMOGAWA,前原,37.108611,140.875208
好間町愛谷,ヨシママチアイヤ,YOSHIMAMACHI AIYA,大町,37.070183,140.872741
平中平窪,タイラナカヒラクボ,TAIRA NAKAHIRAKUBO,八田,37.090894,140.87205
平中平窪,タイラナカヒラクボ,TAIRA NAKAHIRAKUBO,岩間,37.085834,140.872077
内郷御厩町,ウチゴウミマヤマチ,UCHIGO MIMAYAMACHI,下能,37.045875,140.872237
平中平窪,タイラナカヒラクボ,TAIRA NAKAHIRAKUBO,高儘,37.08957,140.87218
好間町愛谷,ヨシママチアイヤ,YOSHIMAMACHI AIYA,花輪,37.074223,140.872571
平上平窪,タイラカミヒラクボ,TAIRA KAMIHIRAKUBO,菅ノ口,37.092521,140.87214
内郷御台境町,ウチゴウミダイサカイマチ,UCHIGO MIDAISAKAIMACHI,前田,37.053414,140.872272
内郷御厩町,ウチゴウミマヤマチ,UCHIGO MIMAYAMACHI,長町,37.053268,140.875221
平上平窪,タイラカミヒラクボ,TAIRA KAMIHIRAKUBO,原田,37.100265,140.874205
平上平窪,タイラカミヒラクボ,TAIRA KAMIHIRAKUBO,富岡,37.09518,140.873526
小川町上平,オガワマチウワダイラ,OGAWAMACHI UWADAIRA,光平,37.125654,140.875969
内郷御厩町,ウチゴウミマヤマチ,UCHIGO MIMAYAMACHI,上宿,37.046079,140.874123
小川町下小川,オガワマチシモオガワ,OGAWAMACHI SHIMOGAWA,梅ノ作,37.105996,140.874184
好間町下好間,ヨシママチシモヨシマ,YOSHIMAMACHI SHIMOYOSHIMA,大館,37.057885,140.874174
平上荒川,タイラカミアラカワ,TAIRA KAMIARAKAWA,弁才天,37.019773,140.879151
平中平窪,タイラナカヒラクボ,TAIRA NAKAHIRAKUBO,勝見沢,37.086548,140.874497
平中平窪,タイラナカヒラクボ,TAIRA NAKAHIRAKUBO,高橋,37.089315,140.874452
小川町関場,オガワマチセキバ,OGAWAMACHI SEKIBA,高垣,37.12045,140.872463
平下平窪,タイラシモヒラクボ,TAIRA SHIMOHIRAKUBO,寺内,37.07759,140.874626
内郷小島町,ウチゴウオジママチ,UCHIGO OJIMAMACHI,天ノ田,37.052496,140.877906
好間町今新田,ヨシママチイマニイダ,YOSHIMAMACHI IMANIIDA,稲荷坪,37.065916,140.873359
好間町下好間,ヨシママチシモヨシマ,YOSHIMAMACHI SHIMOYOSHIMA,浦田,37.061116,140.874942
内郷御厩町,ウチゴウミマヤマチ,UCHIGO MIMAYAMACHI,前田,37.049386,140.875728
内郷御厩町,ウチゴウミマヤマチ,UCHIGO MIMAYAMACHI,下宿,37.048,140.877792
平,タイラ,TAIRA,七軒町,37.062806,140.877447
平,タイラ,TAIRA,久保町,37.060905,140.877137
小川町上平,オガワマチウワダイラ,OGAWAMACHI UWADAIRA,小申田,37.13163,140.87589
好間町愛谷,ヨシママチアイヤ,YOSHIMAMACHI AIYA,堂ノ内,37.072704,140.876295
好間町今新田,ヨシママチイマニイダ,YOSHIMAMACHI IMANIIDA,正当,37.064436,140.876292
内郷御台境町,ウチゴウミダイサカイマチ,UCHIGO MIDAISAKAIMACHI,新町前,37.05385,140.879109
平中平窪,タイラナカヒラクボ,TAIRA NAKAHIRAKUBO,細田,37.087986,140.876091
平下平窪,タイラシモヒラクボ,TAIRA SHIMOHIRAKUBO,大念仏,37.076548,140.877495
平上平窪,タイラカミヒラクボ,TAIRA KAMIHIRAKUBO,小川原子,37.088516,140.876539
平上平窪,タイラカミヒラクボ,TAIRA KAMIHIRAKUBO,五反田,37.102898,140.875766
平,タイラ,TAIRA,大館,37.060456,140.876855
内郷御台境町,ウチゴウミダイサカイマチ,UCHIGO MIDAISAKAIMACHI,自在町,37.053461,140.877824
好間町愛谷,ヨシママチアイヤ,YOSHIMAMACHI AIYA,塚ノ町,37.071726,140.876783
平上平窪,タイラカミヒラクボ,TAIRA KAMIHIRAKUBO,南町,37.088791,140.87734
好間町愛谷,ヨシママチアイヤ,YOSHIMAMACHI AIYA,追切,37.071527,140.878614
好間町今新田,ヨシママチイマニイダ,YOSHIMAMACHI IMANIIDA,宮西,37.065419,140.878258
平上平窪,タイラカミヒラクボ,TAIRA KAMIHIRAKUBO,酢釜,37.095941,140.877171
好間町今新田,ヨシママチイマニイダ,YOSHIMAMACHI IMANIIDA,入宇田,37.067418,140.878541
平上平窪,タイラカミヒラクボ,TAIRA KAMIHIRAKUBO,上岡,37.099228,140.879411
内郷小島町,ウチゴウオジママチ,UCHIGO OJIMAMACHI,新町,37.05094,140.879009
平中平窪,タイラナカヒラクボ,TAIRA NAKAHIRAKUBO,横枕,37.085342,140.877746
好間町今新田,ヨシママチイマニイダ,YOSHIMAMACHI IMANIIDA,宮下,37.066353,140.879911
平下平窪,タイラシモヒラクボ,TAIRA SHIMOHIRAKUBO,八木内,37.077964,140.879093
平下平窪,タイラシモヒラクボ,TAIRA SHIMOHIRAKUBO,味噌農,37.076111,140.879724
平下平窪,タイラシモヒラクボ,TAIRA SHIMOHIRAKUBO,屋越,37.081287,140.878897
平,タイラ,TAIRA,八幡小路,37.059759,140.881398
平中平窪,タイラナカヒラクボ,TAIRA NAKAHIRAKUBO,杉内,37.083945,140.87987
平上荒川,タイラカミアラカワ,TAIRA KAMIARAKAWA,五郎内,37.035894,140.882348
平中平窪,タイラナカヒラクボ,TAIRA NAKAHIRAKUBO,大町,37.085592,140.87847
平上荒川,タイラカミアラカワ,TAIRA KAMIARAKAWA,熊下,37.033217,140.87899
平上平窪,タイラカミヒラクボ,TAIRA KAMIHIRAKUBO,真似井,37.094622,140.879292
好間町今新田,ヨシママチイマニイダ,YOSHIMAMACHI IMANIIDA,二枚橋,37.07022,140.879259
内郷小島町,ウチゴウオジママチ,UCHIGO OJIMAMACHI,花輪,37.048406,140.879648
平下平窪,タイラシモヒラクボ,TAIRA SHIMOHIRAKUBO,六角,37.079916,140.880275
平下平窪,タイラシモヒラクボ,TAIRA SHIMOHIRAKUBO,諸荷前,37.081696,140.880065
好間町川中子,ヨシママチカワナゴ,YOSHIMAMACHI KAWANAGO,加賀分,37.067681,140.880596
平,タイラ,TAIRA,道匠小路,37.061023,140.879447
好間町川中子,ヨシママチカワナゴ,YOSHIMAMACHI KAWANAGO,古川,37.069144,140.881831
内郷小島町,ウチゴウオジママチ,UCHIGO OJIMAMACHI,川崎,37.051222,140.880695
好間町川中子,ヨシママチカワナゴ,YOSHIMAMACHI KAWANAGO,八方屋,37.067221,140.881494
平下平窪,タイラシモヒラクボ,TAIRA SHIMOHIRAKUBO,鍛冶内,37.078165,140.882248
平上平窪,タイラカミヒラクボ,TAIRA KAMIHIRAKUBO,前田,37.093366,140.88133
平,タイラ,TAIRA,古鍛冶町,37.057466,140.883442
平,タイラ,TAIRA,北目町,37.065607,140.88376
平上平窪,タイラカミヒラクボ,TAIRA KAMIHIRAKUBO,柿根田,37.094431,140.88133
平下平窪,タイラシモヒラクボ,TAIRA SHIMOHIRAKUBO,諸荷,37.081822,140.881569
平,タイラ,TAIRA,橋下,37.051202,140.881344
平上平窪,タイラカミヒラクボ,TAIRA KAMIHIRAKUBO,牛淵,37.094359,140.88506
平中平窪,タイラナカヒラクボ,TAIRA NAKAHIRAKUBO,古館,37.09063,140.885211
平,タイラ,TAIRA,新町,37.054483,140.88191
平,タイラ,TAIRA,尼子町,37.051484,140.883885
平上荒川,タイラカミアラカワ,TAIRA KAMIARAKAWA,桜町,37.030627,140.884291
平,タイラ,TAIRA,長橋町,37.053127,140.883914
平中平窪,タイラナカヒラクボ,TAIRA NAKAHIRAKUBO,扇田,37.086667,140.883558
平,タイラ,TAIRA,胡摩沢,37.063916,140.883916
平下平窪,タイラシモヒラクボ,TAIRA SHIMOHIRAKUBO,山王田,37.081243,140.883614
内郷小島町,ウチゴウオジママチ,UCHIGO OJIMAMACHI,作田,37.045722,140.883657
常磐松久須根町,ジョウバンマツクスネマチ,JOBAN MATSUKUSUNEMACHI,手倉,37.015506,140.884428
平,タイラ,TAIRA,杉平,37.061328,140.885889
平下平窪,タイラシモヒラクボ,TAIRA SHIMOHIRAKUBO,カラカエ,37.073533,140.886592
平,タイラ,TAIRA,堂ノ前,37.053635,140.886509
平,タイラ,TAIRA,材木町,37.054412,140.886469
平,タイラ,TAIRA,童子町,37.052343,140.88719
平,タイラ,TAIRA,紺屋町,37.054781,140.886459
平,タイラ,TAIRA,梅本,37.050378,140.886683
平中平窪,タイラナカヒラクボ,TAIRA NAKAHIRAKUBO,古館前,37.090382,140.885522
平,タイラ,TAIRA,六間門,37.05995,140.886073
平下平窪,タイラシモヒラクボ,TAIRA SHIMOHIRAKUBO,白山下,37.081395,140.891178
好間町川中子,ヨシママチカワナゴ,YOSHIMAMACHI KAWANAGO,竹渡戸,37.068938,140.888155
平中塩,タイラナカシオ,TAIRA NAKASHIO,鬼馬塚,37.073483,140.888067
平上平窪,タイラカミヒラクボ,TAIRA KAMIHIRAKUBO,羽黒,37.093479,140.890947
平,タイラ,TAIRA,掻槌小路,37.057823,140.887129
平,タイラ,TAIRA,一町目,37.055745,140.888641
好間町川中子,ヨシママチカワナゴ,YOSHIMAMACHI KAWANAGO,愛宕後,37.067598,140.888874
平,タイラ,TAIRA,中町,37.053723,140.889686
平,タイラ,TAIRA,堂根町,37.051566,140.889265
平,タイラ,TAIRA,三崎,37.050272,140.889314
平上荒川,タイラカミアラカワ,TAIRA KAMIARAKAWA,長尾,37.030813,140.890914
常磐松久須根町,ジョウバンマツクスネマチ,JOBAN MATSUKUSUNEMACHI,広畑,37.01728,140.890463
内郷内町,ウチゴウウチマチ,UCHIGO UCHIMACHI,高橋,37.038739,140.852968
内郷綴町,ウチゴウツヅラマチ,UCHIGO TSUZURAMACHI,大神田,37.030553,140.850758
小川町上平,オガワマチウワダイラ,OGAWAMACHI UWADAIRA,中平,37.129121,140.870694
小川町上平,オガワマチウワダイラ,OGAWAMACHI UWADAIRA,下平,37.129218,140.872754
小川町高萩,オガワマチタカハギ,OGAWAMACHI TAKAHAGI,小路尻,37.127053,140.86131
小川町西小川,オガワマチニシオガワ,OGAWAMACHI NISHIOGAWA,上野地,37.122247,140.851787
小川町下小川,オガワマチシモオガワ,OGAWAMACHI SHIMOGAWA,宮田,37.104161,140.87174
小川町下小川,オガワマチシモオガワ,OGAWAMACHI SHIMOGAWA,本山,37.105029,140.870103
小川町西小川,オガワマチニシオガワ,OGAWAMACHI NISHIOGAWA,神明下,37.118549,140.859414
小川町西小川,オガワマチニシオガワ,OGAWAMACHI NISHIOGAWA,堂平,37.111567,140.852527
小川町西小川,オガワマチニシオガワ,OGAWAMACHI NISHIOGAWA,北反,37.11082,140.856521
小川町西小川,オガワマチニシオガワ,OGAWAMACHI NISHIOGAWA,加野,37.108074,140.861086
小川町西小川,オガワマチニシオガワ,OGAWAMACHI NISHIOGAWA,下蕪田,37.106471,140.862071
小川町西小川,オガワマチニシオガワ,OGAWAMACHI NISHIOGAWA,上谷地,37.104437,140.856007
小川町西小川,オガワマチニシオガワ,OGAWAMACHI NISHIOGAWA,小沼平,37.106938,140.857191
小川町西小川,オガワマチニシオガワ,OGAWAMACHI NISHIOGAWA,沼平,37.102281,140.85319
小川町西小川,オガワマチニシオガワ,OGAWAMACHI NISHIOGAWA,上居合,37.104098,140.862967
小川町西小川,オガワマチニシオガワ,OGAWAMACHI NISHIOGAWA,下居合,37.10264,140.860232
平中平窪,タイラナカヒラクボ,TAIRA NAKAHIRAKUBO,柳川原,37.08986,140.870379
平上平窪,タイラカミヒラクボ,TAIRA KAMIHIRAKUBO,大釜地,37.09733,140.877909
平上平窪,タイラカミヒラクボ,TAIRA KAMIHIRAKUBO,町田,37.099945,140.880939
平上平窪,タイラカミヒラクボ,TAIRA KAMIHIRAKUBO,三什,37.098885,140.879013
平上平窪,タイラカミヒラクボ,TAIRA KAMIHIRAKUBO,君ケ沢,37.093313,140.873228
平下平窪,タイラシモヒラクボ,TAIRA SHIMOHIRAKUBO,諏訪作,37.081981,140.884472
平下平窪,タイラシモヒラクボ,TAIRA SHIMOHIRAKUBO,古内,37.078554,140.885759
平下平窪,タイラシモヒラクボ,TAIRA SHIMOHIRAKUBO,四郎平作,37.076074,140.889442
平下平窪,タイラシモヒラクボ,TAIRA SHIMOHIRAKUBO,山根,37.078172,140.888285
平赤井,タイラアカイ,TAIRA AKAI,深田,37.086246,140.863567
平中平窪,タイラナカヒラクボ,TAIRA NAKAHIRAKUBO,向川原,37.084137,140.868884
平赤井,タイラアカイ,TAIRA AKAI,川子内,37.076829,140.870096
平赤井,タイラアカイ,TAIRA AKAI,定田,37.075229,140.869784
平赤井,タイラアカイ,TAIRA AKAI,畑子沢,37.087382,140.83798
好間町北好間,ヨシママチキタヨシマ,YOSHIMAMACHI KITAYOSHIMA,猪ノ鼻,37.077038,140.82098
好間町北好間,ヨシママチキタヨシマ,YOSHIMAMACHI KITAYOSHIMA,平場,37.073204,140.827021
好間町北好間,ヨシママチキタヨシマ,YOSHIMAMACHI KITAYOSHIMA,加古内,37.068567,140.837459
好間町上好間,ヨシママチカミヨシマ,YOSHIMAMACHI KAMIYOSHIMA,石田,37.067099,140.845368
好間町上好間,ヨシママチカミヨシマ,YOSHIMAMACHI KAMIYOSHIMA,中道,37.069096,140.846679
好間町上好間,ヨシママチカミヨシマ,YOSHIMAMACHI KAMIYOSHIMA,稲荷原,37.066931,140.846689
好間町上好間,ヨシママチカミヨシマ,YOSHIMAMACHI KAMIYOSHIMA,小館,37.065105,140.846416
好間町上好間,ヨシママチカミヨシマ,YOSHIMAMACHI KAMIYOSHIMA,空山,37.066083,140.845325
好間町上好間,ヨシママチカミヨシマ,YOSHIMAMACHI KAMIYOSHIMA,東,37.062619,140.84843
平赤井,タイラアカイ,TAIRA AKAI,赤井嶽,37.095099,140.810721
平赤井,タイラアカイ,TAIRA AKAI,大門,37.085972,140.852856
平赤井,タイラアカイ,TAIRA AKAI,沼ノ作,37.084864,140.854617
平赤井,タイラアカイ,TAIRA AKAI,竹ノ花,37.082484,140.854621
好間町上好間,ヨシママチカミヨシマ,YOSHIMAMACHI KAMIYOSHIMA,馬場,37.068698,140.850636
好間町北好間,ヨシママチキタヨシマ,YOSHIMAMACHI KITAYOSHIMA,清水,37.070617,140.836842
好間町北好間,ヨシママチキタヨシマ,YOSHIMAMACHI KITAYOSHIMA,塊坪,37.069708,140.834669
好間町北好間,ヨシママチキタヨシマ,YOSHIMAMACHI KITAYOSHIMA,行人沢,37.078433,140.82119
好間町北好間,ヨシママチキタヨシマ,YOSHIMAMACHI KITAYOSHIMA,板木沢,37.07526,140.821927
好間町北好間,ヨシママチキタヨシマ,YOSHIMAMACHI KITAYOSHIMA,屋敷前,37.067502,140.836746
