name,name_kana,name_romaji,nickname,latitude,longitude
大字中倉,,,,37.180119,140.523905
大字小平,,,,37.180307,140.562532
大字駒形,,,,37.177352,140.585745
大字北方,,,,37.17838,140.596418
大字蓬田新田,,,,37.260695,140.543927
大字下蓬田,,,,37.235934,140.539728
大字上蓬田,,,,37.248295,140.558782
大字九生滝,,,,37.241224,140.590745
大字東山,,,,37.204736,140.596762
大字永田,,,,37.21537,140.578431
大字小松原,,,,37.215207,140.563079
大字西山,,,,37.205306,140.534278
大字鴇子,,,,37.220188,140.595282
