name,name_kana,name_romaji,nickname,latitude,longitude
原町区江井,ハラマチクエネイ,HARAMACHIKU ENEI,,37.589291,141.001775
小高区南小高,,,,37.562081,140.998007
小高区下浦,オダカクシモウラ,ODAKAKU SHIMORA,,37.514172,141.008643
小高区行津,オダカクナメヅ,ODAKAKU NAMEZU,,37.519193,141.000609
小高区水谷,オダカクミズガイ,ODAKAKU MIZUGAI,,37.53786,140.994366
小高区蛯沢,オダカクエビサワ,ODAKAKU EBISAWA,,37.534095,141.009989
小高区耳谷,オダカクミミガイ,ODAKAKU MIMIGAI,,37.530407,140.982528
小高区泉沢,オダカクイズミサワ,ODAKAKU IZUMISAWA,,37.544034,140.990495
小高区福岡,オダカクフクオカ,ODAKAKU FUKUOKA,,37.55386,141.012181
小高区岡田,オダカクオカダ,ODAKAKU OKADA,,37.555973,140.99951
小高区東町三丁目,オダカクヒガシマチ 3,ODAKAKU HIGASHIMACHI 3,,37.566365,140.99523
原町区小木迫,,,,37.580961,140.984245
小高区大井,オダカクオオイ,ODAKAKU OI,,37.568432,141.003505
小高区女場,オダカクオナバ,ODAKAKU ONABA,,37.542618,141.009379
原町区,ハラマチクアオバチョウ,HARAMACHIKU AOBACHO,,37.607693,140.861605
原町区小浜,ハラマチクコバマ,HARAMACHIKU KOBAMA,,37.595149,141.019696
原町区下江井,ハラマチクシモエネイ,HARAMACHIKU SHIMOENEI,,37.584894,141.012499
原町区金沢,ハラマチクカネザワ,HARAMACHIKU KANEZAWA,,37.668523,141.001881
原町区片倉,ハラマチクカタクラ,HARAMACHIKU KATAKURA,,37.579884,140.890265
原町区馬場,ハラマチクババ,HARAMACHIKU BABA,,37.597467,140.896152
小高区羽倉,オダカクハノクラ,ODAKAKU HANOKURA,,37.582438,140.928592
小高区北鳩原,オダカクキタハツパラ,ODAKAKU KITAHATSUPARA,,37.58081,140.954059
原町区鶴谷,ハラマチクツルガイ,HARAMACHIKU TSURUGAI,,37.591089,140.963734
原町区高,ハラマチクタカ,HARAMACHIKU TAKA,,37.601467,140.994279
原町区大甕,ハラマチクオオミカ,HARAMACHIKU OMIKA,,37.605746,141.00474
原町区雫,ハラマチクシドケ,HARAMACHIKU SHIDOKE,,37.610182,141.018326
原町区北原,ハラマチクキタハラ,HARAMACHIKU KITAHARA,,37.625217,140.990211
原町区萱浜,ハラマチクカイバマ,HARAMACHIKU KAIBAMA,,37.625583,141.011417
原町区上渋佐,ハラマチクカミシブサ,HARAMACHIKU KAMISHIBUSA,,37.639165,141.000142
原町区泉,ハラマチクイズミ,HARAMACHIKU IZUMI,,37.647555,141.008519
原町区北泉,ハラマチクキタイズミ,HARAMACHIKU KITAIZUMI,,37.655027,141.012635
原町区高倉,ハラマチクタカノクラ,HARAMACHIKU TAKANOKURA,,37.639266,140.874838
原町区大原,ハラマチクオオハラ,HARAMACHIKU OHARA,,37.668838,140.886108
原町区深野,ハラマチクフコウノ,HARAMACHIKU FUKONO,,37.670799,140.925791
原町区上北高平,ハラマチクカミキタタカヒラ,HARAMACHIKU KAMIKITATAKAHIRA,,37.665641,140.959771
鹿島区塩崎,カシマクシオノサキ,KASHIMAKU SHIONOSAKI,,37.680302,140.959294
鹿島区川子,カシマクカワゴ,KASHIMAKU KAWAGO,,37.674973,140.978601
鹿島区大内,カシマクオオウチ,KASHIMAKU OUCHI,,37.679893,140.993622
鹿島区南右田,カシマクミナミミギタ,KASHIMAKU MINAMIMIGITA,,37.689909,141.000074
鹿島区北右田,カシマクキタミギタ,KASHIMAKU KITAMIGITA,,37.699958,140.988944
鹿島区南海老,カシマクミナミエビ,KASHIMAKU MINAMIEBI,,37.705047,141.004014
鹿島区北海老,カシマクキタエビ,KASHIMAKU KITAEBI,,37.713583,140.996872
鹿島区北屋形,カシマクキタヤカタ,KASHIMAKU KITAYAKATA,,37.724201,140.98852
鹿島区上栃窪,カシマクカミトチクボ,KASHIMAKU KAMITOCHIKUBO,,37.721817,140.864286
鹿島区橲原,カシマクジサバラ,KASHIMAKU JISABARA,,37.69099,140.874112
小高区浦尻,オダカクウラジリ,ODAKAKU URAJIRI,,37.519978,141.025702
小高区井田川,オダカクイダガワ,ODAKAKU IDAGAWA,,37.527063,141.019563
小高区角部内,オダカクツノベウチ,ODAKAKU TSUNOBEUCHI,,37.541317,141.02166
小高区村上,オダカクムラカミ,ODAKAKU MURAKAMI,,37.560305,141.024897
原町区小沢,ハラマチクコザワ,HARAMACHIKU KOZAWA,,37.579969,141.021836
小高区塚原,オダカクツカバラ,ODAKAKU TSUKABARA,,37.568079,141.017892
原町区堤谷,ハラマチクツツミガイ,HARAMACHIKU TSUTSUMIGAI,,37.578793,141.006985
小高区上浦,オダカクカミウラ,ODAKAKU KAMIURA,,37.51867,140.986678
小高区神山,オダカクカミヤマ,ODAKAKU KAMIYAMA,,37.525746,140.962488
小高区上根沢,オダカクウワネザワ,ODAKAKU UWANEZAWA,,37.540663,140.96453
小高区大田和,オダカクオオタワ,ODAKAKU OTAWA,,37.545552,140.94925
小高区川房,オダカクカワブサ,ODAKAKU KAWABUSA,,37.530651,140.917016
小高区南町二丁目,オダカクミナミマチ 2,ODAKAKU MINAMIMACHI 2,,37.559615,140.99529
小高区東町二丁目,オダカクヒガシマチ 2,ODAKAKU HIGASHIMACHI 2,,37.564401,140.994868
小高区南町一丁目,オダカクミナミマチ 1,ODAKAKU MINAMIMACHI 1,,37.560318,140.993184
小高区東町一丁目,オダカクヒガシマチ 1,ODAKAKU HIGASHIMACHI 1,,37.562751,140.994589
小高区田町二丁目,オダカクタマチ 2,ODAKAKU TAMACHI 2,,37.56146,140.991352
小高区田町一丁目,オダカクタマチ 1,ODAKAKU TAMACHI 1,,37.561675,140.989555
小高区本町一丁目,オダカクモトマチ 1,ODAKAKU MOTOMACHI 1,,37.563508,140.992206
小高区本町二丁目,オダカクモトマチ 2,ODAKAKU MOTOMACHI 2,,37.565889,140.992737
小高区大町一丁目,オダカクオオマチ 1,ODAKAKU OMACHI 1,,37.563977,140.990098
小高区大町二丁目,オダカクオオマチ 2,ODAKAKU OMACHI 2,,37.565914,140.990817
小高区仲町一丁目,オダカクナカマチ 1,ODAKAKU NAKAMACHI 1,,37.564418,140.987879
小高区仲町二丁目,オダカクナカマチ 2,ODAKAKU NAKAMACHI 2,,37.566295,140.988579
小高区関場二丁目,オダカクセキバ 2,ODAKAKU SEKIBA 2,,37.560749,140.986151
小高区関場一丁目,オダカクセキバ 1,ODAKAKU SEKIBA 1,,37.562352,140.986502
小高区吉名,オダカクヨシナ,ODAKAKU YOSHINA,,37.551891,140.985261
小高区西町二丁目,オダカクニシマチ 2,ODAKAKU NISHIMACHI 2,,37.561476,140.981823
小高区藤木二丁目,オダカクフジキ 2,ODAKAKU FUJIKI 2,,37.56132,140.979825
小高区西町一丁目,オダカクニシマチ 1,ODAKAKU NISHIMACHI 1,,37.563731,140.983863
小高区上町二丁目,オダカクカミマチ 2,ODAKAKU KAMIMACHI 2,,37.566561,140.985638
小高区上町一丁目,オダカクカミマチ 1,ODAKAKU KAMIMACHI 1,,37.56505,140.985274
小高区藤木一丁目,オダカクフジキ 1,ODAKAKU FUJIKI 1,,37.563987,140.980054
小高区小屋木,オダカクコヤギ,ODAKAKU KOYAGI,,37.54876,140.963288
小高区飯崎,オダカクハンサキ,ODAKAKU HANSAKI,,37.556849,140.960389
小高区小高,オダカクオダカ,ODAKAKU ODAKA,,37.570138,140.987414
小高区片草,オダカクカタクサ,ODAKAKU KATAKUSA,,37.575768,140.972786
小高区小谷,オダカクオヤ,ODAKAKU OYA,,37.568818,140.963589
小高区南鳩原,オダカクミナミハツパラ,ODAKAKU MINAMIHATSUPARA,,37.572733,140.95271
小高区大富,オダカクオオトミ,ODAKAKU OTOMI,,37.566297,140.923872
原町区米々沢,ハラマチクメメザワ,HARAMACHIKU MEMEZAWA,,37.59716,141.006329
原町区下渋佐,ハラマチクシモシブサ,HARAMACHIKU SHIMOSHIBUSA,,37.637157,141.016175
原町区益田,ハラマチクマスダ,HARAMACHIKU MASUDA,,37.602733,140.976722
原町区矢川原,ハラマチクヤガワラ,HARAMACHIKU YAGAWARA,,37.598711,140.949785
原町区上太田,ハラマチクカミオオタ,HARAMACHIKU KAMIOTA,,37.604649,140.950551
原町区下太田,ハラマチクシモオオタ,HARAMACHIKU SHIMOOTA,,37.615478,140.985105
原町区日の出町,ハラマチクヒノデチョウ,HARAMACHIKU HINODECHO,,37.631897,140.986938
原町区青葉町三丁目,ハラマチクアオバチョウ 3,HARAMACHIKU AOBACHO 3,,37.631118,140.976987
原町区青葉町二丁目,ハラマチクアオバチョウ 2,HARAMACHIKU AOBACHO 2,,37.63205,140.974077
原町区青葉町四丁目,ハラマチクアオバチョウ 4,HARAMACHIKU AOBACHO 4,,37.628565,140.974078
原町区二見町三丁目,ハラマチクフタミチョウ 3,HARAMACHIKU FUTAMICHO 3,,37.632958,140.970477
原町区二見町四丁目,ハラマチクフタミチョウ 4,HARAMACHIKU FUTAMICHO 4,,37.629417,140.967339
原町区二見町二丁目,ハラマチクフタミチョウ 2,HARAMACHIKU FUTAMICHO 2,,37.634268,140.96894
原町区二見町一丁目,ハラマチクフタミチョウ 1,HARAMACHIKU FUTAMICHO 1,,37.634293,140.965855
原町区本陣前二丁目,ハラマチクホンジンマエ 2,HARAMACHIKU HONJIMMAE 2,,37.621778,140.952748
原町区橋本町四丁目,ハラマチクハシモトチョウ 4,HARAMACHIKU HASHIMOTOCHO 4,,37.626665,140.96104
原町区牛来,ハラマチクゴライ,HARAMACHIKU GORAI,,37.621756,140.969409
原町区中太田,ハラマチクナカオオタ,HARAMACHIKU NAKAOTA,,37.614875,140.962063
原町区橋本町三丁目,ハラマチクハシモトチョウ 3,HARAMACHIKU HASHIMOTOCHO 3,,37.629304,140.961259
原町区本陣前一丁目,ハラマチクホンジンマエ 1,HARAMACHIKU HONJIMMAE 1,,37.624322,140.9547
原町区南町四丁目,ハラマチクミナミマチ 4,HARAMACHIKU MINAMIMACHI 4,,37.627878,140.95675
原町区橋本町二丁目,ハラマチクハシモトチョウ 2,HARAMACHIKU HASHIMOTOCHO 2,,37.631893,140.962628
原町区橋本町一丁目,ハラマチクハシモトチョウ 1,HARAMACHIKU HASHIMOTOCHO 1,,37.634833,140.962663
原町区南町三丁目,ハラマチクミナミマチ 3,HARAMACHIKU MINAMIMACHI 3,,37.63193,140.957206
原町区南町二丁目,ハラマチクミナミマチ 2,HARAMACHIKU MINAMIMACHI 2,,37.634956,140.958008
原町区国見町二丁目,ハラマチククニミチョウ 2,HARAMACHIKU KUNIMICHO 2,,37.62759,140.953142
原町区国見町一丁目,ハラマチククニミチョウ 1,HARAMACHIKU KUNIMICHO 1,,37.63156,140.954308
原町区国見町三丁目,ハラマチククニミチョウ 3,HARAMACHIKU KUNIMICHO 3,,37.626462,140.949192
原町区上町一丁目,ハラマチクカミマチ 1,HARAMACHIKU KAMIMACHI 1,,37.632195,140.951995
原町区本陣前三丁目,ハラマチクホンジンマエ 3,HARAMACHIKU HONJIMMAE 3,,37.619139,140.949984
原町区上町三丁目,ハラマチクカミマチ 3,HARAMACHIKU KAMIMACHI 3,,37.628346,140.947879
原町区上町二丁目,ハラマチクカミマチ 2,HARAMACHIKU KAMIMACHI 2,,37.631586,140.948241
原町区押釜,ハラマチクオシガマ,HARAMACHIKU OSHIGAMA,,37.625126,140.916501
原町区高見町二丁目,ハラマチクタカミチョウ 2,HARAMACHIKU TAKAMICHO 2,,37.636154,140.985022
原町区青葉町一丁目,ハラマチクアオバチョウ 1,HARAMACHIKU AOBACHO 1,,37.633384,140.978526
原町区桜井町一丁目,ハラマチクサクライチョウ 1,HARAMACHIKU SAKURAICHO 1,,37.637854,140.978526
原町区高見町一丁目,ハラマチクタカミチョウ 1,HARAMACHIKU TAKAMICHO 1,,37.640178,140.986292
原町区桜井町二丁目,ハラマチクサクライチョウ 2,HARAMACHIKU SAKURAICHO 2,,37.640502,140.979359
原町区下高平,ハラマチクシモタカヒラ,HARAMACHIKU SHIMOTAKAHIRA,,37.646395,140.987726
原町区旭町四丁目,ハラマチクアサヒチョウ 4,HARAMACHIKU ASAHICHO 4,,37.63544,140.972774
原町区旭町二丁目,ハラマチクアサヒチョウ 2,HARAMACHIKU ASAHICHO 2,,37.637694,140.970344
原町区錦町一丁目,ハラマチクニシキチョウ 1,HARAMACHIKU NISHIKICHO 1,,37.638598,140.973016
原町区旭町三丁目,ハラマチクアサヒチョウ 3,HARAMACHIKU ASAHICHO 3,,37.635887,140.969179
原町区旭町一丁目,ハラマチクアサヒチョウ 1,HARAMACHIKU ASAHICHO 1,,37.637781,140.967183
原町区大町三丁目,ハラマチクオオマチ 3,HARAMACHIKU OMACHI 3,,37.63964,140.968021
原町区栄町三丁目,ハラマチクサカエチョウ 3,HARAMACHIKU SAKAECHO 3,,37.637125,140.964763
原町区栄町二丁目,ハラマチクサカエチョウ 2,HARAMACHIKU SAKAECHO 2,,37.637586,140.962338
原町区大町二丁目,ハラマチクオオマチ 2,HARAMACHIKU OMACHI 2,,37.640047,140.963967
原町区錦町二丁目,ハラマチクニシキチョウ 2,HARAMACHIKU NISHIKICHO 2,,37.641953,140.970575
原町区東町三丁目,ハラマチクアズマチョウ 3,HARAMACHIKU AZUMACHO 3,,37.642559,140.966199
原町区錦町三丁目,ハラマチクニシキチョウ 3,HARAMACHIKU NISHIKICHO 3,,37.644106,140.969025
原町区東町二丁目,ハラマチクアズマチョウ 2,HARAMACHIKU AZUMACHO 2,,37.64268,140.963527
原町区栄町一丁目,ハラマチクサカエチョウ 1,HARAMACHIKU SAKAECHO 1,,37.637707,140.960584
原町区大町一丁目,ハラマチクオオマチ 1,HARAMACHIKU OMACHI 1,,37.640097,140.961261
原町区南町一丁目,ハラマチクミナミマチ 1,HARAMACHIKU MINAMIMACHI 1,,37.637526,140.958463
原町区本町一丁目,ハラマチクモトマチ 1,HARAMACHIKU MOTOMACHI 1,,37.63938,140.958306
原町区三島町一丁目,ハラマチクミシマチョウ 1,HARAMACHIKU MISHIMACHO 1,,37.635717,140.954885
原町区三島町二丁目,ハラマチクミシマチョウ 2,HARAMACHIKU MISHIMACHO 2,,37.639958,140.954245
原町区西町二丁目,ハラマチクニシマチ 2,HARAMACHIKU NISHIMACHI 2,,37.635228,140.951036
原町区西町一丁目,ハラマチクニシマチ 1,HARAMACHIKU NISHIMACHI 1,,37.637432,140.949918
原町区仲町二丁目,ハラマチクナカマチ 2,HARAMACHIKU NAKAMACHI 2,,37.639479,140.949828
原町区東町一丁目,ハラマチクアズマチョウ 1,HARAMACHIKU AZUMACHO 1,,37.642871,140.961295
原町区本町二丁目,ハラマチクモトマチ 2,HARAMACHIKU MOTOMACHI 2,,37.641816,140.958653
原町区本町三丁目,ハラマチクモトマチ 3,HARAMACHIKU MOTOMACHI 3,,37.644178,140.958252
原町区三島町三丁目,ハラマチクミシマチョウ 3,HARAMACHIKU MISHIMACHO 3,,37.642832,140.955544
原町区小川町,ハラマチクオガワチョウ,HARAMACHIKU OGAWACHO,,37.647397,140.959862
原町区北町,ハラマチクキタマチ,HARAMACHIKU KITAMACHI,,37.646352,140.951941
原町区西町三丁目,ハラマチクニシマチ 3,HARAMACHIKU NISHIMACHI 3,,37.63361,140.945553
原町区仲町一丁目,ハラマチクナカマチ 1,HARAMACHIKU NAKAMACHI 1,,37.641891,140.94964
原町区仲町三丁目,ハラマチクナカマチ 3,HARAMACHIKU NAKAMACHI 3,,37.639405,140.946949
原町区牛越,ハラマチクウシゴエ,HARAMACHIKU USHIGOE,,37.642742,140.944134
原町区大木戸,ハラマチクオオキド,HARAMACHIKU OKIDO,,37.624932,140.940985
原町区石神,ハラマチクイシガミ,HARAMACHIKU ISHIGAMI,,37.639941,140.922216
原町区下北高平,ハラマチクシモキタタカヒラ,HARAMACHIKU SHIMOKITATAKAHIRA,,37.65543,140.98792
原町区上高平,ハラマチクカミタカヒラ,HARAMACHIKU KAMITAKAHIRA,,37.649823,140.965432
原町区北新田,ハラマチクキタニイダ,HARAMACHIKU KITANIIDA,,37.657472,140.952889
原町区長野,ハラマチクナガノ,HARAMACHIKU NAGANO,,37.650936,140.939193
原町区北長野,ハラマチクキタナガノ,HARAMACHIKU KITANAGANO,,37.656016,140.938293
原町区信田沢,ハラマチクシダザワ,HARAMACHIKU SHIDAZAWA,,37.650886,140.919931
原町区大谷,ハラマチクオオガイ,HARAMACHIKU OGAI,,37.649336,140.898677
鹿島区烏崎,カシマクカラスザキ,KASHIMAKU KARASUZAKI,,37.678957,141.006918
鹿島区西町三丁目,カシマクニシマチ 3,KASHIMAKU NISHIMACHI 3,,37.709897,140.95876
鹿島区あさひ,カシマクアサヒ,KASHIMAKU ASAHI,,37.699529,140.970642
鹿島区小島田,カシマクオシマダ,KASHIMAKU OSHIMADA,,37.690456,140.984439
鹿島区江垂,カシマクエタリ,KASHIMAKU ETARI,,37.691004,140.96911
鹿島区小池,カシマクコイケ,KASHIMAKU KOIKE,,37.6918,140.926931
鹿島区西町一丁目,カシマクニシマチ 1,KASHIMAKU NISHIMACHI 1,,37.703485,140.964824
鹿島区南屋形,カシマクミナミヤカタ,KASHIMAKU MINAMIYAKATA,,37.712483,140.973597
鹿島区西町二丁目,カシマクニシマチ 2,KASHIMAKU NISHIMACHI 2,,37.707061,140.962
鹿島区鹿島,カシマクカシマ,KASHIMAKU KASHIMA,,37.701819,140.974803
鹿島区寺内,カシマクテラウチ,KASHIMAKU TERAUCHI,,37.692757,140.949607
鹿島区牛河内,カシマクウシコウチ,KASHIMAKU USHIKOCHI,,37.706636,140.950805
鹿島区岡和田,カシマクオカワダ,KASHIMAKU OKAWADA,,37.712199,140.947141
鹿島区小山田,カシマクコヤマダ,KASHIMAKU KOYAMADA,,37.707724,140.916784
鹿島区永田,カシマクナガタ,KASHIMAKU NAGATA,,37.718584,140.96186
鹿島区角川原,カシマクツノガワラ,KASHIMAKU TSUNOGAWARA,,37.725791,140.934925
鹿島区浮田,カシマクウキタ,KASHIMAKU UKITA,,37.71638,140.927777
鹿島区山下,カシマクヤマシタ,KASHIMAKU YAMASHITA,,37.726044,140.917477
鹿島区南柚木,カシマクミナミユノキ,KASHIMAKU MINAMIYUNOKI,,37.73013,140.967014
鹿島区永渡,カシマクナガワタリ,KASHIMAKU NAGAWATARI,,37.734239,140.949933
鹿島区横手,カシマクヨコテ,KASHIMAKU YOKOTE,,37.724582,140.945957
鹿島区御山,カシマクオヤマ,KASHIMAKU OYAMA,,37.737527,140.912475
鹿島区栃窪,カシマクトチクボ,KASHIMAKU TOCHIKUBO,,37.729758,140.895778
小高区,オダカクイズミサワ,ODAKAKU IZUMISAWA,,37.555263,140.893728
小高区金谷,オダカクカナヤ,ODAKAKU KANAYA,,37.549636,140.922315
原町区陣ケ崎,ハラマチクジンガサキ,HARAMACHIKU JINGASAKI,,37.613205,140.944931
鹿島区小池,カシマクコイケ,KASHIMAKU KOIKE,宮前,37.689439,140.92084
小高区羽倉,オダカクハノクラ,ODAKAKU HANOKURA,中ノ木戸,37.589108,140.923187
原町区深野,ハラマチクフコウノ,HARAMACHIKU FUKONO,風越,37.661478,140.91568
原町区片倉,ハラマチクカタクラ,HARAMACHIKU KATAKURA,八重米坂,37.595013,140.915961
原町区深野,ハラマチクフコウノ,HARAMACHIKU FUKONO,塩塚,37.663805,140.917422
原町区馬場,ハラマチクババ,HARAMACHIKU BABA,萱堀子,37.601972,140.920053
小高区羽倉,オダカクハノクラ,ODAKAKU HANOKURA,堀口,37.581308,140.919577
小高区羽倉,オダカクハノクラ,ODAKAKU HANOKURA,君ケ沢,37.583992,140.934307
鹿島区山下,カシマクヤマシタ,KASHIMAKU YAMASHITA,中ノ坪,37.728799,140.918557
鹿島区小池,カシマクコイケ,KASHIMAKU KOIKE,ミタラセ,37.686766,140.921465
鹿島区山下,カシマクヤマシタ,KASHIMAKU YAMASHITA,中ノ内,37.723596,140.925524
鹿島区山下,カシマクヤマシタ,KASHIMAKU YAMASHITA,馬見塚,37.725677,140.922852
原町区馬場,ハラマチクババ,HARAMACHIKU BABA,垣ノ内,37.605153,140.922694
原町区馬場,ハラマチクババ,HARAMACHIKU BABA,原,37.608094,140.932198
原町区石神,ハラマチクイシガミ,HARAMACHIKU ISHIGAMI,川原田,37.633795,140.919662
原町区押釜,ハラマチクオシガマ,HARAMACHIKU OSHIGAMA,前田,37.627171,140.921505
原町区押釜,ハラマチクオシガマ,HARAMACHIKU OSHIGAMA,戸鳥土,37.631507,140.922358
原町区信田沢,ハラマチクシダザワ,HARAMACHIKU SHIDAZAWA,道ノ上,37.654493,140.91983
原町区片倉,ハラマチクカタクラ,HARAMACHIKU KATAKURA,市渡戸,37.59701,140.920847
原町区深野,ハラマチクフコウノ,HARAMACHIKU FUKONO,小池田,37.66962,140.919902
原町区深野,ハラマチクフコウノ,HARAMACHIKU FUKONO,関場,37.666809,140.924522
原町区石神,ハラマチクイシガミ,HARAMACHIKU ISHIGAMI,石神,37.637412,140.922631
原町区深野,ハラマチクフコウノ,HARAMACHIKU FUKONO,荒戸沢,37.668002,140.921587
原町区深野,ハラマチクフコウノ,HARAMACHIKU FUKONO,庚塚,37.663668,140.924129
小高区大富,オダカクオオトミ,ODAKAKU OTOMI,荻窪,37.557846,140.921842
原町区信田沢,ハラマチクシダザワ,HARAMACHIKU SHIDAZAWA,馬場田,37.660598,140.921776
原町区石神,ハラマチクイシガミ,HARAMACHIKU ISHIGAMI,遣子内,37.636664,140.921923
原町区馬場,ハラマチクババ,HARAMACHIKU BABA,中内,37.606751,140.923443
原町区信田沢,ハラマチクシダザワ,HARAMACHIKU SHIDAZAWA,上信田,37.657505,140.922782
原町区馬場,ハラマチクババ,HARAMACHIKU BABA,石住,37.598766,140.923173
原町区深野,ハラマチクフコウノ,HARAMACHIKU FUKONO,竹ノ内,37.670372,140.924152
鹿島区小山田,カシマクコヤマダ,KASHIMAKU KOYAMADA,隠町,37.711362,140.925409
原町区深野,ハラマチクフコウノ,HARAMACHIKU FUKONO,西内,37.668576,140.924943
原町区石神,ハラマチクイシガミ,HARAMACHIKU ISHIGAMI,中山,37.63869,140.923645
原町区石神,ハラマチクイシガミ,HARAMACHIKU ISHIGAMI,杉内,37.638485,140.924686
原町区馬場,ハラマチクババ,HARAMACHIKU BABA,赤柴,37.621184,140.929519
原町区深野,ハラマチクフコウノ,HARAMACHIKU FUKONO,台畑,37.6619,140.927708
鹿島区小池,カシマクコイケ,KASHIMAKU KOIKE,台畑,37.687093,140.926098
原町区押釜,ハラマチクオシガマ,HARAMACHIKU OSHIGAMA,神田,37.627917,140.924769
原町区信田沢,ハラマチクシダザワ,HARAMACHIKU SHIDAZAWA,堂下,37.650268,140.923952
原町区石神,ハラマチクイシガミ,HARAMACHIKU ISHIGAMI,中居,37.636458,140.926341
原町区信田沢,ハラマチクシダザワ,HARAMACHIKU SHIDAZAWA,中屋鋪,37.648326,140.924886
原町区押釜,ハラマチクオシガマ,HARAMACHIKU OSHIGAMA,原,37.631743,140.929066
原町区信田沢,ハラマチクシダザワ,HARAMACHIKU SHIDAZAWA,熊野内,37.659176,140.92486
鹿島区小池,カシマクコイケ,KASHIMAKU KOIKE,原畑,37.688393,140.934577
原町区片倉,ハラマチクカタクラ,HARAMACHIKU KATAKURA,片倉,37.597121,140.922405
原町区押釜,ハラマチクオシガマ,HARAMACHIKU OSHIGAMA,本内,37.629424,140.925351
鹿島区横手,カシマクヨコテ,KASHIMAKU YOKOTE,白坂前,37.73679,140.927282
原町区石神,ハラマチクイシガミ,HARAMACHIKU ISHIGAMI,赤坂,37.642026,140.926875
原町区馬場,ハラマチクババ,HARAMACHIKU BABA,下中内,37.610439,140.928597
鹿島区角川原,カシマクツノガワラ,KASHIMAKU TSUNOGAWARA,西川原,37.731601,140.927122
原町区信田沢,ハラマチクシダザワ,HARAMACHIKU SHIDAZAWA,原,37.657806,140.928899
原町区馬場,ハラマチクババ,HARAMACHIKU BABA,切付,37.613923,140.928273
原町区石神,ハラマチクイシガミ,HARAMACHIKU ISHIGAMI,高茂内,37.64029,140.927417
鹿島区浮田,カシマクウキタ,KASHIMAKU UKITA,一丁田,37.722369,140.926971
原町区深野,ハラマチクフコウノ,HARAMACHIKU FUKONO,仲ノ内,37.670192,140.927043
原町区片倉,ハラマチクカタクラ,HARAMACHIKU KATAKURA,岩下,37.597803,140.928151
鹿島区小山田,カシマクコヤマダ,KASHIMAKU KOYAMADA,戸ノ内,37.708796,140.934254
原町区深野,ハラマチクフコウノ,HARAMACHIKU FUKONO,北長信田,37.664065,140.925944
原町区信田沢,ハラマチクシダザワ,HARAMACHIKU SHIDAZAWA,新田原,37.660184,140.92568
原町区深野,ハラマチクフコウノ,HARAMACHIKU FUKONO,力石,37.66931,140.929498
鹿島区角川原,カシマクツノガワラ,KASHIMAKU TSUNOGAWARA,前川原,37.723757,140.93385
原町区信田沢,ハラマチクシダザワ,HARAMACHIKU SHIDAZAWA,日照田,37.647532,140.929186
原町区深野,ハラマチクフコウノ,HARAMACHIKU FUKONO,宮前,37.670648,140.930684
原町区馬場,ハラマチクババ,HARAMACHIKU BABA,欠下,37.621938,140.931707
原町区石神,ハラマチクイシガミ,HARAMACHIKU ISHIGAMI,中川原,37.639603,140.930322
原町区大木戸,ハラマチクオオキド,HARAMACHIKU OKIDO,西原,37.633294,140.931433
原町区押釜,ハラマチクオシガマ,HARAMACHIKU OSHIGAMA,高田,37.629004,140.929883
小高区金谷,オダカクカナヤ,ODAKAKU KANAYA,若林,37.550146,140.936442
原町区大木戸,ハラマチクオオキド,HARAMACHIKU OKIDO,北西原,37.636241,140.93081
鹿島区浮田,カシマクウキタ,KASHIMAKU UKITA,野中,37.718952,140.932073
鹿島区小池,カシマクコイケ,KASHIMAKU KOIKE,小草,37.697454,140.933747
原町区上太田,ハラマチクカミオオタ,HARAMACHIKU KAMIOTA,石積,37.602868,140.935265
原町区馬場,ハラマチクババ,HARAMACHIKU BABA,下荒井,37.620407,140.932058
小高区川房,オダカクカワブサ,ODAKAKU KAWABUSA,四ツ栗,37.534873,140.939449
原町区深野,ハラマチクフコウノ,HARAMACHIKU FUKONO,中川原,37.666812,140.931176
鹿島区浮田,カシマクウキタ,KASHIMAKU UKITA,車川,37.72341,140.929932
原町区信田沢,ハラマチクシダザワ,HARAMACHIKU SHIDAZAWA,原田,37.654927,140.93096
原町区石神,ハラマチクイシガミ,HARAMACHIKU ISHIGAMI,北畑,37.643054,140.931705
原町区矢川原,ハラマチクヤガワラ,HARAMACHIKU YAGAWARA,隠椴,37.599615,140.933114
原町区信田沢,ハラマチクシダザワ,HARAMACHIKU SHIDAZAWA,欅,37.655353,140.932275
原町区深野,ハラマチクフコウノ,HARAMACHIKU FUKONO,下欠,37.660001,140.933486
原町区押釜,ハラマチクオシガマ,HARAMACHIKU OSHIGAMA,道久,37.63,140.933418
原町区長野,ハラマチクナガノ,HARAMACHIKU NAGANO,上田,37.653771,140.935005
原町区北長野,ハラマチクキタナガノ,HARAMACHIKU KITANAGANO,南原田,37.65548,140.937709
原町区深野,ハラマチクフコウノ,HARAMACHIKU FUKONO,荒屋舗,37.667568,140.934298
原町区北長野,ハラマチクキタナガノ,HARAMACHIKU KITANAGANO,北原田,37.658931,140.938015
原町区深野,ハラマチクフコウノ,HARAMACHIKU FUKONO,原田,37.661607,140.936513
原町区深野,ハラマチクフコウノ,HARAMACHIKU FUKONO,舘,37.673098,140.935372
原町区長野,ハラマチクナガノ,HARAMACHIKU NAGANO,洞,37.64667,140.933902
原町区石神,ハラマチクイシガミ,HARAMACHIKU ISHIGAMI,坂下,37.64414,140.937211
原町区大木戸,ハラマチクオオキド,HARAMACHIKU OKIDO,南東方,37.622835,140.939935
原町区深野,ハラマチクフコウノ,HARAMACHIKU FUKONO,的場,37.664136,140.934924
原町区大木戸,ハラマチクオオキド,HARAMACHIKU OKIDO,南原,37.615735,140.940455
原町区上北高平,ハラマチクカミキタタカヒラ,HARAMACHIKU KAMIKITATAKAHIRA,入道迫,37.679378,140.938932
鹿島区小池,カシマクコイケ,KASHIMAKU KOIKE,善徳,37.696852,140.938209
原町区大木戸,ハラマチクオオキド,HARAMACHIKU OKIDO,大切橋,37.631929,140.936268
原町区大木戸,ハラマチクオオキド,HARAMACHIKU OKIDO,八方内,37.635902,140.937901
小高区小谷,オダカクオヤ,ODAKAKU OYA,摩辰,37.565292,140.943502
原町区矢川原,ハラマチクヤガワラ,HARAMACHIKU YAGAWARA,西内,37.600948,140.940755
原町区大木戸,ハラマチクオオキド,HARAMACHIKU OKIDO,大茶園,37.630279,140.937076
原町区大木戸,ハラマチクオオキド,HARAMACHIKU OKIDO,仏場,37.628541,140.937284
鹿島区浮田,カシマクウキタ,KASHIMAKU UKITA,浮田,37.715897,140.938129
原町区牛越,ハラマチクウシゴエ,HARAMACHIKU USHIGOE,辻内,37.637841,140.937365
鹿島区小池,カシマクコイケ,KASHIMAKU KOIKE,新山,37.701389,140.940662
原町区牛越,ハラマチクウシゴエ,HARAMACHIKU USHIGOE,遠藤,37.637376,140.938694
原町区大木戸,ハラマチクオオキド,HARAMACHIKU OKIDO,松島,37.625717,140.942552
原町区長野,ハラマチクナガノ,HARAMACHIKU NAGANO,南原,37.6519,140.941595
原町区深野,ハラマチクフコウノ,HARAMACHIKU FUKONO,百目木,37.670651,140.940515
原町区牛越,ハラマチクウシゴエ,HARAMACHIKU USHIGOE,搗屋前,37.640531,140.938992
原町区大木戸,ハラマチクオオキド,HARAMACHIKU OKIDO,東方,37.629296,140.941606
原町区大木戸,ハラマチクオオキド,HARAMACHIKU OKIDO,金場,37.638376,140.943945
原町区牛越,ハラマチクウシゴエ,HARAMACHIKU USHIGOE,東北,37.641608,140.942625
原町区深野,ハラマチクフコウノ,HARAMACHIKU FUKONO,幸根房内,37.664266,140.93925
鹿島区寺内,カシマクテラウチ,KASHIMAKU TERAUCHI,菖蒲苅場,37.695145,140.945089
原町区長野,ハラマチクナガノ,HARAMACHIKU NAGANO,杢正内,37.654416,140.942768
原町区上太田,ハラマチクカミオオタ,HARAMACHIKU KAMIOTA,堰場,37.603749,140.944587
原町区深野,ハラマチクフコウノ,HARAMACHIKU FUKONO,江迎,37.664198,140.940107
原町区上北高平,ハラマチクカミキタタカヒラ,HARAMACHIKU KAMIKITATAKAHIRA,西高松,37.668722,140.948194
原町区牛越,ハラマチクウシゴエ,HARAMACHIKU USHIGOE,鎌田,37.64712,140.946177
原町区牛越,ハラマチクウシゴエ,HARAMACHIKU USHIGOE,糀屋,37.64037,140.942212
原町区北新田,ハラマチクキタニイダ,HARAMACHIKU KITANIIDA,横上,37.663287,140.943318
鹿島区小池,カシマクコイケ,KASHIMAKU KOIKE,長沼,37.69642,140.943412
原町区上北高平,ハラマチクカミキタタカヒラ,HARAMACHIKU KAMIKITATAKAHIRA,高松,37.66373,140.952038
原町区長野,ハラマチクナガノ,HARAMACHIKU NAGANO,広畑,37.655925,140.944305
原町区牛越,ハラマチクウシゴエ,HARAMACHIKU USHIGOE,高田,37.641421,140.94518
原町区北新田,ハラマチクキタニイダ,HARAMACHIKU KITANIIDA,川原田,37.658233,140.94591
小高区南鳩原,オダカクミナミハツパラ,ODAKAKU MINAMIHATSUPARA,台畑,37.570423,140.95134
原町区北新田,ハラマチクキタニイダ,HARAMACHIKU KITANIIDA,信田,37.659531,140.946471
原町区矢川原,ハラマチクヤガワラ,HARAMACHIKU YAGAWARA,堂ノ前,37.600379,140.945669
鹿島区寺内,カシマクテラウチ,KASHIMAKU TERAUCHI,権現沢,37.693145,140.952159
鹿島区牛河内,カシマクウシコウチ,KASHIMAKU USHIKOCHI,与手五郎内,37.704723,140.948329
鹿島区横手,カシマクヨコテ,KASHIMAKU YOKOTE,西原田,37.725085,140.950583
鹿島区寺内,カシマクテラウチ,KASHIMAKU TERAUCHI,八幡林,37.696579,140.951724
小高区北鳩原,オダカクキタハツパラ,ODAKAKU KITAHATSUPARA,椴木下,37.582013,140.954988
原町区北長野,ハラマチクキタナガノ,HARAMACHIKU KITANAGANO,塚腰,37.654532,140.947043
原町区牛越,ハラマチクウシゴエ,HARAMACHIKU USHIGOE,下川原,37.643549,140.945963
鹿島区岡和田,カシマクオカワダ,KASHIMAKU OKAWADA,沢田,37.710284,140.948717
鹿島区寺内,カシマクテラウチ,KASHIMAKU TERAUCHI,中町,37.700244,140.953065
原町区牛越,ハラマチクウシゴエ,HARAMACHIKU USHIGOE,舘下,37.644561,140.944481
原町区北長野,ハラマチクキタナガノ,HARAMACHIKU KITANAGANO,山居前,37.653656,140.949768
原町区北新田,ハラマチクキタニイダ,HARAMACHIKU KITANIIDA,前沢目,37.656274,140.957247
原町区北新田,ハラマチクキタニイダ,HARAMACHIKU KITANIIDA,五反田,37.654707,140.94831
原町区上太田,ハラマチクカミオオタ,HARAMACHIKU KAMIOTA,後田,37.610879,140.954099
鹿島区永渡,カシマクナガワタリ,KASHIMAKU NAGAWATARI,西永渡,37.73392,140.95083
原町区上太田,ハラマチクカミオオタ,HARAMACHIKU KAMIOTA,北中平,37.60431,140.949558
原町区上太田,ハラマチクカミオオタ,HARAMACHIKU KAMIOTA,坂下,37.605467,140.949905
鹿島区寺内,カシマクテラウチ,KASHIMAKU TERAUCHI,北町,37.699867,140.950649
鹿島区永渡,カシマクナガワタリ,KASHIMAKU NAGAWATARI,東永渡,37.73423,140.953877
原町区北新田,ハラマチクキタニイダ,HARAMACHIKU KITANIIDA,東畑,37.661515,140.952351
小高区北鳩原,オダカクキタハツパラ,ODAKAKU KITAHATSUPARA,仲内,37.582249,140.950503
小高区飯崎,オダカクハンサキ,ODAKAKU HANSAKI,北原,37.557068,140.959132
原町区北新田,ハラマチクキタニイダ,HARAMACHIKU KITANIIDA,中川原,37.660969,140.951393
鹿島区寺内,カシマクテラウチ,KASHIMAKU TERAUCHI,三里,37.704162,140.953459
小高区飯崎,オダカクハンサキ,ODAKAKU HANSAKI,南原,37.553045,140.957248
原町区上太田,ハラマチクカミオオタ,HARAMACHIKU KAMIOTA,陣ケ崎,37.608904,140.947055
原町区北新田,ハラマチクキタニイダ,HARAMACHIKU KITANIIDA,西内,37.654807,140.953061
鹿島区塩崎,カシマクシオノサキ,KASHIMAKU SHIONOSAKI,蛇沼,37.682285,140.952844
原町区上太田,ハラマチクカミオオタ,HARAMACHIKU KAMIOTA,前田,37.608524,140.95441
原町区上太田,ハラマチクカミオオタ,HARAMACHIKU KAMIOTA,上ノ内,37.606696,140.954122
鹿島区寺内,カシマクテラウチ,KASHIMAKU TERAUCHI,塚合,37.701558,140.952811
小高区南鳩原,オダカクミナミハツパラ,ODAKAKU MINAMIHATSUPARA,南迫,37.568871,140.953582
鹿島区寺内,カシマクテラウチ,KASHIMAKU TERAUCHI,大谷地,37.695479,140.955049
鹿島区寺内,カシマクテラウチ,KASHIMAKU TERAUCHI,狐畑,37.705056,140.953793
鹿島区寺内,カシマクテラウチ,KASHIMAKU TERAUCHI,佛方,37.701904,140.954125
原町区北新田,ハラマチクキタニイダ,HARAMACHIKU KITANIIDA,本町,37.651852,140.95681
鹿島区南柚木,カシマクミナミユノキ,KASHIMAKU MINAMIYUNOKI,宮前,37.731493,140.960323
鹿島区南柚木,カシマクミナミユノキ,KASHIMAKU MINAMIYUNOKI,南西谷地,37.735032,140.95678
鹿島区横手,カシマクヨコテ,KASHIMAKU YOKOTE,北原田,37.722592,140.954222
原町区上北高平,ハラマチクカミキタタカヒラ,HARAMACHIKU KAMIKITATAKAHIRA,東高松,37.666482,140.959755
鹿島区南柚木,カシマクミナミユノキ,KASHIMAKU MINAMIYUNOKI,相馬清水,37.739146,140.960263
鹿島区横手,カシマクヨコテ,KASHIMAKU YOKOTE,北ノ内,37.719909,140.955846
原町区北新田,ハラマチクキタニイダ,HARAMACHIKU KITANIIDA,諏訪,37.659229,140.955668
原町区上太田,ハラマチクカミオオタ,HARAMACHIKU KAMIOTA,新橋,37.612151,140.955715
原町区矢川原,ハラマチクヤガワラ,HARAMACHIKU YAGAWARA,下川原,37.602556,140.95795
鹿島区寺内,カシマクテラウチ,KASHIMAKU TERAUCHI,落合,37.70496,140.958352
鹿島区寺内,カシマクテラウチ,KASHIMAKU TERAUCHI,清水,37.700743,140.955531
小高区小谷,オダカクオヤ,ODAKAKU OYA,道摩塚,37.569089,140.957035
原町区矢川原,ハラマチクヤガワラ,HARAMACHIKU YAGAWARA,広田,37.600598,140.956065
鹿島区寺内,カシマクテラウチ,KASHIMAKU TERAUCHI,尾張屋敷,37.702678,140.955687
小高区神山,オダカクカミヤマ,ODAKAKU KAMIYAMA,長畑,37.526452,140.96874
原町区上太田,ハラマチクカミオオタ,HARAMACHIKU KAMIOTA,中島,37.607113,140.958707
小高区小屋木,オダカクコヤギ,ODAKAKU KOYAGI,幅下,37.54949,140.956117
原町区中太田,ハラマチクナカオオタ,HARAMACHIKU NAKAOTA,天狗田,37.61808,140.95723
原町区北新田,ハラマチクキタニイダ,HARAMACHIKU KITANIIDA,広田,37.658314,140.959482
原町区上太田,ハラマチクカミオオタ,HARAMACHIKU KAMIOTA,内堀子,37.60859,140.958471
小高区飯崎,オダカクハンサキ,ODAKAKU HANSAKI,西原,37.558204,140.957203
鹿島区寺内,カシマクテラウチ,KASHIMAKU TERAUCHI,的場,37.702312,140.956891
鹿島区寺内,カシマクテラウチ,KASHIMAKU TERAUCHI,歓頂木,37.703415,140.955824
鹿島区寺内,カシマクテラウチ,KASHIMAKU TERAUCHI,西舘,37.698776,140.959243
小高区小屋木,オダカクコヤギ,ODAKAKU KOYAGI,上阿弥,37.548284,140.959941
小高区飯崎,オダカクハンサキ,ODAKAKU HANSAKI,大畑,37.559398,140.960467
鹿島区寺内,カシマクテラウチ,KASHIMAKU TERAUCHI,迎田,37.698085,140.962061
原町区中太田,ハラマチクナカオオタ,HARAMACHIKU NAKAOTA,西内,37.613584,140.958658
鹿島区寺内,カシマクテラウチ,KASHIMAKU TERAUCHI,舘内,37.700492,140.96052
原町区中太田,ハラマチクナカオオタ,HARAMACHIKU NAKAOTA,後迫,37.618993,140.959779
原町区鶴谷,ハラマチクツルガイ,HARAMACHIKU TSURUGAI,割羽迫,37.592029,140.959109
鹿島区塩崎,カシマクシオノサキ,KASHIMAKU SHIONOSAKI,別当迫,37.687985,140.963075
原町区矢川原,ハラマチクヤガワラ,HARAMACHIKU YAGAWARA,前迫,37.59836,140.964116
鹿島区横手,カシマクヨコテ,KASHIMAKU YOKOTE,八斗蒔,37.714891,140.959942
原町区上太田,ハラマチクカミオオタ,HARAMACHIKU KAMIOTA,町川原,37.605332,140.959691
小高区小谷,オダカクオヤ,ODAKAKU OYA,山大道,37.567958,140.957261
原町区上高平,ハラマチクカミタカヒラ,HARAMACHIKU KAMITAKAHIRA,中里,37.652395,140.962457
小高区小谷,オダカクオヤ,ODAKAKU OYA,官上,37.570429,140.961391
小高区小屋木,オダカクコヤギ,ODAKAKU KOYAGI,桜関,37.548362,140.961779
鹿島区寺内,カシマクテラウチ,KASHIMAKU TERAUCHI,東前田,37.699648,140.960876
原町区牛来,ハラマチクゴライ,HARAMACHIKU GORAI,出口,37.621665,140.963674
原町区中太田,ハラマチクナカオオタ,HARAMACHIKU NAKAOTA,堀内,37.606807,140.964271
原町区矢川原,ハラマチクヤガワラ,HARAMACHIKU YAGAWARA,堂ノ内,37.603249,140.961846
鹿島区横手,カシマクヨコテ,KASHIMAKU YOKOTE,町田,37.711039,140.962047
鹿島区横手,カシマクヨコテ,KASHIMAKU YOKOTE,柳町,37.712967,140.961498
原町区北新田,ハラマチクキタニイダ,HARAMACHIKU KITANIIDA,一ノ坪,37.6554,140.961671
原町区中太田,ハラマチクナカオオタ,HARAMACHIKU NAKAOTA,八重草,37.610833,140.962187
小高区小屋木,オダカクコヤギ,ODAKAKU KOYAGI,市阿弥,37.546268,140.963631
小高区飯崎,オダカクハンサキ,ODAKAKU HANSAKI,迎山,37.563818,140.963427
鹿島区塩崎,カシマクシオノサキ,KASHIMAKU SHIONOSAKI,房田,37.678883,140.964677
原町区上北高平,ハラマチクカミキタタカヒラ,HARAMACHIKU KAMIKITATAKAHIRA,上北沢,37.66614,140.965349
原町区上北高平,ハラマチクカミキタタカヒラ,HARAMACHIKU KAMIKITATAKAHIRA,植松,37.658174,140.963479
小高区小屋木,オダカクコヤギ,ODAKAKU KOYAGI,幅下前,37.551434,140.963348
原町区鶴谷,ハラマチクツルガイ,HARAMACHIKU TSURUGAI,南迫,37.590182,140.965535
小高区小屋木,オダカクコヤギ,ODAKAKU KOYAGI,籠田,37.550592,140.967433
小高区飯崎,オダカクハンサキ,ODAKAKU HANSAKI,根崎,37.560711,140.966106
小高区上根沢,オダカクウワネザワ,ODAKAKU UWANEZAWA,糟内,37.545002,140.964745
鹿島区南柚木,カシマクミナミユノキ,KASHIMAKU MINAMIYUNOKI,二反田,37.733568,140.964292
鹿島区鹿島,カシマクカシマ,KASHIMAKU KASHIMA,サヤノ前,37.707832,140.963964
原町区矢川原,ハラマチクヤガワラ,HARAMACHIKU YAGAWARA,川原内,37.602914,140.965665
鹿島区鹿島,カシマクカシマ,KASHIMAKU KASHIMA,石川内,37.706797,140.964766
原町区中太田,ハラマチクナカオオタ,HARAMACHIKU NAKAOTA,別所,37.609464,140.969061
鹿島区鹿島,カシマクカシマ,KASHIMAKU KASHIMA,北畑,37.705513,140.966639
原町区上高平,ハラマチクカミタカヒラ,HARAMACHIKU KAMITAKAHIRA,川原,37.64746,140.96808
原町区上高平,ハラマチクカミタカヒラ,HARAMACHIKU KAMITAKAHIRA,柳町,37.651895,140.968597
原町区益田,ハラマチクマスダ,HARAMACHIKU MASUDA,雫川,37.604799,140.967673
鹿島区塩崎,カシマクシオノサキ,KASHIMAKU SHIONOSAKI,大月平,37.677896,140.965347
小高区飯崎,オダカクハンサキ,ODAKAKU HANSAKI,原,37.556157,140.966422
小高区片草,オダカクカタクサ,ODAKAKU KATAKUSA,権現段,37.580433,140.971866
鹿島区江垂,カシマクエタリ,KASHIMAKU ETARI,堂前,37.696572,140.966785
原町区上北高平,ハラマチクカミキタタカヒラ,HARAMACHIKU KAMIKITATAKAHIRA,比丘尼沢,37.669092,140.967902
鹿島区鹿島,カシマクカシマ,KASHIMAKU KASHIMA,町,37.702583,140.96789
鹿島区鹿島,カシマクカシマ,KASHIMAKU KASHIMA,北田,37.708036,140.967199
原町区中太田,ハラマチクナカオオタ,HARAMACHIKU NAKAOTA,舘腰,37.611005,140.967571
鹿島区塩崎,カシマクシオノサキ,KASHIMAKU SHIONOSAKI,西ノ入,37.68185,140.967823
原町区中太田,ハラマチクナカオオタ,HARAMACHIKU NAKAOTA,洞,37.615066,140.967792
鹿島区南柚木,カシマクミナミユノキ,KASHIMAKU MINAMIYUNOKI,仲板,37.734283,140.97023
鹿島区鹿島,カシマクカシマ,KASHIMAKU KASHIMA,大河内,37.699927,140.96756
原町区牛来,ハラマチクゴライ,HARAMACHIKU GORAI,釈迦前,37.6236,140.969384
小高区飯崎,オダカクハンサキ,ODAKAKU HANSAKI,杉平,37.556851,140.97181
小高区飯崎,オダカクハンサキ,ODAKAKU HANSAKI,南台,37.559198,140.96918
鹿島区南柚木,カシマクミナミユノキ,KASHIMAKU MINAMIYUNOKI,堤田,37.739817,140.966535
原町区益田,ハラマチクマスダ,HARAMACHIKU MASUDA,塩釜,37.605597,140.970166
鹿島区鹿島,カシマクカシマ,KASHIMAKU KASHIMA,御前ノ内,37.70178,140.970098
小高区小谷,オダカクオヤ,ODAKAKU OYA,鍛冶前,37.566898,140.96911
小高区飯崎,オダカクハンサキ,ODAKAKU HANSAKI,北台,37.561349,140.970438
原町区上高平,ハラマチクカミタカヒラ,HARAMACHIKU KAMITAKAHIRA,竹下,37.656713,140.971318
鹿島区南屋形,カシマクミナミヤカタ,KASHIMAKU MINAMIYAKATA,前畑,37.715759,140.973059
鹿島区鹿島,カシマクカシマ,KASHIMAKU KASHIMA,一本榎,37.704308,140.970731
鹿島区江垂,カシマクエタリ,KASHIMAKU ETARI,中舘,37.691093,140.971673
小高区神山,オダカクカミヤマ,ODAKAKU KAMIYAMA,池ノ沢,37.523321,140.967657
鹿島区鹿島,カシマクカシマ,KASHIMAKU KASHIMA,中町,37.702575,140.97271
小高区飯崎,オダカクハンサキ,ODAKAKU HANSAKI,歓請内,37.559695,140.971824
原町区牛来,ハラマチクゴライ,HARAMACHIKU GORAI,久保,37.616236,140.969658
原町区下太田,ハラマチクシモオオタ,HARAMACHIKU SHIMOOTA,松崎,37.610908,140.970133
原町区益田,ハラマチクマスダ,HARAMACHIKU MASUDA,仲山,37.60342,140.971681
原町区鶴谷,ハラマチクツルガイ,HARAMACHIKU TSURUGAI,長峯,37.588389,140.973384
原町区上高平,ハラマチクカミタカヒラ,HARAMACHIKU KAMITAKAHIRA,西殿前,37.647033,140.972706
小高区片草,オダカクカタクサ,ODAKAKU KATAKUSA,一里段,37.573397,140.972842
原町区牛来,ハラマチクゴライ,HARAMACHIKU GORAI,石橋,37.622521,140.972642
小高区飯崎,オダカクハンサキ,ODAKAKU HANSAKI,西根田,37.561713,140.972146
鹿島区川子,カシマクカワゴ,KASHIMAKU KAWAGO,三斗蒔,37.670952,140.974976
原町区益田,ハラマチクマスダ,HARAMACHIKU MASUDA,久保田,37.6069,140.974231
原町区下太田,ハラマチクシモオオタ,HARAMACHIKU SHIMOOTA,中ノ内,37.609755,140.972299
原町区下太田,ハラマチクシモオオタ,HARAMACHIKU SHIMOOTA,深町,37.612971,140.974628
鹿島区鹿島,カシマクカシマ,KASHIMAKU KASHIMA,北千倉,37.700869,140.972648
原町区牛来,ハラマチクゴライ,HARAMACHIKU GORAI,島崎,37.614366,140.972783
小高区小屋木,オダカクコヤギ,ODAKAKU KOYAGI,宮前,37.549036,140.97275
原町区上北高平,ハラマチクカミキタタカヒラ,HARAMACHIKU KAMIKITATAKAHIRA,京塚,37.658701,140.975143
鹿島区南柚木,カシマクミナミユノキ,KASHIMAKU MINAMIYUNOKI,矢ノ目川添,37.736077,140.977259
原町区上北高平,ハラマチクカミキタタカヒラ,HARAMACHIKU KAMIKITATAKAHIRA,北沢,37.662671,140.970371
鹿島区鹿島,カシマクカシマ,KASHIMAKU KASHIMA,下舘,37.699435,140.973865
原町区牛来,ハラマチクゴライ,HARAMACHIKU GORAI,南谷地,37.617931,140.974436
小高区小屋木,オダカクコヤギ,ODAKAKU KOYAGI,前畑,37.549887,140.97612
原町区牛来,ハラマチクゴライ,HARAMACHIKU GORAI,大塚,37.626129,140.976385
小高区上根沢,オダカクウワネザワ,ODAKAKU UWANEZAWA,迎平,37.543701,140.977881
原町区上高平,ハラマチクカミタカヒラ,HARAMACHIKU KAMITAKAHIRA,高田,37.647152,140.975562
原町区鶴谷,ハラマチクツルガイ,HARAMACHIKU TSURUGAI,八斗蒔,37.592232,140.975132
原町区上北高平,ハラマチクカミキタタカヒラ,HARAMACHIKU KAMIKITATAKAHIRA,西谷地,37.64923,140.97361
小高区片草,オダカクカタクサ,ODAKAKU KATAKUSA,日光塚,37.575776,140.976206
原町区下太田,ハラマチクシモオオタ,HARAMACHIKU SHIMOOTA,藤沼,37.613298,140.976914
原町区益田,ハラマチクマスダ,HARAMACHIKU MASUDA,寺ノ前,37.602583,140.976469
鹿島区鹿島,カシマクカシマ,KASHIMAKU KASHIMA,広町,37.70075,140.976275
鹿島区江垂,カシマクエタリ,KASHIMAKU ETARI,北船橋,37.691837,140.976824
原町区上北高平,ハラマチクカミキタタカヒラ,HARAMACHIKU KAMIKITATAKAHIRA,天神谷地,37.650598,140.977517
原町区牛来,ハラマチクゴライ,HARAMACHIKU GORAI,西谷地,37.622929,140.975486
原町区上北高平,ハラマチクカミキタタカヒラ,HARAMACHIKU KAMIKITATAKAHIRA,中谷地,37.65689,140.97824
原町区鶴谷,ハラマチクツルガイ,HARAMACHIKU TSURUGAI,後迫,37.596905,140.980668
鹿島区南屋形,カシマクミナミヤカタ,KASHIMAKU MINAMIYAKATA,松本,37.713943,140.978077
原町区益田,ハラマチクマスダ,HARAMACHIKU MASUDA,栢木下,37.607219,140.978953
原町区上高平,ハラマチクカミタカヒラ,HARAMACHIKU KAMITAKAHIRA,沢田,37.647055,140.979667
鹿島区北海老,カシマクキタエビ,KASHIMAKU KITAEBI,藤金沢,37.716951,140.978752
原町区牛来,ハラマチクゴライ,HARAMACHIKU GORAI,東谷地,37.62253,140.977876
小高区吉名,オダカクヨシナ,ODAKAKU YOSHINA,中村平,37.556157,140.979766
小高区上浦,オダカクカミウラ,ODAKAKU KAMIURA,中村迫,37.521222,140.989775
小高区上浦,オダカクカミウラ,ODAKAKU KAMIURA,宮田,37.522847,140.981941
鹿島区小島田,カシマクオシマダ,KASHIMAKU OSHIMADA,立谷,37.691001,140.981073
原町区下太田,ハラマチクシモオオタ,HARAMACHIKU SHIMOOTA,榎町,37.609556,140.983011
原町区北原,ハラマチクキタハラ,HARAMACHIKU KITAHARA,大塚,37.62709,140.981715
原町区上北高平,ハラマチクカミキタタカヒラ,HARAMACHIKU KAMIKITATAKAHIRA,曲田,37.659177,140.982714
原町区下太田,ハラマチクシモオオタ,HARAMACHIKU SHIMOOTA,小原,37.618233,140.980516
小高区小高,オダカクオダカ,ODAKAKU ODAKA,上広畑,37.5729,140.981961
小高区吉名,オダカクヨシナ,ODAKAKU YOSHINA,玉ノ木下,37.560197,140.982333
原町区北原,ハラマチクキタハラ,HARAMACHIKU KITAHARA,前山,37.624566,140.982025
鹿島区小島田,カシマクオシマダ,KASHIMAKU OSHIMADA,原畑,37.686962,140.980917
鹿島区川子,カシマクカワゴ,KASHIMAKU KAWAGO,滝沢,37.672649,140.983684
鹿島区南屋形,カシマクミナミヤカタ,KASHIMAKU MINAMIYAKATA,山畑,37.713909,140.981426
原町区金沢,ハラマチクカネザワ,HARAMACHIKU KANEZAWA,堤上,37.666135,140.977279
原町区下北高平,ハラマチクシモキタタカヒラ,HARAMACHIKU SHIMOKITATAKAHIRA,杉内,37.652112,140.983755
鹿島区小島田,カシマクオシマダ,KASHIMAKU OSHIMADA,大原,37.688538,140.983265
鹿島区北右田,カシマクキタミギタ,KASHIMAKU KITAMIGITA,百目木,37.700074,140.982835
鹿島区北右田,カシマクキタミギタ,KASHIMAKU KITAMIGITA,手戸田,37.704067,140.982678
鹿島区北屋形,カシマクキタヤカタ,KASHIMAKU KITAYAKATA,田野入,37.721826,140.985878
鹿島区川子,カシマクカワゴ,KASHIMAKU KAWAGO,深沢,37.680114,140.984953
鹿島区北右田,カシマクキタミギタ,KASHIMAKU KITAMIGITA,成就坊,37.704139,140.983253
鹿島区北右田,カシマクキタミギタ,KASHIMAKU KITAMIGITA,三角,37.705315,140.983035
原町区下北高平,ハラマチクシモキタタカヒラ,HARAMACHIKU SHIMOKITATAKAHIRA,北中谷地,37.65742,140.983298
原町区下北高平,ハラマチクシモキタタカヒラ,HARAMACHIKU SHIMOKITATAKAHIRA,西沢目,37.651028,140.982847
原町区北原,ハラマチクキタハラ,HARAMACHIKU KITAHARA,平,37.624867,140.985529
小高区小高,オダカクオダカ,ODAKAKU ODAKA,上入迫,37.57139,140.986976
原町区下高平,ハラマチクシモタカヒラ,HARAMACHIKU SHIMOTAKAHIRA,谷中,37.649609,140.984858
原町区益田,ハラマチクマスダ,HARAMACHIKU MASUDA,道坂,37.605882,140.984162
鹿島区大内,カシマクオオウチ,KASHIMAKU OUCHI,松下,37.681344,140.985843
原町区下高平,ハラマチクシモタカヒラ,HARAMACHIKU SHIMOTAKAHIRA,御屋敷,37.647486,140.985755
原町区下北高平,ハラマチクシモキタタカヒラ,HARAMACHIKU SHIMOKITATAKAHIRA,堂下,37.660052,140.985741
原町区下太田,ハラマチクシモオオタ,HARAMACHIKU SHIMOOTA,川内迫,37.61668,140.984766
鹿島区北海老,カシマクキタエビ,KASHIMAKU KITAEBI,大畑,37.705888,140.985664
鹿島区北右田,カシマクキタミギタ,KASHIMAKU KITAMIGITA,薬師堂,37.698068,140.985121
鹿島区北右田,カシマクキタミギタ,KASHIMAKU KITAMIGITA,柳町,37.698758,140.985227
鹿島区北右田,カシマクキタミギタ,KASHIMAKU KITAMIGITA,高田,37.70438,140.984773
原町区益田,ハラマチクマスダ,HARAMACHIKU MASUDA,姫作,37.604118,140.984885
原町区下太田,ハラマチクシモオオタ,HARAMACHIKU SHIMOOTA,塚田,37.610082,140.985955
原町区高,ハラマチクタカ,HARAMACHIKU TAKA,大豆柄内,37.603851,140.986663
小高区耳谷,オダカクミミガイ,ODAKAKU MIMIGAI,根本,37.532265,140.988278
原町区小木迫,,,薄畑,37.584255,140.984128
原町区金沢,ハラマチクカネザワ,HARAMACHIKU KANEZAWA,物見山,37.668113,140.987895
原町区高,ハラマチクタカ,HARAMACHIKU TAKA,古内,37.601916,140.990211
原町区鶴谷,ハラマチクツルガイ,HARAMACHIKU TSURUGAI,五治郎内,37.592071,140.986974
小高区泉沢,オダカクイズミサワ,ODAKAKU IZUMISAWA,薬師前,37.543761,140.990827
原町区下高平,ハラマチクシモタカヒラ,HARAMACHIKU SHIMOTAKAHIRA,如来堂,37.647093,140.986958
原町区金沢,ハラマチクカネザワ,HARAMACHIKU KANEZAWA,堤下,37.664138,140.988471
原町区高,ハラマチクタカ,HARAMACHIKU TAKA,金井神,37.604677,140.988563
原町区小木迫,,,向畑,37.579837,140.9921
原町区金沢,ハラマチクカネザワ,HARAMACHIKU KANEZAWA,追合,37.669362,140.993517
原町区下北高平,ハラマチクシモキタタカヒラ,HARAMACHIKU SHIMOKITATAKAHIRA,古舘,37.653443,140.988881
小高区小高,オダカクオダカ,ODAKAKU ODAKA,城下,37.568093,140.988764
原町区下北高平,ハラマチクシモキタタカヒラ,HARAMACHIKU SHIMOKITATAKAHIRA,中谷地,37.654128,140.987101
鹿島区大内,カシマクオオウチ,KASHIMAKU OUCHI,長岡,37.680146,140.98904
鹿島区北海老,カシマクキタエビ,KASHIMAKU KITAEBI,北ノ内,37.704281,140.988616
原町区北原,ハラマチクキタハラ,HARAMACHIKU KITAHARA,赤坂,37.621253,140.99115
原町区下高平,ハラマチクシモタカヒラ,HARAMACHIKU SHIMOTAKAHIRA,川原,37.646505,140.989228
原町区下北高平,ハラマチクシモキタタカヒラ,HARAMACHIKU SHIMOKITATAKAHIRA,北ノ根,37.655564,140.98799
原町区北原,ハラマチクキタハラ,HARAMACHIKU KITAHARA,前谷地,37.624062,140.990657
小高区泉沢,オダカクイズミサワ,ODAKAKU IZUMISAWA,大久,37.547159,140.988895
原町区金沢,ハラマチクカネザワ,HARAMACHIKU KANEZAWA,広平,37.663674,140.990674
鹿島区北海老,カシマクキタエビ,KASHIMAKU KITAEBI,山田,37.710998,140.98822
原町区上渋佐,ハラマチクカミシブサ,HARAMACHIKU KAMISHIBUSA,原田,37.637138,140.992967
原町区北原,ハラマチクキタハラ,HARAMACHIKU KITAHARA,本屋敷,37.627828,140.985322
原町区高,ハラマチクタカ,HARAMACHIKU TAKA,板ノ上,37.600039,140.989815
原町区下北高平,ハラマチクシモキタタカヒラ,HARAMACHIKU SHIMOKITATAKAHIRA,荷渡,37.656484,140.99375
小高区吉名,オダカクヨシナ,ODAKAKU YOSHINA,宮迫,37.559759,140.989297
小高区耳谷,オダカクミミガイ,ODAKAKU MIMIGAI,露ノ内,37.527758,140.995318
原町区下北高平,ハラマチクシモキタタカヒラ,HARAMACHIKU SHIMOKITATAKAHIRA,赤宇津木,37.652346,140.990595
原町区高,ハラマチクタカ,HARAMACHIKU TAKA,竹ノ内,37.60387,140.989962
原町区下北高平,ハラマチクシモキタタカヒラ,HARAMACHIKU SHIMOKITATAKAHIRA,北山,37.659628,140.99022
鹿島区大内,カシマクオオウチ,KASHIMAKU OUCHI,舘下,37.68077,140.993363
鹿島区北右田,カシマクキタミギタ,KASHIMAKU KITAMIGITA,塔場,37.697973,140.99113
鹿島区大内,カシマクオオウチ,KASHIMAKU OUCHI,南舘下,37.679971,140.994647
鹿島区北右田,カシマクキタミギタ,KASHIMAKU KITAMIGITA,八龍町,37.700248,140.99086
原町区北原,ハラマチクキタハラ,HARAMACHIKU KITAHARA,沢目,37.626682,140.991633
原町区高,ハラマチクタカ,HARAMACHIKU TAKA,大久保前,37.596802,140.989476
原町区下高平,ハラマチクシモタカヒラ,HARAMACHIKU SHIMOTAKAHIRA,荒井前,37.649508,140.993535
原町区北原,ハラマチクキタハラ,HARAMACHIKU KITAHARA,中谷地,37.625066,140.991519
鹿島区北海老,カシマクキタエビ,KASHIMAKU KITAEBI,松坂,37.710227,140.990067
原町区萱浜,ハラマチクカイバマ,HARAMACHIKU KAIBAMA,巣掛場,37.631914,140.995436
原町区北原,ハラマチクキタハラ,HARAMACHIKU KITAHARA,巣掛場,37.629622,140.993281
小高区小高,オダカクオダカ,ODAKAKU ODAKA,堂前,37.571022,140.991482
小高区吉名,オダカクヨシナ,ODAKAKU YOSHINA,宮迫台,37.558129,140.991213
鹿島区北右田,カシマクキタミギタ,KASHIMAKU KITAMIGITA,沼田,37.699841,140.992574
鹿島区北右田,カシマクキタミギタ,KASHIMAKU KITAMIGITA,八斗蒔,37.694805,140.993623
原町区高,ハラマチクタカ,HARAMACHIKU TAKA,御稲荷,37.595832,140.994756
原町区上渋佐,ハラマチクカミシブサ,HARAMACHIKU KAMISHIBUSA,原畑,37.639715,140.995756
鹿島区南右田,カシマクミナミミギタ,KASHIMAKU MINAMIMIGITA,中ノ内,37.692877,140.994603
原町区金沢,ハラマチクカネザワ,HARAMACHIKU KANEZAWA,割田,37.665878,140.995778
鹿島区北右田,カシマクキタミギタ,KASHIMAKU KITAMIGITA,桶師屋,37.697915,140.994904
原町区下高平,ハラマチクシモタカヒラ,HARAMACHIKU SHIMOTAKAHIRA,内川原,37.64776,140.993332
小高区小高,オダカクオダカ,ODAKAKU ODAKA,舘,37.569377,140.993676
原町区北原,ハラマチクキタハラ,HARAMACHIKU KITAHARA,東原,37.620015,140.995825
原町区泉,ハラマチクイズミ,HARAMACHIKU IZUMI,広畑,37.650214,140.997757
鹿島区北右田,カシマクキタミギタ,KASHIMAKU KITAMIGITA,竹花,37.696341,140.995013
原町区萱浜,ハラマチクカイバマ,HARAMACHIKU KAIBAMA,六貫山,37.628097,140.999046
原町区高,ハラマチクタカ,HARAMACHIKU TAKA,弥勒堂,37.597459,140.996544
原町区北泉,ハラマチクキタイズミ,HARAMACHIKU KITAIZUMI,堤下,37.659143,140.996819
鹿島区北海老,カシマクキタエビ,KASHIMAKU KITAEBI,六角,37.706661,140.99437
原町区大甕,ハラマチクオオミカ,HARAMACHIKU OMIKA,東迫,37.612278,140.995283
鹿島区北海老,カシマクキタエビ,KASHIMAKU KITAEBI,林崎,37.705233,140.995557
原町区雫,ハラマチクシドケ,HARAMACHIKU SHIDOKE,蛭沢,37.615994,140.998803
原町区北原,ハラマチクキタハラ,HARAMACHIKU KITAHARA,細谷地,37.625969,140.995957
鹿島区北右田,カシマクキタミギタ,KASHIMAKU KITAMIGITA,宮田,37.69556,140.995825
鹿島区大内,カシマクオオウチ,KASHIMAKU OUCHI,宮前,37.679259,140.996146
原町区北原,ハラマチクキタハラ,HARAMACHIKU KITAHARA,岩見堀子,37.624651,140.99799
原町区大甕,ハラマチクオオミカ,HARAMACHIKU OMIKA,戸屋下,37.610951,140.998413
原町区高,ハラマチクタカ,HARAMACHIKU TAKA,芦ノ坪,37.604768,140.997767
小高区大井,オダカクオオイ,ODAKAKU OI,観音前,37.565722,140.998571
鹿島区北海老,カシマクキタエビ,KASHIMAKU KITAEBI,鍛治内,37.706844,140.997253
鹿島区大内,カシマクオオウチ,KASHIMAKU OUCHI,堤下,37.678669,140.997333
鹿島区北右田,カシマクキタミギタ,KASHIMAKU KITAMIGITA,北染師,37.697294,140.998334
原町区江井,ハラマチクエネイ,HARAMACHIKU ENEI,辻内,37.591009,140.998559
原町区雫,ハラマチクシドケ,HARAMACHIKU SHIDOKE,上江,37.61805,140.998367
鹿島区北海老,カシマクキタエビ,KASHIMAKU KITAEBI,堂ケ迫,37.706807,140.998654
原町区金沢,ハラマチクカネザワ,HARAMACHIKU KANEZAWA,荒治郎,37.662462,141.001738
原町区高,ハラマチクタカ,HARAMACHIKU TAKA,北ノ内,37.598514,140.999728
鹿島区北海老,カシマクキタエビ,KASHIMAKU KITAEBI,姥懐,37.721241,140.99857
原町区萱浜,ハラマチクカイバマ,HARAMACHIKU KAIBAMA,原ノ山,37.631725,141.001718
鹿島区北右田,カシマクキタミギタ,KASHIMAKU KITAMIGITA,染師,37.696245,140.998237
小高区水谷,オダカクミズガイ,ODAKAKU MIZUGAI,武州,37.542101,140.999602
原町区金沢,ハラマチクカネザワ,HARAMACHIKU KANEZAWA,谷地中,37.667867,140.999655
小高区大井,オダカクオオイ,ODAKAKU OI,花輪下,37.568362,141.003395
原町区金沢,ハラマチクカネザワ,HARAMACHIKU KANEZAWA,鳥井沢,37.67175,141.001377
鹿島区北右田,カシマクキタミギタ,KASHIMAKU KITAMIGITA,稲荷田,37.696281,140.99993
原町区堤谷,ハラマチクツツミガイ,HARAMACHIKU TSUTSUMIGAI,北境田,37.581725,141.000779
原町区江井,ハラマチクエネイ,HARAMACHIKU ENEI,南迫,37.590089,140.999977
原町区上渋佐,ハラマチクカミシブサ,HARAMACHIKU KAMISHIBUSA,前屋敷,37.637555,140.999745
小高区泉沢,オダカクイズミサワ,ODAKAKU IZUMISAWA,小谷津,37.54327,141.002209
原町区大甕,ハラマチクオオミカ,HARAMACHIKU OMIKA,梨木下,37.610984,141.000652
小高区大井,オダカクオオイ,ODAKAKU OI,深町,37.563263,141.001524
原町区江井,ハラマチクエネイ,HARAMACHIKU ENEI,明知,37.585044,141.003057
小高区岡田,オダカクオカダ,ODAKAKU OKADA,反町,37.560535,141.004015
原町区江井,ハラマチクエネイ,HARAMACHIKU ENEI,東前,37.594652,141.001369
原町区泉,ハラマチクイズミ,HARAMACHIKU IZUMI,町畑,37.647423,141.002544
原町区雫,ハラマチクシドケ,HARAMACHIKU SHIDOKE,塔場下,37.612493,141.001873
原町区上渋佐,ハラマチクカミシブサ,HARAMACHIKU KAMISHIBUSA,南谷地,37.638388,141.002197
原町区江井,ハラマチクエネイ,HARAMACHIKU ENEI,大光内,37.593524,141.000996
原町区萱浜,ハラマチクカイバマ,HARAMACHIKU KAIBAMA,一本松,37.623909,141.004969
原町区萱浜,ハラマチクカイバマ,HARAMACHIKU KAIBAMA,広谷地,37.624865,141.000149
原町区上渋佐,ハラマチクカミシブサ,HARAMACHIKU KAMISHIBUSA,寺崎,37.642738,141.004076
鹿島区北海老,カシマクキタエビ,KASHIMAKU KITAEBI,大森,37.708207,141.002688
原町区萱浜,ハラマチクカイバマ,HARAMACHIKU KAIBAMA,堀子目,37.625885,141.002364
鹿島区北右田,カシマクキタミギタ,KASHIMAKU KITAMIGITA,軍塚,37.697666,141.004404
小高区大井,オダカクオオイ,ODAKAKU OI,田中前,37.566306,141.004396
原町区泉,ハラマチクイズミ,HARAMACHIKU IZUMI,舘腰,37.648582,141.002856
原町区雫,ハラマチクシドケ,HARAMACHIKU SHIDOKE,南大江下,37.616324,141.0022
原町区江井,ハラマチクエネイ,HARAMACHIKU ENEI,仁坂,37.588038,141.003371
鹿島区烏崎,カシマクカラスザキ,KASHIMAKU KARASUZAKI,鳥居作,37.675952,141.004529
原町区上渋佐,ハラマチクカミシブサ,HARAMACHIKU KAMISHIBUSA,北谷地,37.635467,140.998632
原町区雫,ハラマチクシドケ,HARAMACHIKU SHIDOKE,福田,37.616532,141.004475
原町区北泉,ハラマチクキタイズミ,HARAMACHIKU KITAIZUMI,浦頭,37.66003,141.003269
小高区蛯沢,オダカクエビサワ,ODAKAKU EBISAWA,藤沼,37.533536,141.004661
小高区大井,オダカクオオイ,ODAKAKU OI,宮前,37.573129,141.003229
小高区岡田,オダカクオカダ,ODAKAKU OKADA,塩行,37.555881,141.003832
鹿島区北海老,カシマクキタエビ,KASHIMAKU KITAEBI,釜舟戸西,37.718242,141.004544
原町区江井,ハラマチクエネイ,HARAMACHIKU ENEI,大代,37.589779,141.004256
鹿島区南海老,カシマクミナミエビ,KASHIMAKU MINAMIEBI,西畑,37.705844,141.004392
小高区福岡,オダカクフクオカ,ODAKAKU FUKUOKA,有山,37.552683,141.005531
小高区岡田,オダカクオカダ,ODAKAKU OKADA,仲川原田,37.560846,141.008178
原町区大甕,ハラマチクオオミカ,HARAMACHIKU OMIKA,舘,37.606203,141.004688
原町区江井,ハラマチクエネイ,HARAMACHIKU ENEI,下沼,37.591784,141.00418
小高区大井,オダカクオオイ,ODAKAKU OI,白幡前,37.571061,141.005827
原町区雫,ハラマチクシドケ,HARAMACHIKU SHIDOKE,聖下,37.612775,141.008249
原町区泉,ハラマチクイズミ,HARAMACHIKU IZUMI,山辺,37.654085,141.004361
原町区萱浜,ハラマチクカイバマ,HARAMACHIKU KAIBAMA,北才ノ上,37.624017,141.010636
原町区大甕,ハラマチクオオミカ,HARAMACHIKU OMIKA,鶴蒔,37.609424,141.007771
原町区泉,ハラマチクイズミ,HARAMACHIKU IZUMI,塚越,37.649537,141.004975
原町区泉,ハラマチクイズミ,HARAMACHIKU IZUMI,町池,37.652785,141.007018
鹿島区北海老,カシマクキタエビ,KASHIMAKU KITAEBI,釜舟戸北,37.720988,141.00487
小高区下浦,オダカクシモウラ,ODAKAKU SHIMORA,西ノ内,37.518385,141.006414
原町区下江井,ハラマチクシモエネイ,HARAMACHIKU SHIMOENEI,小谷津,37.585978,141.006901
原町区泉,ハラマチクイズミ,HARAMACHIKU IZUMI,前向,37.645004,141.00876
鹿島区南海老,カシマクミナミエビ,KASHIMAKU MINAMIEBI,大森,37.707634,141.004772
原町区金沢,ハラマチクカネザワ,HARAMACHIKU KANEZAWA,西山,37.665397,141.007475
原町区萱浜,ハラマチクカイバマ,HARAMACHIKU KAIBAMA,赤沼,37.630433,141.010849
鹿島区北海老,カシマクキタエビ,KASHIMAKU KITAEBI,港口,37.721067,141.007238
小高区大井,オダカクオオイ,ODAKAKU OI,上山畑,37.573032,141.007495
小高区蛯沢,オダカクエビサワ,ODAKAKU EBISAWA,東堂下,37.530398,141.009773
原町区北泉,ハラマチクキタイズミ,HARAMACHIKU KITAIZUMI,西走,37.655389,141.008284
原町区大甕,ハラマチクオオミカ,HARAMACHIKU OMIKA,酒井,37.603074,141.007367
鹿島区北海老,カシマクキタエビ,KASHIMAKU KITAEBI,釜舟戸,37.718681,141.008157
小高区女場,オダカクオナバ,ODAKAKU ONABA,屋中作,37.542377,141.006852
原町区米々沢,ハラマチクメメザワ,HARAMACHIKU MEMEZAWA,谷地畑,37.596809,141.007093
小高区大井,オダカクオオイ,ODAKAKU OI,東平,37.569144,141.007233
原町区萱浜,ハラマチクカイバマ,HARAMACHIKU KAIBAMA,見谷地,37.629145,141.008865
鹿島区南海老,カシマクミナミエビ,KASHIMAKU MINAMIEBI,竹ノ内,37.705638,141.007927
鹿島区南海老,カシマクミナミエビ,KASHIMAKU MINAMIEBI,北原,37.710507,141.009174
原町区大甕,ハラマチクオオミカ,HARAMACHIKU OMIKA,林崎,37.606936,141.008344
小高区福岡,オダカクフクオカ,ODAKAKU FUKUOKA,柏下,37.547367,141.007489
原町区萱浜,ハラマチクカイバマ,HARAMACHIKU KAIBAMA,愛原,37.621661,141.009753
原町区堤谷,ハラマチクツツミガイ,HARAMACHIKU TSUTSUMIGAI,神ノ前,37.581533,141.005592
原町区金沢,ハラマチクカネザワ,HARAMACHIKU KANEZAWA,水神崎,37.663606,141.008849
鹿島区烏崎,カシマクカラスザキ,KASHIMAKU KARASUZAKI,北谷地,37.681189,141.008644
小高区蛯沢,オダカクエビサワ,ODAKAKU EBISAWA,大又,37.535566,141.014181
鹿島区南海老,カシマクミナミエビ,KASHIMAKU MINAMIEBI,北町,37.707932,141.008842
鹿島区烏崎,カシマクカラスザキ,KASHIMAKU KARASUZAKI,六平作,37.675403,141.008426
原町区堤谷,ハラマチクツツミガイ,HARAMACHIKU TSUTSUMIGAI,根田,37.581481,141.010399
小高区大井,オダカクオオイ,ODAKAKU OI,原迫,37.569976,141.01148
小高区大井,オダカクオオイ,ODAKAKU OI,高野迫,37.573869,141.011285
原町区北泉,ハラマチクキタイズミ,HARAMACHIKU KITAIZUMI,脇,37.659159,141.009905
原町区大甕,ハラマチクオオミカ,HARAMACHIKU OMIKA,森合東,37.599313,141.010099
原町区下江井,ハラマチクシモエネイ,HARAMACHIKU SHIMOENEI,台,37.584464,141.008823
原町区萱浜,ハラマチクカイバマ,HARAMACHIKU KAIBAMA,南才ノ上,37.62213,141.011935
小高区下浦,オダカクシモウラ,ODAKAKU SHIMORA,腰細,37.513909,141.013239
原町区大甕,ハラマチクオオミカ,HARAMACHIKU OMIKA,坂下,37.602658,141.009478
原町区下江井,ハラマチクシモエネイ,HARAMACHIKU SHIMOENEI,北向,37.582855,141.010132
原町区雫,ハラマチクシドケ,HARAMACHIKU SHIDOKE,原田,37.615149,141.010384
原町区泉,ハラマチクイズミ,HARAMACHIKU IZUMI,寺家前,37.649493,141.011214
原町区江井,ハラマチクエネイ,HARAMACHIKU ENEI,大北,37.591241,141.011999
鹿島区烏崎,カシマクカラスザキ,KASHIMAKU KARASUZAKI,宮田,37.675972,141.010447
原町区下渋佐,ハラマチクシモシブサ,HARAMACHIKU SHIMOSHIBUSA,仲西,37.638078,141.011269
原町区雫,ハラマチクシドケ,HARAMACHIKU SHIDOKE,五畝田,37.616697,141.011717
原町区雫,ハラマチクシドケ,HARAMACHIKU SHIDOKE,袖原,37.599025,141.015079
鹿島区烏崎,カシマクカラスザキ,KASHIMAKU KARASUZAKI,浜,37.67778,141.01164
原町区雫,ハラマチクシドケ,HARAMACHIKU SHIDOKE,会泉塚,37.610719,141.012027
鹿島区烏崎,カシマクカラスザキ,KASHIMAKU KARASUZAKI,寺下,37.676495,141.011935
原町区下渋佐,ハラマチクシモシブサ,HARAMACHIKU SHIMOSHIBUSA,南谷地,37.636345,141.013118
原町区北泉,ハラマチクキタイズミ,HARAMACHIKU KITAIZUMI,南走,37.651279,141.014831
鹿島区烏崎,カシマクカラスザキ,KASHIMAKU KARASUZAKI,戸屋,37.674718,141.013188
鹿島区烏崎,カシマクカラスザキ,KASHIMAKU KARASUZAKI,町,37.675736,141.012847
原町区萱浜,ハラマチクカイバマ,HARAMACHIKU KAIBAMA,切付,37.628295,141.013677
原町区萱浜,ハラマチクカイバマ,HARAMACHIKU KAIBAMA,才ノ下,37.624212,141.014518
原町区雫,ハラマチクシドケ,HARAMACHIKU SHIDOKE,野馬道,37.614496,141.013132
小高区福岡,オダカクフクオカ,ODAKAKU FUKUOKA,下岩崎,37.552755,141.011399
原町区雫,ハラマチクシドケ,HARAMACHIKU SHIDOKE,犬這,37.615723,141.014921
原町区北泉,ハラマチクキタイズミ,HARAMACHIKU KITAIZUMI,地蔵堂,37.655598,141.016041
小高区角部内,オダカクツノベウチ,ODAKAKU TSUNOBEUCHI,市ノ谷,37.548056,141.021608
小高区蛯沢,オダカクエビサワ,ODAKAKU EBISAWA,広畑,37.539783,141.019454
原町区泉,ハラマチクイズミ,HARAMACHIKU IZUMI,町,37.64774,141.014771
原町区金沢,ハラマチクカネザワ,HARAMACHIKU KANEZAWA,舟沢,37.661381,141.01762
原町区萱浜,ハラマチクカイバマ,HARAMACHIKU KAIBAMA,西田,37.62516,141.015586
原町区雫,ハラマチクシドケ,HARAMACHIKU SHIDOKE,山畑,37.60393,141.019105
原町区萱浜,ハラマチクカイバマ,HARAMACHIKU KAIBAMA,蔵前,37.627637,141.015452
小高区浦尻,オダカクウラジリ,ODAKAKU URAJIRI,原田,37.513938,141.017781
原町区泉,ハラマチクイズミ,HARAMACHIKU IZUMI,町下,37.648518,141.017625
原町区雫,ハラマチクシドケ,HARAMACHIKU SHIDOKE,京塚沢,37.610106,141.018739
原町区下渋佐,ハラマチクシモシブサ,HARAMACHIKU SHIMOSHIBUSA,後川,37.638889,141.017483
原町区小沢,ハラマチクコザワ,HARAMACHIKU KOZAWA,上戸屋迫,37.577284,141.020757
原町区下渋佐,ハラマチクシモシブサ,HARAMACHIKU SHIMOSHIBUSA,赤沼,37.636805,141.019753
小高区浦尻,オダカクウラジリ,ODAKAKU URAJIRI,大塚,37.518599,141.021135
小高区塚原,オダカクツカバラ,ODAKAKU TSUKABARA,沼ノ上,37.572614,141.021108
原町区雫,ハラマチクシドケ,HARAMACHIKU SHIDOKE,北迫田,37.61551,141.019964
原町区下渋佐,ハラマチクシモシブサ,HARAMACHIKU SHIMOSHIBUSA,大橋,37.638009,141.019644
原町区小沢,ハラマチクコザワ,HARAMACHIKU KOZAWA,折戸,37.57844,141.019136
原町区小浜,ハラマチクコバマ,HARAMACHIKU KOBAMA,間形沢,37.604313,141.024166
原町区小浜,ハラマチクコバマ,HARAMACHIKU KOBAMA,丸山,37.593556,141.020598
原町区小沢,ハラマチクコザワ,HARAMACHIKU KOZAWA,下戸屋迫,37.576655,141.023583
小高区塚原,オダカクツカバラ,ODAKAKU TSUKABARA,浜田,37.57185,141.022371
原町区雫,ハラマチクシドケ,HARAMACHIKU SHIDOKE,権現下,37.607905,141.022464
小高区村上,オダカクムラカミ,ODAKAKU MURAKAMI,西谷地,37.555409,141.023417
小高区角部内,オダカクツノベウチ,ODAKAKU TSUNOBEUCHI,北台,37.547574,141.023743
小高区角部内,オダカクツノベウチ,ODAKAKU TSUNOBEUCHI,南台,37.545463,141.026225
小高区村上,オダカクムラカミ,ODAKAKU MURAKAMI,前谷地,37.552475,141.024484
小高区浦尻,オダカクウラジリ,ODAKAKU URAJIRI,中林崎,37.513887,141.026305
小高区村上,オダカクムラカミ,ODAKAKU MURAKAMI,西谷地南坪,37.554454,141.023484
小高区塚原,オダカクツカバラ,ODAKAKU TSUKABARA,釜ノ上,37.573499,141.024709
原町区小浜,ハラマチクコバマ,HARAMACHIKU KOBAMA,西内,37.591312,141.024063
小高区村上,オダカクムラカミ,ODAKAKU MURAKAMI,仲川原,37.558673,141.025614
原町区小浜,ハラマチクコバマ,HARAMACHIKU KOBAMA,滝下,37.597149,141.023332
小高区村上,オダカクムラカミ,ODAKAKU MURAKAMI,舘腰,37.55621,141.026129
小高区井田川,オダカクイダガワ,ODAKAKU IDAGAWA,南新田,37.529803,141.02862
小高区角部内,オダカクツノベウチ,ODAKAKU TSUNOBEUCHI,反田,37.544936,141.027352
小高区角部内,オダカクツノベウチ,ODAKAKU TSUNOBEUCHI,谷地,37.54761,141.027954
小高区角部内,オダカクツノベウチ,ODAKAKU TSUNOBEUCHI,貝塚,37.546677,141.027779
小高区浦尻,オダカクウラジリ,ODAKAKU URAJIRI,原,37.514023,141.031192
小高区浦尻,オダカクウラジリ,ODAKAKU URAJIRI,北原,37.518541,141.030766
鹿島区浮田,カシマクウキタ,KASHIMAKU UKITA,西大谷地,37.717114,140.928234
鹿島区浮田,カシマクウキタ,KASHIMAKU UKITA,上浮田,37.719255,140.928157
鹿島区横手,カシマクヨコテ,KASHIMAKU YOKOTE,川原,37.708311,140.963199
鹿島区鹿島,カシマクカシマ,KASHIMAKU KASHIMA,沼ノ内,37.705922,140.965428
鹿島区鹿島,カシマクカシマ,KASHIMAKU KASHIMA,鍛治内,37.703196,140.9677
鹿島区鹿島,カシマクカシマ,KASHIMAKU KASHIMA,瀬戸畑,37.701203,140.966856
鹿島区鹿島,カシマクカシマ,KASHIMAKU KASHIMA,岩妻,37.699863,140.974947
鹿島区寺内,カシマクテラウチ,KASHIMAKU TERAUCHI,中才,37.703865,140.958273
鹿島区寺内,カシマクテラウチ,KASHIMAKU TERAUCHI,南町,37.698734,140.951458
原町区深野,ハラマチクフコウノ,HARAMACHIKU FUKONO,舘前,37.670279,140.934557
原町区深野,ハラマチクフコウノ,HARAMACHIKU FUKONO,木戸内,37.668119,140.92948
原町区深野,ハラマチクフコウノ,HARAMACHIKU FUKONO,南長信田,37.663634,140.927739
原町区深野,ハラマチクフコウノ,HARAMACHIKU FUKONO,西沢目,37.66412,140.933388
原町区信田沢,ハラマチクシダザワ,HARAMACHIKU SHIDAZAWA,北関ノ内,37.661561,140.919368
原町区信田沢,ハラマチクシダザワ,HARAMACHIKU SHIDAZAWA,八反田,37.660252,140.918242
原町区信田沢,ハラマチクシダザワ,HARAMACHIKU SHIDAZAWA,東原,37.656198,140.930354
原町区信田沢,ハラマチクシダザワ,HARAMACHIKU SHIDAZAWA,北原,37.657963,140.930617
原町区深野,ハラマチクフコウノ,HARAMACHIKU FUKONO,本内,37.668312,140.933327
原町区深野,ハラマチクフコウノ,HARAMACHIKU FUKONO,川原,37.669409,140.935978
原町区石神,ハラマチクイシガミ,HARAMACHIKU ISHIGAMI,南高茂内,37.638702,140.928368
原町区押釜,ハラマチクオシガマ,HARAMACHIKU OSHIGAMA,山鳥迫,37.62624,140.918737
原町区押釜,ハラマチクオシガマ,HARAMACHIKU OSHIGAMA,内畑,37.629007,140.927363
原町区石神,ハラマチクイシガミ,HARAMACHIKU ISHIGAMI,北明内,37.64511,140.930631
原町区信田沢,ハラマチクシダザワ,HARAMACHIKU SHIDAZAWA,嶺崎,37.652266,140.921664
原町区信田沢,ハラマチクシダザワ,HARAMACHIKU SHIDAZAWA,内城,37.650322,140.923183
原町区信田沢,ハラマチクシダザワ,HARAMACHIKU SHIDAZAWA,尼ケ折,37.647534,140.931719
小高区大田和,オダカクオオタワ,ODAKAKU OTAWA,南川原,37.541701,140.946728
小高区小屋木,オダカクコヤギ,ODAKAKU KOYAGI,金谷神,37.5468,140.955157
小高区飯崎,オダカクハンサキ,ODAKAKU HANSAKI,烏内,37.560925,140.968463
小高区飯崎,オダカクハンサキ,ODAKAKU HANSAKI,十日林,37.55806,140.972182
小高区飯崎,オダカクハンサキ,ODAKAKU HANSAKI,仲沖,37.560827,140.974762
小高区飯崎,オダカクハンサキ,ODAKAKU HANSAKI,田中前,37.560598,140.973314
小高区小屋木,オダカクコヤギ,ODAKAKU KOYAGI,障子口,37.550319,140.971772
小高区小屋木,オダカクコヤギ,ODAKAKU KOYAGI,宮後,37.551419,140.973075
小高区上根沢,オダカクウワネザワ,ODAKAKU UWANEZAWA,堂北,37.547881,140.97264
小高区上根沢,オダカクウワネザワ,ODAKAKU UWANEZAWA,原畑,37.545126,140.971364
小高区上根沢,オダカクウワネザワ,ODAKAKU UWANEZAWA,原下,37.546457,140.97086
小高区上根沢,オダカクウワネザワ,ODAKAKU UWANEZAWA,水溜,37.547769,140.970774
小高区小屋木,オダカクコヤギ,ODAKAKU KOYAGI,広畑,37.547692,140.967339
小高区上根沢,オダカクウワネザワ,ODAKAKU UWANEZAWA,田畑,37.545443,140.967838
小高区上根沢,オダカクウワネザワ,ODAKAKU UWANEZAWA,堀込,37.542058,140.966026
小高区飯崎,オダカクハンサキ,ODAKAKU HANSAKI,坂下,37.552121,140.96537
小高区吉名,オダカクヨシナ,ODAKAKU YOSHINA,西迫,37.556791,140.978965
小高区吉名,オダカクヨシナ,ODAKAKU YOSHINA,玉ノ木平,37.557962,140.981628
小高区吉名,オダカクヨシナ,ODAKAKU YOSHINA,白山,37.556025,140.983024
小高区吉名,オダカクヨシナ,ODAKAKU YOSHINA,漆原,37.557035,140.988553
小高区吉名,オダカクヨシナ,ODAKAKU YOSHINA,長迫,37.552865,140.987363
小高区岡田,オダカクオカダ,ODAKAKU OKADA,万ケ迫,37.554362,140.993978
小高区小高,オダカクオダカ,ODAKAKU ODAKA,水谷迫,37.571974,140.993342
小高区小高,オダカクオダカ,ODAKAKU ODAKA,下入迫,37.570688,140.989364
小高区下浦,オダカクシモウラ,ODAKAKU SHIMORA,坂下,37.515991,141.008766
小高区下浦,オダカクシモウラ,ODAKAKU SHIMORA,畑ケ迫,37.515594,141.010964
小高区女場,オダカクオナバ,ODAKAKU ONABA,堤田,37.540006,141.004969
小高区泉沢,オダカクイズミサワ,ODAKAKU IZUMISAWA,戸ノ内前,37.547045,140.99554
小高区福岡,オダカクフクオカ,ODAKAKU FUKUOKA,別当迫,37.55385,141.004992
小高区泉沢,オダカクイズミサワ,ODAKAKU IZUMISAWA,反町,37.547101,141.002502
小高区福岡,オダカクフクオカ,ODAKAKU FUKUOKA,白山,37.54963,141.006449
小高区福岡,オダカクフクオカ,ODAKAKU FUKUOKA,山田,37.551972,141.004575
小高区泉沢,オダカクイズミサワ,ODAKAKU IZUMISAWA,一里壇,37.548963,140.989346
小高区岡田,オダカクオカダ,ODAKAKU OKADA,叺林,37.549897,140.992649
小高区女場,オダカクオナバ,ODAKAKU ONABA,明地,37.544457,141.009872
小高区女場,オダカクオナバ,ODAKAKU ONABA,中里,37.547224,141.01332
小高区女場,オダカクオナバ,ODAKAKU ONABA,滝尻,37.547801,141.015273
小高区女場,オダカクオナバ,ODAKAKU ONABA,八木平,37.54629,141.016289
小高区女場,オダカクオナバ,ODAKAKU ONABA,山田,37.541361,141.012086
小高区福岡,オダカクフクオカ,ODAKAKU FUKUOKA,上岩崎,37.552052,141.008717
小高区岡田,オダカクオカダ,ODAKAKU OKADA,下川原田,37.56053,141.01014
原町区小沢,ハラマチクコザワ,HARAMACHIKU KOZAWA,小沢,37.581563,141.023599
小高区小高,オダカクオダカ,ODAKAKU ODAKA,古城,37.569024,140.989569
小高区片草,オダカクカタクサ,ODAKAKU KATAKUSA,行徳,37.578552,140.973477
小高区小谷,オダカクオヤ,ODAKAKU OYA,渋谷迫,37.567021,140.950697
小高区小谷,オダカクオヤ,ODAKAKU OYA,赤坂,37.563538,140.94391
小高区南鳩原,オダカクミナミハツパラ,ODAKAKU MINAMIHATSUPARA,西畑,37.576607,140.950634
小高区小谷,オダカクオヤ,ODAKAKU OYA,龍ケ迫,37.570987,140.957419
小高区小谷,オダカクオヤ,ODAKAKU OYA,西台,37.57302,140.957394
原町区江井,ハラマチクエネイ,HARAMACHIKU ENEI,西山,37.591763,140.996621
原町区小木迫,,,堂西,37.585099,140.991013
原町区小木迫,,,光明迫,37.584698,140.995994
原町区小木迫,,,五斗蒔,37.584186,140.979885
小高区小谷,オダカクオヤ,ODAKAKU OYA,入ノ迫,37.566841,140.959811
小高区小谷,オダカクオヤ,ODAKAKU OYA,門前,37.567915,140.959946
原町区矢川原,ハラマチクヤガワラ,HARAMACHIKU YAGAWARA,高掛,37.599543,140.934549
原町区馬場,ハラマチクババ,HARAMACHIKU BABA,後谷地,37.610003,140.921045
原町区馬場,ハラマチクババ,HARAMACHIKU BABA,糯田,37.608517,140.918681
原町区馬場,ハラマチクババ,HARAMACHIKU BABA,滝,37.598874,140.910772
原町区馬場,ハラマチクババ,HARAMACHIKU BABA,広畑,37.601082,140.914036
原町区馬場,ハラマチクババ,HARAMACHIKU BABA,川久保,37.598062,140.915319
原町区馬場,ハラマチクババ,HARAMACHIKU BABA,石倉,37.599908,140.916268
小高区飯崎,オダカクハンサキ,ODAKAKU HANSAKI,坊前,37.558081,140.97624
小高区泉沢,オダカクイズミサワ,ODAKAKU IZUMISAWA,浪岩,37.549165,140.988054
原町区馬場,ハラマチクババ,HARAMACHIKU BABA,台,37.602494,140.913031
原町区馬場,ハラマチクババ,HARAMACHIKU BABA,薬師前,37.601231,140.912248
原町区馬場,ハラマチクババ,HARAMACHIKU BABA,栗林,37.615435,140.92461
鹿島区江垂,カシマクエタリ,KASHIMAKU ETARI,日向,37.688407,140.970003
鹿島区北右田,カシマクキタミギタ,KASHIMAKU KITAMIGITA,釼宮,37.702028,140.989576
鹿島区北右田,カシマクキタミギタ,KASHIMAKU KITAMIGITA,田島,37.702175,140.988495
鹿島区北海老,カシマクキタエビ,KASHIMAKU KITAEBI,反畑,37.707517,140.994949
鹿島区北海老,カシマクキタエビ,KASHIMAKU KITAEBI,迫田,37.710243,140.995257
鹿島区北海老,カシマクキタエビ,KASHIMAKU KITAEBI,北畑,37.709362,140.99415
鹿島区北海老,カシマクキタエビ,KASHIMAKU KITAEBI,荒屋,37.708964,140.990595
鹿島区北海老,カシマクキタエビ,KASHIMAKU KITAEBI,玉貫,37.70998,141.001348
鹿島区北海老,カシマクキタエビ,KASHIMAKU KITAEBI,水神,37.709884,140.996795
鹿島区南海老,カシマクミナミエビ,KASHIMAKU MINAMIEBI,南町,37.705962,141.009435
鹿島区南右田,カシマクミナミミギタ,KASHIMAKU MINAMIMIGITA,二ツ沼,37.692375,141.010707
鹿島区北海老,カシマクキタエビ,KASHIMAKU KITAEBI,釜舟戸東,37.718819,141.008979
鹿島区北海老,カシマクキタエビ,KASHIMAKU KITAEBI,明神前,37.7175,141.0009
鹿島区北海老,カシマクキタエビ,KASHIMAKU KITAEBI,糠塚,37.715166,141.001373
鹿島区北海老,カシマクキタエビ,KASHIMAKU KITAEBI,入ウ田,37.715715,140.993755
鹿島区北海老,カシマクキタエビ,KASHIMAKU KITAEBI,房迫,37.717048,140.994342
鹿島区北海老,カシマクキタエビ,KASHIMAKU KITAEBI,大迫,37.720067,140.992823
鹿島区北海老,カシマクキタエビ,KASHIMAKU KITAEBI,西庭,37.719419,140.990441
鹿島区北海老,カシマクキタエビ,KASHIMAKU KITAEBI,鳥バミ,37.716896,140.988097
鹿島区北海老,カシマクキタエビ,KASHIMAKU KITAEBI,町尻,37.711166,140.985505
鹿島区南屋形,カシマクミナミヤカタ,KASHIMAKU MINAMIYAKATA,北原,37.711857,140.983715
鹿島区南海老,カシマクミナミエビ,KASHIMAKU MINAMIEBI,中谷地,37.702955,141.00903
鹿島区南海老,カシマクミナミエビ,KASHIMAKU MINAMIEBI,蛭沼,37.702988,141.009926
鹿島区南海老,カシマクミナミエビ,KASHIMAKU MINAMIEBI,竹ノ内前,37.703585,141.007467
鹿島区北右田,カシマクキタミギタ,KASHIMAKU KITAMIGITA,浜田,37.695184,141.004517
鹿島区南右田,カシマクミナミミギタ,KASHIMAKU MINAMIMIGITA,蛭田,37.690588,141.008064
鹿島区永渡,カシマクナガワタリ,KASHIMAKU NAGAWATARI,永渡,37.731237,140.951475
鹿島区永渡,カシマクナガワタリ,KASHIMAKU NAGAWATARI,尾張沢,37.740198,140.942099
鹿島区横手,カシマクヨコテ,KASHIMAKU YOKOTE,広谷地,37.735531,140.929375
鹿島区南柚木,カシマクミナミユノキ,KASHIMAKU MINAMIYUNOKI,西谷地,37.738371,140.955045
鹿島区南柚木,カシマクミナミユノキ,KASHIMAKU MINAMIYUNOKI,西久保,37.737144,140.966234
鹿島区南柚木,カシマクミナミユノキ,KASHIMAKU MINAMIYUNOKI,境田,37.740627,140.966931
原町区深野,ハラマチクフコウノ,HARAMACHIKU FUKONO,搗屋,37.66428,140.937972
原町区深野,ハラマチクフコウノ,HARAMACHIKU FUKONO,前田,37.663175,140.934303
原町区北長野,ハラマチクキタナガノ,HARAMACHIKU KITANAGANO,台,37.659667,140.943869
原町区石神,ハラマチクイシガミ,HARAMACHIKU ISHIGAMI,下川原,37.641077,140.934327
原町区上高平,ハラマチクカミタカヒラ,HARAMACHIKU KAMITAKAHIRA,一ノ坪,37.654257,140.963865
原町区北長野,ハラマチクキタナガノ,HARAMACHIKU KITANAGANO,万五郎,37.651857,140.952059
原町区北長野,ハラマチクキタナガノ,HARAMACHIKU KITANAGANO,沢目,37.656424,140.945582
原町区押釜,ハラマチクオシガマ,HARAMACHIKU OSHIGAMA,山下,37.625664,140.931754
原町区矢川原,ハラマチクヤガワラ,HARAMACHIKU YAGAWARA,寺山,37.598112,140.941754
原町区鶴谷,ハラマチクツルガイ,HARAMACHIKU TSURUGAI,池袋,37.593513,140.949045
原町区矢川原,ハラマチクヤガワラ,HARAMACHIKU YAGAWARA,熊下,37.600777,140.951575
原町区上太田,ハラマチクカミオオタ,HARAMACHIKU KAMIOTA,礼堂内,37.604872,140.956675
原町区鶴谷,ハラマチクツルガイ,HARAMACHIKU TSURUGAI,牛踏,37.586523,140.975074
原町区鶴谷,ハラマチクツルガイ,HARAMACHIKU TSURUGAI,坂下,37.595005,140.966243
原町区鶴谷,ハラマチクツルガイ,HARAMACHIKU TSURUGAI,台畑,37.595216,140.971573
原町区益田,ハラマチクマスダ,HARAMACHIKU MASUDA,西迫,37.600094,140.96901
原町区牛来,ハラマチクゴライ,HARAMACHIKU GORAI,穴田,37.620043,140.964997
原町区牛来,ハラマチクゴライ,HARAMACHIKU GORAI,南平,37.618983,140.966295
原町区牛来,ハラマチクゴライ,HARAMACHIKU GORAI,八龍前,37.623553,140.966925
原町区牛来,ハラマチクゴライ,HARAMACHIKU GORAI,行師田,37.618921,140.971096
原町区中太田,ハラマチクナカオオタ,HARAMACHIKU NAKAOTA,与太郎内,37.612566,140.960669
原町区中太田,ハラマチクナカオオタ,HARAMACHIKU NAKAOTA,新橋,37.611317,140.958455
鹿島区南海老,カシマクミナミエビ,KASHIMAKU MINAMIEBI,釜前,37.705889,141.010459
鹿島区大内,カシマクオオウチ,KASHIMAKU OUCHI,松迫,37.674091,141.000364
鹿島区大内,カシマクオオウチ,KASHIMAKU OUCHI,宮下,37.676875,140.998421
鹿島区大内,カシマクオオウチ,KASHIMAKU OUCHI,大久保,37.674391,140.997097
鹿島区大内,カシマクオオウチ,KASHIMAKU OUCHI,滝沢,37.678052,140.996371
原町区上高平,ハラマチクカミタカヒラ,HARAMACHIKU KAMITAKAHIRA,芦ノ口前,37.651222,140.970135
原町区上高平,ハラマチクカミタカヒラ,HARAMACHIKU KAMITAKAHIRA,堂坂,37.657216,140.969774
原町区上高平,ハラマチクカミタカヒラ,HARAMACHIKU KAMITAKAHIRA,植松下,37.656363,140.964006
原町区牛越,ハラマチクウシゴエ,HARAMACHIKU USHIGOE,山崎,37.645886,140.943415
原町区上北高平,ハラマチクカミキタタカヒラ,HARAMACHIKU KAMIKITATAKAHIRA,貝餅,37.654417,140.978544
原町区上北高平,ハラマチクカミキタタカヒラ,HARAMACHIKU KAMIKITATAKAHIRA,太鼓田,37.654538,140.976906
原町区下太田,ハラマチクシモオオタ,HARAMACHIKU SHIMOOTA,高田,37.609004,140.976367
原町区高,ハラマチクタカ,HARAMACHIKU TAKA,鍛治内,37.598449,140.991508
原町区高,ハラマチクタカ,HARAMACHIKU TAKA,小太郎内,37.601655,140.992237
原町区高,ハラマチクタカ,HARAMACHIKU TAKA,城ノ内,37.599658,140.993724
原町区高,ハラマチクタカ,HARAMACHIKU TAKA,舘ノ内,37.598944,140.995414
原町区高,ハラマチクタカ,HARAMACHIKU TAKA,中平,37.596742,140.99292
原町区益田,ハラマチクマスダ,HARAMACHIKU MASUDA,大迫,37.60107,140.979918
原町区米々沢,ハラマチクメメザワ,HARAMACHIKU MEMEZAWA,竹ノ花,37.597419,141.00251
原町区高,ハラマチクタカ,HARAMACHIKU TAKA,北川原,37.599734,140.996886
原町区江井,ハラマチクエネイ,HARAMACHIKU ENEI,馬場,37.592876,141.001973
原町区江井,ハラマチクエネイ,HARAMACHIKU ENEI,堀内前,37.592139,141.002358
原町区米々沢,ハラマチクメメザワ,HARAMACHIKU MEMEZAWA,松木内,37.596689,141.00997
原町区米々沢,ハラマチクメメザワ,HARAMACHIKU MEMEZAWA,川畑,37.595393,141.008392
原町区米々沢,ハラマチクメメザワ,HARAMACHIKU MEMEZAWA,沢田,37.595559,141.011084
原町区大甕,ハラマチクオオミカ,HARAMACHIKU OMIKA,観音前,37.59798,141.01082
原町区小浜,ハラマチクコバマ,HARAMACHIKU KOBAMA,大迫,37.59619,141.016397
原町区小浜,ハラマチクコバマ,HARAMACHIKU KOBAMA,野馬沢,37.598755,141.025947
原町区北原,ハラマチクキタハラ,HARAMACHIKU KITAHARA,江下,37.623351,140.995287
原町区鶴谷,ハラマチクツルガイ,HARAMACHIKU TSURUGAI,輪ノ内,37.594298,140.982334
原町区高,ハラマチクタカ,HARAMACHIKU TAKA,高林,37.596266,140.986754
原町区江井,ハラマチクエネイ,HARAMACHIKU ENEI,地蔵前,37.5922,140.998121
原町区江井,ハラマチクエネイ,HARAMACHIKU ENEI,妙見迫,37.587743,140.995928
原町区鶴谷,ハラマチクツルガイ,HARAMACHIKU TSURUGAI,南谷地,37.589207,140.989382
原町区鶴谷,ハラマチクツルガイ,HARAMACHIKU TSURUGAI,上ノ台,37.591206,140.984434
原町区堤谷,ハラマチクツツミガイ,HARAMACHIKU TSUTSUMIGAI,境田,37.575849,141.004688
原町区堤谷,ハラマチクツツミガイ,HARAMACHIKU TSUTSUMIGAI,林崎,37.577646,141.001762
小高区大井,オダカクオオイ,ODAKAKU OI,住吉,37.572746,140.997732
小高区吉名,オダカクヨシナ,ODAKAKU YOSHINA,岩屋堂,37.555202,140.990509
小高区岡田,オダカクオカダ,ODAKAKU OKADA,薬師堂,37.556967,140.993196
小高区岡田,オダカクオカダ,ODAKAKU OKADA,養子坊,37.555107,140.993187
小高区岡田,オダカクオカダ,ODAKAKU OKADA,山田,37.554717,140.99946
小高区岡田,オダカクオカダ,ODAKAKU OKADA,南ノ内,37.554036,140.996758
小高区吉名,オダカクヨシナ,ODAKAKU YOSHINA,中坪,37.559991,140.984152
原町区下太田,ハラマチクシモオオタ,HARAMACHIKU SHIMOOTA,道内迫,37.614476,140.979305
原町区北原,ハラマチクキタハラ,HARAMACHIKU KITAHARA,境堀,37.628602,140.988607
鹿島区烏崎,カシマクカラスザキ,KASHIMAKU KARASUZAKI,南入,37.673803,141.012844
鹿島区烏崎,カシマクカラスザキ,KASHIMAKU KARASUZAKI,寺前,37.675666,141.011471
鹿島区烏崎,カシマクカラスザキ,KASHIMAKU KARASUZAKI,南谷地,37.677017,141.011124
原町区金沢,ハラマチクカネザワ,HARAMACHIKU KANEZAWA,前田,37.66448,141.012387
原町区金沢,ハラマチクカネザワ,HARAMACHIKU KANEZAWA,鳥打沢,37.667413,141.007271
原町区泉,ハラマチクイズミ,HARAMACHIKU IZUMI,宮前,37.651684,141.010518
原町区泉,ハラマチクイズミ,HARAMACHIKU IZUMI,寺前,37.653876,141.001139
原町区泉,ハラマチクイズミ,HARAMACHIKU IZUMI,根渡,37.655439,140.996406
原町区上高平,ハラマチクカミタカヒラ,HARAMACHIKU KAMITAKAHIRA,川原町,37.64965,140.966803
原町区上高平,ハラマチクカミタカヒラ,HARAMACHIKU KAMITAKAHIRA,宮前,37.649869,140.968615
原町区上北高平,ハラマチクカミキタタカヒラ,HARAMACHIKU KAMIKITATAKAHIRA,新山前,37.659826,140.976773
原町区上高平,ハラマチクカミタカヒラ,HARAMACHIKU KAMITAKAHIRA,前明,37.648038,140.972872
原町区高,ハラマチクタカ,HARAMACHIKU TAKA,薬師堂,37.595041,140.997596
原町区江井,ハラマチクエネイ,HARAMACHIKU ENEI,俵合内,37.589874,141.001357
原町区堤谷,ハラマチクツツミガイ,HARAMACHIKU TSUTSUMIGAI,薬師前,37.582054,141.002361
小高区岡田,オダカクオカダ,ODAKAKU OKADA,天神前,37.556929,140.995731
小高区岡田,オダカクオカダ,ODAKAKU OKADA,町屋敷,37.556882,140.998015
小高区岡田,オダカクオカダ,ODAKAKU OKADA,北ノ内,37.55836,140.99369
原町区鶴谷,ハラマチクツルガイ,HARAMACHIKU TSURUGAI,大沢,37.587709,140.981136
原町区鶴谷,ハラマチクツルガイ,HARAMACHIKU TSURUGAI,北迎,37.593847,140.978374
原町区矢川原,ハラマチクヤガワラ,HARAMACHIKU YAGAWARA,田中,37.601391,140.962816
原町区石神,ハラマチクイシガミ,HARAMACHIKU ISHIGAMI,北渕内,37.644223,140.926899
鹿島区烏崎,カシマクカラスザキ,KASHIMAKU KARASUZAKI,原田,37.67644,141.007557
原町区上高平,ハラマチクカミタカヒラ,HARAMACHIKU KAMITAKAHIRA,宮後,37.654365,140.972375
原町区下高平,ハラマチクシモタカヒラ,HARAMACHIKU SHIMOTAKAHIRA,堂後,37.646847,140.982129
原町区下高平,ハラマチクシモタカヒラ,HARAMACHIKU SHIMOTAKAHIRA,牛渡前,37.648805,140.990153
原町区上渋佐,ハラマチクカミシブサ,HARAMACHIKU KAMISHIBUSA,沖田,37.640572,140.999598
原町区中太田,ハラマチクナカオオタ,HARAMACHIKU NAKAOTA,八重畑,37.615209,140.965219
原町区中太田,ハラマチクナカオオタ,HARAMACHIKU NAKAOTA,西畑,37.615157,140.961304
原町区牛来,ハラマチクゴライ,HARAMACHIKU GORAI,東後迫,37.616846,140.977118
原町区大甕,ハラマチクオオミカ,HARAMACHIKU OMIKA,森合,37.600776,141.007006
原町区大甕,ハラマチクオオミカ,HARAMACHIKU OMIKA,舟橋,37.611771,140.992086
原町区大甕,ハラマチクオオミカ,HARAMACHIKU OMIKA,西迫,37.611021,140.99042
原町区萱浜,ハラマチクカイバマ,HARAMACHIKU KAIBAMA,原畑,37.630405,141.005631
原町区泉,ハラマチクイズミ,HARAMACHIKU IZUMI,須賀内,37.643946,141.007446
原町区泉,ハラマチクイズミ,HARAMACHIKU IZUMI,舘前,37.647271,141.016679
原町区泉,ハラマチクイズミ,HARAMACHIKU IZUMI,前川原,37.643906,141.019142
鹿島区烏崎,カシマクカラスザキ,KASHIMAKU KARASUZAKI,牛島,37.683525,141.010842
小高区吉名,オダカクヨシナ,ODAKAKU YOSHINA,西長迫,37.55226,140.989703
小高区岡田,オダカクオカダ,ODAKAKU OKADA,十王迫,37.551861,140.992482
原町区江井,ハラマチクエネイ,HARAMACHIKU ENEI,上沼,37.590673,141.002988
原町区江井,ハラマチクエネイ,HARAMACHIKU ENEI,向畑,37.590661,141.002005
原町区大甕,ハラマチクオオミカ,HARAMACHIKU OMIKA,山岸,37.602599,141.00613
原町区雫,ハラマチクシドケ,HARAMACHIKU SHIDOKE,台畑,37.612748,141.02181
原町区雫,ハラマチクシドケ,HARAMACHIKU SHIDOKE,上ノ台,37.611329,141.021561
原町区下渋佐,ハラマチクシモシブサ,HARAMACHIKU SHIMOSHIBUSA,湊,37.62638,141.020687
原町区萱浜,ハラマチクカイバマ,HARAMACHIKU KAIBAMA,百目木,37.625846,141.015774
原町区下渋佐,ハラマチクシモシブサ,HARAMACHIKU SHIMOSHIBUSA,大身,37.636859,141.023067
原町区下渋佐,ハラマチクシモシブサ,HARAMACHIKU SHIMOSHIBUSA,平,37.638017,141.021899
原町区北原,ハラマチクキタハラ,HARAMACHIKU KITAHARA,木戸脇,37.629787,140.983454
原町区大甕,ハラマチクオオミカ,HARAMACHIKU OMIKA,十日迫,37.609236,141.003842
原町区下太田,ハラマチクシモオオタ,HARAMACHIKU SHIMOOTA,川内前,37.616481,140.98191
鹿島区烏崎,カシマクカラスザキ,KASHIMAKU KARASUZAKI,石崎,37.679803,141.011085
鹿島区川子,カシマクカワゴ,KASHIMAKU KAWAGO,堤下,37.672967,140.967977
