name,name_kana,name_romaji,nickname,latitude,longitude
対馬館町,ツシマダテマチ,TSUSHIMADATEMACHI,,37.480625,139.915821
神指町橋本,コウザシマチハシモト,KOZASHIMACHI HASHIMOTO,,37.506,139.90921
飯盛三丁目,イイモリ 3,IIMORI 3,,37.503082,139.949546
八角町,ヤスミマチ,YASUMIMACHI,,37.503425,139.945306
河東町工業団地,カワヒガシマチコウギョウダンチ,KAWAHIGASHIMACHI KOGYODANCHI,,37.546714,139.955612
神指町大字中四合,,,,37.506306,139.895541
大戸町大字高川,,,,37.372992,139.966305
東山町大字湯川,,,,37.441501,139.969578
大戸町大字大川,,,,37.334782,139.918977
湊町大字平潟,,,,37.435559,140.044704
湊町大字原,,,,37.446922,140.019812
湊町大字赤井,,,,37.496431,140.003196
湊町大字共和,,,,37.469924,140.012074
門田町大字黒岩,,,,37.476091,139.935823
門田町大字面川,,,,37.442833,139.915159
北会津町下荒井,キタアイヅマチシモアライ,KITAAIZUMACHI SHIMOARAI,,37.504958,139.86386
北会津町新在家,キタアイヅマチシンザイケ,KITAAIZUMACHI SHINZAIKE,,37.470367,139.874847
北会津町東麻生,キタアイヅマチヒガシアソウ,KITAAIZUMACHI HIGASHIASO,,37.483537,139.872565
北会津町下野,キタアイヅマチシモノ,KITAAIZUMACHI SHIMONO,,37.45728,139.873221
北会津町金屋,キタアイヅマチカナヤ,KITAAIZUMACHI KANAYA,,37.464106,139.875283
北会津町西麻生,キタアイヅマチニシアソウ,KITAAIZUMACHI NISHIASO,,37.479939,139.86659
北会津町松野,キタアイヅマチマツノ,KITAAIZUMACHI MATSUNO,,37.473384,139.874063
北会津町北後庵,キタアイヅマチキタゴアン,KITAAIZUMACHI KITAGOAN,,37.469187,139.869174
北会津町中荒井,キタアイヅマチナカアライ,KITAAIZUMACHI NAKAARAI,,37.492721,139.875666
神指町西城戸,コウザシマチニシキド,KOZASHIMACHI NISHIKIDO,,37.502885,139.899187
西七日町,ニシナノカマチ,NISHINANOKAMACHI,,37.503507,139.916305
五月町,サツキマチ,SATSUKIMACHI,,37.500761,139.912554
一箕町大字八幡,,,,37.506147,139.952243
飯盛一丁目,イイモリ 1,IIMORI 1,,37.502774,139.952921
一箕町大字八角,,,,37.504279,139.947076
滝沢町,タキザワマチ,TAKIZAWAMACHI,,37.504329,139.94289
平安町,ヘイアンマチ,HEIAMMACHI,,37.501346,139.94199
旭町,アサヒマチ,ASAHIMACHI,,37.501086,139.938821
蚕養町,コガイマチ,KOGAIMACHI,,37.504517,139.937187
相生町,アイオイマチ,AIOIMACHI,,37.501692,139.935854
昭和町,ショウワマチ,SHOWAMACHI,,37.504018,139.934302
馬場本町,ババモトマチ,BABAMOTOMACHI,,37.501719,139.933383
中央二丁目,チュウオウ 2,CHUO 2,,37.502217,139.931423
大町二丁目,オオマチ 2,OMACHI 2,,37.5031,139.928766
城北町,ジョウホクマチ,JOHOKUMACHI,,37.503555,139.925096
金川町,カナガワマチ,KANAGAWAMACHI,,37.504675,139.921968
神指町大字黒川,,,,37.505426,139.906317
北会津町蟹川,キタアイヅマチカニカワ,KITAAIZUMACHI KANIKAWA,,37.506879,139.879416
一箕町大字金堀,,,,37.511708,139.978469
河東町八田,カワヒガシマチハッタ,KAWAHIGASHIMACHI HATTA,,37.53896,139.979064
北会津町十二所,キタアイヅマチジュウニショ,KITAAIZUMACHI JUNISHO,,37.502321,139.843172
北会津町本田,キタアイヅマチホンダ,KITAAIZUMACHI HONDA,,37.503429,139.850479
北会津町真宮,キタアイヅマチマミヤ,KITAAIZUMACHI MAMIYA,,37.520619,139.868724
真宮新町南四丁目,マミヤシンマチミナミ 4,MAMIYASHIMMACHIMINAMI 4,,37.521258,139.873877
真宮新町北二丁目,マミヤシンマチキタ 2,MAMIYASHIMMACHIKITA 2,,37.524123,139.870713
真宮新町北一丁目,マミヤシンマチキタ 1,MAMIYASHIMMACHIKITA 1,,37.524404,139.872814
真宮新町北四丁目,マミヤシンマチキタ 4,MAMIYASHIMMACHIKITA 4,,37.528871,139.870284
大戸町宮内,オオトマチミヤウチ,OTOMACHI MIYAUCHI,,37.417483,139.918542
大戸町小谷平沢,オオトマチオヤヒラサワ,OTOMACHI OYAHIRASAWA,,37.377146,139.917267
大戸町小谷西村,オオトマチオヤニシムラ,OTOMACHI OYANISHIMURA,,37.384351,139.922096
大戸町上小塩,オオトマチカミオシュウ,OTOMACHI KAMIOSHU,,37.367393,139.921367
大戸町小谷原,オオトマチオヤハラ,OTOMACHI OYAHARA,,37.382561,139.92366
大戸町大字芦牧,,,,37.363983,139.909354
大戸町上三寄大豆田,オオトマチカミミヨリオオマメタ,OTOMACHI KAMIMIYORIOMAMETA,,37.388862,139.933527
大戸町小谷川端,オオトマチオヤカワバタ,OTOMACHI OYAKAWABATA,,37.386466,139.928533
大戸町小谷坂下,オオトマチオヤサカノシタ,OTOMACHI OYASAKANOSHITA,,37.387505,139.925028
大戸町大字小谷,,,,37.365367,139.916995
大戸町上三寄香塩,オオトマチカミミヨリカシュウ,OTOMACHI KAMIMIYORIKASHU,,37.397011,139.933807
大戸町大字上三寄,,,,37.407281,139.924187
大戸町上三寄南原,オオトマチカミミヨリミナミハラ,OTOMACHI KAMIMIYORIMINAMIHARA,,37.40376,139.926175
大戸町上雨屋,オオトマチカミアマヤ,OTOMACHI KAMIAMAYA,,37.41151,139.922657
湊町大字静潟,,,,37.462527,140.036328
北青木,キタアオキ,KITAAOKI,,37.479933,139.938263
北会津町水季の里,キタアイヅマチミズキノサト,KITAAIZUMACHI MIZUKINOSATO,,37.476693,139.89315
北会津町古舘,,,,37.475667,139.89165
北会津町ほたるの森,キタアイヅマチホタルノモリ,KITAAIZUMACHI HOTARUNOMORI,,37.49594,139.874794
花春町,ハナハルマチ,HANAHARUMACHI,,37.49041,139.943374
城東町,ジョウトウマチ,JOTOMACHI,,37.486765,139.936073
城南町,ジョウナンマチ,JONAMMACHI,,37.485588,139.928555
南町,ミナミマチ,MINAMIMACHI,,37.484539,139.928337
米代二丁目,ヨネダイ 2,YONEDAI 2,,37.486461,139.923039
米代一丁目,ヨネダイ 1,YONEDAI 1,,37.488744,139.923679
城前,シロマエ,SHIROMAE,,37.490799,139.936124
追手町,オウテマチ,OTEMACHI,,37.488529,139.930187
山鹿町,ヤマガマチ,YAMAGAMACHI,,37.490858,139.924289
慶山二丁目,ケイザン 2,KEIZAN 2,,37.494068,139.950936
南千石町,ミナミセンゴクマチ,MINAMISENGOKUMACHI,,37.492572,139.942723
和田二丁目,ワダ 2,WADA 2,,37.499237,139.951217
慶山一丁目,ケイザン 1,KEIZAN 1,,37.493982,139.947328
飯盛二丁目,イイモリ 2,IIMORI 2,,37.500953,139.948402
和田一丁目,ワダ 1,WADA 1,,37.498705,139.949213
東千石三丁目,ヒガシセンゴク 3,HIGASHISENGOKU 3,,37.498513,139.947094
桧町,ヒノキマチ,HINOKIMACHI,,37.500976,139.944699
東千石二丁目,ヒガシセンゴク 2,HIGASHISENGOKU 2,,37.498462,139.944604
東千石一丁目,ヒガシセンゴク 1,HIGASHISENGOKU 1,,37.49659,139.945364
花畑東,ハナバタケヒガシ,HANABATAKEHIGASHI,,37.499465,139.941617
千石町,センゴクマチ,SENGOKUMACHI,,37.49566,139.94179
行仁町,ギョウニンマチ,GYONIMMACHI,,37.497245,139.937517
徒之町,カチノマチ,KACHINOMACHI,,37.492565,139.936616
宮町,ミヤマチ,MIYAMACHI,,37.494346,139.937235
上町,ウワマチ,UWAMACHI,,37.49809,139.934228
馬場町,ババマチ,BABAMACHI,,37.498665,139.932032
東栄町,ヒガシサカエマチ,HIGASHISAKAEMACHI,,37.493281,139.93069
栄町,サカエマチ,SAKAEMACHI,,37.496157,139.930875
中央一丁目,チュウオウ 1,CHUO 1,,37.499073,139.930036
西栄町,ニシサカエマチ,NISHISAKAEMACHI,,37.493858,139.925217
大町一丁目,オオマチ 1,OMACHI 1,,37.499911,139.927373
中町,ナカマチ,NAKAMACHI,,37.4969,139.925844
北会津町二日町,キタアイヅマチフツカマチ,KITAAIZUMACHI FUTSUKAMACHI,,37.495051,139.884425
大戸町石村,オオトマチイシムラ,OTOMACHI ISHIMURA,,37.432912,139.913212
大戸町下雨屋,オオトマチシモアマヤ,OTOMACHI SHIMOAMAYA,,37.420417,139.919047
門田町大字堤沢,,,,37.448145,139.937648
門田町大字一ノ堰,,,,37.455974,139.913461
北会津町東小松,キタアイヅマチヒガシコマツ,KITAAIZUMACHI HIGASHIKOMATSU,,37.473086,139.889309
北会津町小松,キタアイヅマチコマツ,KITAAIZUMACHI KOMATSU,,37.466837,139.886738
東山町大字湯本,,,,37.476474,139.963858
東山町大字石山,,,,37.487713,139.951734
花見ケ丘三丁目,ハナミガオカ 3,HANAMIGAOKA 3,,37.483377,139.941469
建福寺前,ケンプクジマエ,KEMPUKUJIMAE,,37.482588,139.938988
門田町大字御山,,,,37.46455,139.928837
東年貢二丁目,ヒガシネング 2,HIGASHINENGU 2,,37.472784,139.927369
天神町,テンジンマチ,TENJIMMACHI,,37.481229,139.933995
東年貢一丁目,ヒガシネング 1,HIGASHINENGU 1,,37.474929,139.927798
古川町,フルカワマチ,FURUKAWAMACHI,,37.47706,139.928226
明和町,メイワマチ,MEIWAMACHI,,37.479079,139.928042
表町,オモテマチ,OMOTEMACHI,,37.481664,139.928763
西年貢二丁目,ニシネング 2,NISHINENGU 2,,37.475496,139.923194
錦町,ニシキマチ,NISHIKIMACHI,,37.482322,139.923811
門田町大字中野,,,,37.468238,139.921801
門田町大字年貢町,,,,37.471045,139.926302
西年貢一丁目,ニシネング 1,NISHINENGU 1,,37.478034,139.922523
館馬町,タテウママチ,TATEUMAMACHI,,37.480502,139.922798
南花畑,ミナミハナバタケ,MINAMIHANABATAKE,,37.485098,139.922464
館脇町,タテワキマチ,TATEWAKIMACHI,,37.481666,139.918979
門田町大字日吉,,,,37.477046,139.915244
桜町,サクラマチ,SAKURAMACHI,,37.480319,139.911671
北会津町上米塚,キタアイヅマチカミヨネヅカ,KITAAIZUMACHI KAMIYONEZUKA,,37.465665,139.896514
北会津町三本松,キタアイヅマチサンボンマツ,KITAAIZUMACHI SAMBOMMATSU,,37.475205,139.894737
北会津町両堂,キタアイヅマチリョウドウ,KITAAIZUMACHI RYODO,,37.475974,139.883475
湯川南,ユガワミナミ,YUGAWAMINAMI,,37.48588,139.947004
花見ケ丘一丁目,ハナミガオカ 1,HANAMIGAOKA 1,,37.485787,139.941559
花見ケ丘二丁目,ハナミガオカ 2,HANAMIGAOKA 2,,37.486039,139.944185
宝町,タカラマチ,TAKARAMACHI,,37.487243,139.940663
天寧寺町,テンネイジマチ,TENNEIJIMACHI,,37.488421,139.947093
城西町,ジョウサイマチ,JOSAIMACHI,,37.484133,139.91595
湯川町,ユガワマチ,YUGAWAMACHI,,37.488795,139.918804
川原町,カワラマチ,KAWARAMACHI,,37.488574,139.915687
七日町,ナノカマチ,NANOKAMACHI,,37.500799,139.922182
本町,ホンマチ,HOMMACHI,,37.49352,139.918832
日新町,ニッシンマチ,NISSHIMMACHI,,37.497513,139.920591
新横町,シンヨコマチ,SHINYOKOMACHI,,37.491511,139.916117
緑町,ミドリマチ,MIDORIMACHI,,37.495372,139.913543
八日町,ヨウカマチ,YOKAMACHI,,37.499921,139.915891
材木町一丁目,ザイモクマチ 1,ZAIMOKUMACHI 1,,37.487745,139.911834
日吉町,ヒヨシマチ,HIYOSHIMACHI,,37.489987,139.909167
幕内東町,マクウチヒガシマチ,MAKUCHIHIGASHIMACHI,,37.489823,139.905718
御旗町,オハタマチ,OHATAMACHI,,37.492985,139.911144
柳原町一丁目,ヤナギワラマチ 1,YANAGIWARAMACHI 1,,37.49271,139.906644
柳原町二丁目,ヤナギワラマチ 2,YANAGIWARAMACHI 2,,37.495016,139.907108
柳原町四丁目,ヤナギワラマチ 4,YANAGIWARAMACHI 4,,37.493363,139.904122
柳原町三丁目,ヤナギワラマチ 3,YANAGIWARAMACHI 3,,37.496511,139.904147
北会津町下米塚,キタアイヅマチシモヨネヅカ,KITAAIZUMACHI SHIMOYONEZUKA,,37.485153,139.886658
北会津町柏原,キタアイヅマチカシワバラ,KITAAIZUMACHI KASHIWABARA,,37.481042,139.878087
北会津町古麻生,キタアイヅマチフルアソウ,KITAAIZUMACHI FURUASO,,37.472921,139.868055
北会津町麻生新田,キタアイヅマチアソウシンデン,KITAAIZUMACHI ASOSHINDEN,,37.479838,139.858329
北会津町西後庵,キタアイヅマチニシゴアン,KITAAIZUMACHI NISHIGOAN,,37.464816,139.865594
北会津町大島,キタアイヅマチオオシマ,KITAAIZUMACHI OSHIMA,,37.474455,139.862399
北会津町今和泉,キタアイヅマチイマイズミ,KITAAIZUMACHI IMAIZUMI,,37.493763,139.864839
北会津町天満,キタアイヅマチテンマン,KITAAIZUMACHI TEMMAN,,37.484703,139.854686
北会津町寺堀,キタアイヅマチテラボリ,KITAAIZUMACHI TERABORI,,37.489089,139.861321
北会津町鷺林,キタアイヅマチサギバヤシ,KITAAIZUMACHI SAGIBAYASHI,,37.497337,139.855473
北会津町宮袋,キタアイヅマチミヤブクロ,KITAAIZUMACHI MIYABUKURO,,37.488721,139.854607
北会津町宮袋新田,キタアイヅマチミヤブクロシンデン,KITAAIZUMACHI MIYABUKUROSHINDEN,,37.496471,139.845129
神指町東城戸,コウザシマチヒガシキド,KOZASHIMACHI HIGASHIKIDO,,37.508937,139.905173
神指町高瀬新田,コウザシマチタカセシンデン,KOZASHIMACHI TAKASESHINDEN,,37.516659,139.900338
神指町本丸,コウザシマチホンマル,KOZASHIMACHI HOMMARU,,37.510901,139.892453
神指町如来堂,コウザシマチニョライドウ,KOZASHIMACHI NYORAIDO,,37.509025,139.891523
神指町高瀬,コウザシマチタカセ,KOZASHIMACHI TAKASE,,37.51571,139.895755
神指町上神指,コウザシマチカミコウザシ,KOZASHIMACHI KAMIKOZASHI,,37.517625,139.888206
神指町榎木檀,コウザシマチエノキダン,KOZASHIMACHI ENOKIDAN,,37.52176,139.895046
神指町東神指,コウザシマチヒガシコウザシ,KOZASHIMACHI HIGASHIKOZASHI,,37.521733,139.891241
神指町天満,コウザシマチテンマン,KOZASHIMACHI TEMMAN,,37.504421,139.899225
神指町小見,コウザシマチオミ,KOZASHIMACHI OMI,,37.504297,139.893833
神指町下神指,コウザシマチシモコウザシ,KOZASHIMACHI SHIMOKOZASHI,,37.527571,139.884098
神指町横沼,コウザシマチヨコヌマ,KOZASHIMACHI YOKONUMA,,37.530025,139.883058
大塚一丁目,オオツカ 1,OTSUKA 1,,37.515192,139.951393
大塚二丁目,オオツカ 2,OTSUKA 2,,37.515607,139.948037
北滝沢一丁目,キタタキザワ 1,KITATAKIZAWA 1,,37.512628,139.951044
中島町,ナカジママチ,NAKAJIMAMACHI,,37.509968,139.950408
北滝沢二丁目,キタタキザワ 2,KITATAKIZAWA 2,,37.512088,139.947506
山見町,ヤマミマチ,YAMAMIMACHI,,37.508085,139.941666
白虎町,ビャッコマチ,BYAKKOMACHI,,37.508691,139.935195
扇町,オオギマチ,OGIMACHI,,37.512517,139.934483
中央三丁目,チュウオウ 3,CHUO 3,,37.505198,139.932715
駅前町,エキマエマチ,EKIMAEMACHI,,37.508953,139.930528
石堂町,イシドウマチ,ISHIDOMACHI,,37.50798,139.927823
町北町大字石堂,,,,37.509333,139.924848
河東町広田,カワヒガシマチヒロタ,KAWAHIGASHIMACHI HIROTA,,37.545888,139.928158
高野町上沼,コウヤマチウワヌマ,KOYAMACHI UWANUMA,,37.541445,139.919211
高野町橋本木流,コウヤマチハシモトキナガシ,KOYAMACHI HASHIMOTOKINAGASHI,,37.543496,139.914069
河東町南高野,カワヒガシマチミナミコウヤ,KAWAHIGASHIMACHI MINAMIKOYA,,37.556571,139.938341
河東町熊野堂,カワヒガシマチクマノドウ,KAWAHIGASHIMACHI KUMANODO,,37.56014,139.920149
河東町倉橋,カワヒガシマチクラハシ,KAWAHIGASHIMACHI KURAHASHI,,37.533857,139.92712
高野町平塚,コウヤマチヒラツカ,KOYAMACHI HIRATSUKA,,37.538392,139.915577
高野町中前田,コウヤマチナカマエダ,KOYAMACHI NAKAMAEDA,,37.527731,139.928622
インター西,インターニシ,INTANISHI,,37.524294,139.914748
高野町大字中沼,,,,37.533129,139.914572
高野町大字上高野,,,,37.526997,139.907211
町北町中沢西,マチキタマチナカサワニシ,MACHIKITAMACHI NAKASAWANISHI,,37.514505,139.902683
神指町大字高瀬,,,,37.513716,139.898131
町北町大字中沢,,,,37.521646,139.901622
高野町大字柳川,,,,37.538502,139.899657
高野町大字木流,,,,37.54367,139.907333
河東町郡山,カワヒガシマチコオリヤマ,KAWAHIGASHIMACHI KORIYAMA,,37.550523,139.91911
河東町谷沢,カワヒガシマチタニサワ,KAWAHIGASHIMACHI TANISAWA,,37.555284,139.907933
高野町大字界沢,,,,37.540474,139.888879
河東町代田,カワヒガシマチヨダ,KAWAHIGASHIMACHI YODA,,37.563822,139.903638
一箕町松長六丁目,イッキマチマツナガ 6,IKKIMACHI MATSUNAGA 6,,37.525354,139.959963
一箕町松長三丁目,イッキマチマツナガ 3,IKKIMACHI MATSUNAGA 3,,37.528735,139.956806
一箕町松長四丁目,イッキマチマツナガ 4,IKKIMACHI MATSUNAGA 4,,37.527045,139.958166
一箕町松長五丁目,イッキマチマツナガ 5,IKKIMACHI MATSUNAGA 5,,37.5279,139.962582
一箕町松長二丁目,イッキマチマツナガ 2,IKKIMACHI MATSUNAGA 2,,37.528042,139.953247
一箕町松長一丁目,イッキマチマツナガ 1,IKKIMACHI MATSUNAGA 1,,37.531654,139.956755
真宮新町南一丁目,マミヤシンマチミナミ 1,MAMIYASHIMMACHIMINAMI 1,,37.513302,139.876764
真宮新町南三丁目,マミヤシンマチミナミ 3,MAMIYASHIMMACHIMINAMI 3,,37.51808,139.874987
真宮新町南二丁目,マミヤシンマチミナミ 2,MAMIYASHIMMACHIMINAMI 2,,37.51777,139.877211
神指町大字高久,,,,37.540348,139.877701
橋本二丁目,ハシモト 2,HASHIMOTO 2,,37.504283,139.911104
橋本一丁目,ハシモト 1,HASHIMOTO 1,,37.504886,139.912472
河東町金田,カワヒガシマチカネダ,KAWAHIGASHIMACHI KANEDA,,37.542192,139.951616
河東町浅山,カワヒガシマチアサヤマ,KAWAHIGASHIMACHI ASAYAMA,,37.54853,139.940706
河東町大田原,カワヒガシマチオオタワラ,KAWAHIGASHIMACHI OTAWARA,,37.571438,139.922995
河東町岡田,カワヒガシマチオカダ,KAWAHIGASHIMACHI OKADA,,37.574857,139.913725
河東町福島,カワヒガシマチフクシマ,KAWAHIGASHIMACHI FUKUSHIMA,,37.574468,139.902507
町北町大字藤室,,,,37.513502,139.9163
一箕町大字松長,,,,37.522689,139.956563
堤町,ツツミマチ,TSUTSUMIMACHI,,37.517847,139.950891
居合町,イアワセマチ,IAWASEMACHI,,37.518981,139.947567
鶴賀町,ツルガマチ,TSURUGAMACHI,,37.523059,139.946211
一箕町大字亀賀,,,,37.516543,139.939368
町北町大字上荒久田,,,,37.516423,139.926879
町北町谷地,マチキタマチヤチ,MACHIKITAMACHI YACHI,,37.520701,139.931706
町北町大字始,,,,37.521322,139.922384
一箕町大字鶴賀,,,,37.524787,139.940449
河東町東長原,カワヒガシマチヒガシナガハラ,KAWAHIGASHIMACHI HIGASHINAGAHARA,,37.564436,139.948156
河東町広野,カワヒガシマチコウヤ,KAWAHIGASHIMACHI KOYA,,37.566561,139.934229
北会津町白山,キタアイヅマチハクサン,KITAAIZUMACHI HAKUSAN,,37.510927,139.866145
北会津町中里,キタアイヅマチナカザト,KITAAIZUMACHI NAKAZATO,,37.514204,139.867537
北会津町舘,キタアイヅマチタテ,KITAAIZUMACHI TATE,,37.51615,139.855389
北会津町安良田,キタアイヅマチアラタ,KITAAIZUMACHI ARATA,,37.5098,139.854064
北会津町宮ノ下,キタアイヅマチミヤノシタ,KITAAIZUMACHI MIYANOSHITA,,37.513715,139.850093
北会津町石原,キタアイヅマチイシハラ,KITAAIZUMACHI ISHIHARA,,37.516142,139.861543
真宮新町北三丁目,マミヤシンマチキタ 3,MAMIYASHIMMACHIKITA 3,,37.528325,139.868428
北会津町田村山,キタアイヅマチタムラヤマ,KITAAIZUMACHI TAMURAYAMA,,37.521466,139.860151
北会津町出尻,キタアイヅマチイデジリ,KITAAIZUMACHI IDEJIRI,,37.520114,139.852359
北会津町和泉,キタアイヅマチイズミ,KITAAIZUMACHI IZUMI,,37.525882,139.853042
神指町大字北四合,,,,37.524884,139.886989
材木町二丁目,ザイモクマチ 2,ZAIMOKUMACHI 2,,37.484004,139.911439
飯寺北一丁目,ニイデラキタ 1,NIIDERAKITA 1,,37.4839,139.908064
神指町大字南四合,,,,37.491255,139.897416
門田町大字飯寺,,,,37.474274,139.904489
幕内南町,マクウチミナミマチ,MAKUCHIMINAMIMACHI,,37.484176,139.904656
門田町大字徳久,,,,37.469521,139.915919
門田町工業団地,モンデンマチコウギョウダンチ,MONDEMMACHI KOGYODANCHI,,37.466708,139.910322
住吉町,スミヨシマチ,SUMIYOSHIMACHI,,37.48674,139.906658
門田町根岸東,モンデンマチネギシヒガシ,MONDEMMACHI NEGISHIHIGASHI,,37.449298,139.921667
門田町堤沢,モンデンマチツツミザワ,MONDEMMACHI TSUTSUMIZAWA,,37.455844,139.923984
北会津町宮袋,キタアイヅマチミヤブクロ,KITAAIZUMACHI MIYABUKURO,舘ノ内,37.488887,139.852585
北会津町田村山,キタアイヅマチタムラヤマ,KITAAIZUMACHI TAMURAYAMA,塚越,37.521727,139.861285
北会津町寺堀,キタアイヅマチテラボリ,KITAAIZUMACHI TERABORI,四百苅,37.489789,139.863183
北会津町下荒井,キタアイヅマチシモアライ,KITAAIZUMACHI SHIMOARAI,八幡前,37.50796,139.867359
北会津町下荒井,キタアイヅマチシモアライ,KITAAIZUMACHI SHIMOARAI,上ノ台,37.502017,139.86738
北会津町下荒井,キタアイヅマチシモアライ,KITAAIZUMACHI SHIMOARAI,矢倉林,37.498466,139.869851
北会津町東麻生,キタアイヅマチヒガシアソウ,KITAAIZUMACHI HIGASHIASO,宮田,37.485684,139.870473
北会津町下荒井,キタアイヅマチシモアライ,KITAAIZUMACHI SHIMOARAI,中里前,37.509252,139.871918
北会津町中荒井,キタアイヅマチナカアライ,KITAAIZUMACHI NAKAARAI,西舘,37.495662,139.872273
北会津町中荒井,キタアイヅマチナカアライ,KITAAIZUMACHI NAKAARAI,宮西,37.493058,139.873722
北会津町真宮,キタアイヅマチマミヤ,KITAAIZUMACHI MAMIYA,真渡,37.516692,139.87368
北会津町中荒井,キタアイヅマチナカアライ,KITAAIZUMACHI NAKAARAI,諏訪前,37.491375,139.874015
北会津町中荒井,キタアイヅマチナカアライ,KITAAIZUMACHI NAKAARAI,墓前,37.497709,139.874961
北会津町中荒井,キタアイヅマチナカアライ,KITAAIZUMACHI NAKAARAI,梁場,37.496426,139.875028
神指町大字高久,,,高久,37.539175,139.877469
北会津町真宮,キタアイヅマチマミヤ,KITAAIZUMACHI MAMIYA,礫,37.512409,139.875073
神指町大字高久,,,北條,37.543169,139.876821
北会津町蟹川,キタアイヅマチカニカワ,KITAAIZUMACHI KANIKAWA,小出,37.502768,139.875503
北会津町新在家,キタアイヅマチシンザイケ,KITAAIZUMACHI SHINZAIKE,西川端,37.470441,139.877221
北会津町蟹川,キタアイヅマチカニカワ,KITAAIZUMACHI KANIKAWA,小出分,37.502666,139.876593
北会津町中荒井,キタアイヅマチナカアライ,KITAAIZUMACHI NAKAARAI,中川原,37.49364,139.878333
北会津町蟹川,キタアイヅマチカニカワ,KITAAIZUMACHI KANIKAWA,川崎,37.50386,139.879373
北会津町両堂,キタアイヅマチリョウドウ,KITAAIZUMACHI RYODO,大泉,37.473852,139.878788
北会津町小松,キタアイヅマチコマツ,KITAAIZUMACHI KOMATSU,北面,37.470877,139.87948
北会津町蟹川,キタアイヅマチカニカワ,KITAAIZUMACHI KANIKAWA,上川崎,37.512738,139.880374
神指町大字高久,,,東高久,37.543254,139.881798
北会津町蟹川,キタアイヅマチカニカワ,KITAAIZUMACHI KANIKAWA,村東,37.502785,139.882235
神指町大字北四合,,,伊丹堂,37.523402,139.882506
北会津町二日町,キタアイヅマチフツカマチ,KITAAIZUMACHI FUTSUKAMACHI,下川原,37.496383,139.881778
北会津町下米塚,キタアイヅマチシモヨネヅカ,KITAAIZUMACHI SHIMOYONEZUKA,小姓,37.48436,139.883933
神指町下神指,コウザシマチシモコウザシ,KOZASHIMACHI SHIMOKOZASHI,若干泥,37.527189,139.884514
神指町大字北四合,,,横沼前丙,37.529968,139.884026
北会津町両堂,キタアイヅマチリョウドウ,KITAAIZUMACHI RYODO,宮ノ下,37.474279,139.886025
北会津町下米塚,キタアイヅマチシモヨネヅカ,KITAAIZUMACHI SHIMOYONEZUKA,宮の腰,37.482065,139.884918
北会津町下米塚,キタアイヅマチシモヨネヅカ,KITAAIZUMACHI SHIMOYONEZUKA,古屋敷,37.481513,139.888658
神指町大字北四合,,,堂ノ下丁,37.528483,139.886036
北会津町東小松,キタアイヅマチヒガシコマツ,KITAAIZUMACHI HIGASHIKOMATSU,舘ノ内,37.471913,139.886636
神指町大字北四合,,,東神指,37.522878,139.887442
神指町大字北四合,,,下吉六甲,37.51754,139.888367
北会津町東小松,キタアイヅマチヒガシコマツ,KITAAIZUMACHI HIGASHIKOMATSU,北古川,37.47474,139.88846
神指町大字北四合,,,横沼東,37.528115,139.888376
高野町大字界沢,,,村西,37.537127,139.888819
北会津町東小松,キタアイヅマチヒガシコマツ,KITAAIZUMACHI HIGASHIKOMATSU,南古川,37.472793,139.891325
高野町大字界沢,,,界沢,37.542342,139.890406
神指町大字北四合,,,榎木檀,37.525641,139.891587
神指町大字北四合,,,小二百苅乙,37.52166,139.890553
北会津町下米塚,キタアイヅマチシモヨネヅカ,KITAAIZUMACHI SHIMOYONEZUKA,高田街道上,37.479639,139.891495
神指町大字中四合,,,村添丁,37.509508,139.891836
神指町高瀬,コウザシマチタカセ,KOZASHIMACHI TAKASE,大田,37.51117,139.892718
神指町大字南四合,,,才ノ神,37.499694,139.896248
神指町大字北四合,,,榎木下乙,37.523197,139.892891
神指町高瀬,コウザシマチタカセ,KOZASHIMACHI TAKASE,五百地,37.514374,139.893675
高野町大字柳川,,,吉田,37.536673,139.893904
神指町大字中四合,,,小見前,37.501762,139.895213
北会津町三本松,キタアイヅマチサンボンマツ,KITAAIZUMACHI SAMBOMMATSU,中大川向,37.475233,139.894517
神指町高瀬,コウザシマチタカセ,KOZASHIMACHI TAKASE,高瀬,37.515483,139.895651
河東町福島,カワヒガシマチフクシマ,KAWAHIGASHIMACHI FUKUSHIMA,西屋敷,37.570144,139.898435
神指町大字南四合,,,深川西,37.493572,139.896067
高野町大字柳川,,,森台,37.543789,139.897823
神指町大字中四合,,,寺西,37.503779,139.896207
神指町大字南四合,,,幕内西,37.48872,139.897269
河東町代田,カワヒガシマチヨダ,KAWAHIGASHIMACHI YODA,戌亥,37.566414,139.90266
神指町高瀬,コウザシマチタカセ,KOZASHIMACHI TAKASE,大道東,37.518408,139.9004
河東町代田,カワヒガシマチヨダ,KAWAHIGASHIMACHI YODA,大坪,37.563109,139.899695
神指町大字南四合,,,深川,37.493362,139.899438
神指町大字中四合,,,宮西,37.506632,139.897954
神指町高瀬,コウザシマチタカセ,KOZASHIMACHI TAKASE,滑田,37.517636,139.899303
高野町大字柳川,,,下高野,37.536233,139.90199
神指町大字南四合,,,深川東,37.496557,139.899456
神指町大字南四合,,,幕内,37.489077,139.901806
神指町大字中四合,,,村東甲,37.504813,139.901729
門田町大字飯寺,,,村西,37.477621,139.904506
町北町大字中沢,,,中地,37.52464,139.902456
河東町代田,カワヒガシマチヨダ,KAWAHIGASHIMACHI YODA,代田,37.562078,139.903776
神指町大字南四合,,,幕内北,37.492446,139.902393
神指町大字南四合,,,幕内南,37.485181,139.901728
町北町大字中沢,,,新田,37.515407,139.902772
神指町大字南四合,,,柳原,37.495074,139.902035
河東町福島,カワヒガシマチフクシマ,KAWAHIGASHIMACHI FUKUSHIMA,大曲,37.570205,139.904745
門田町大字飯寺,,,上川原,37.468777,139.90568
河東町代田,カワヒガシマチヨダ,KAWAHIGASHIMACHI YODA,北畑,37.568015,139.905524
高野町大字木流,,,木流,37.543853,139.905517
町北町大字中沢,,,平沢,37.516663,139.907627
神指町大字中四合,,,千苅,37.501875,139.904337
河東町福島,カワヒガシマチフクシマ,KAWAHIGASHIMACHI FUKUSHIMA,島原,37.579608,139.908565
門田町大字飯寺,,,村東,37.47498,139.906677
神指町大字黒川,,,三ツ谷甲,37.505113,139.904741
神指町大字黒川,,,村南,37.507417,139.904877
大戸町大字芦牧,,,下タ平,37.366356,139.912114
高野町大字木流,,,橋本,37.54279,139.911683
高野町橋本木流,コウヤマチハシモトキナガシ,KOYAMACHI HASHIMOTOKINAGASHI,町畑,37.544351,139.912155
神指町大字黒川,,,三ツ谷前甲,37.505053,139.905434
河東町谷沢,カワヒガシマチタニサワ,KAWAHIGASHIMACHI TANISAWA,十文字,37.554065,139.907841
神指町大字黒川,,,村前,37.507214,139.906352
神指町大字黒川,,,城戸前,37.506773,139.905748
河東町谷沢,カワヒガシマチタニサワ,KAWAHIGASHIMACHI TANISAWA,高畑,37.557439,139.907964
高野町大字中沼,,,鶴沼,37.535618,139.908366
河東町谷沢,カワヒガシマチタニサワ,KAWAHIGASHIMACHI TANISAWA,沢目,37.55938,139.90724
高野町大字上高野,,,村内,37.526745,139.909241
門田町大字一ノ堰,,,土手外,37.462613,139.908399
高野町大字上高野,,,村前,37.522893,139.91015
神指町大字黒川,,,芦野,37.506974,139.908309
門田町大字徳久,,,竹之元,37.470788,139.914037
神指町大字黒川,,,石上,37.511743,139.909535
大戸町大字芦牧,,,壇ノ下,37.365411,139.910859
河東町谷沢,カワヒガシマチタニサワ,KAWAHIGASHIMACHI TANISAWA,京手,37.558452,139.911647
門田町大字一ノ堰,,,村西,37.459082,139.910638
門田町大字日吉,,,丑渕,37.476956,139.911487
河東町岡田,カワヒガシマチオカダ,KAWAHIGASHIMACHI OKADA,岡谷地,37.573773,139.910337
河東町郡山,カワヒガシマチコオリヤマ,KAWAHIGASHIMACHI KORIYAMA,西原,37.547113,139.910685
神指町大字黒川,,,湯川東,37.508701,139.912921
河東町岡田,カワヒガシマチオカダ,KAWAHIGASHIMACHI OKADA,方便,37.574759,139.918779
町北町大字藤室,,,横道,37.515954,139.911388
門田町大字面川,,,花坂,37.44589,139.914192
河東町郡山,カワヒガシマチコオリヤマ,KAWAHIGASHIMACHI KORIYAMA,本宮,37.552626,139.911078
河東町大田原,カワヒガシマチオオタワラ,KAWAHIGASHIMACHI OTAWARA,高水口,37.567631,139.912609
河東町福島,カワヒガシマチフクシマ,KAWAHIGASHIMACHI FUKUSHIMA,簗前,37.580946,139.911831
河東町福島,カワヒガシマチフクシマ,KAWAHIGASHIMACHI FUKUSHIMA,東面,37.580056,139.914448
河東町郡山,カワヒガシマチコオリヤマ,KAWAHIGASHIMACHI KORIYAMA,南保子田,37.547908,139.911833
町北町大字藤室,,,藤室,37.51199,139.916815
河東町郡山,カワヒガシマチコオリヤマ,KAWAHIGASHIMACHI KORIYAMA,村東,37.553874,139.912251
町北町大字藤室,,,道下,37.518382,139.914141
高野町大字中沼,,,下沼木,37.53325,139.912406
町北町大字藤室,,,達摩,37.516376,139.914236
大戸町大字小谷,,,湯ノ平,37.370481,139.917522
高野町大字中沼,,,沼木,37.530794,139.915011
高野町大字中沼,,,西坂才甲,37.533894,139.914388
河東町郡山,カワヒガシマチコオリヤマ,KAWAHIGASHIMACHI KORIYAMA,二本杉,37.548667,139.915874
門田町大字面川,,,荒町,37.435993,139.914818
門田町大字日吉,,,笊籬田,37.477309,139.915204
河東町大田原,カワヒガシマチオオタワラ,KAWAHIGASHIMACHI OTAWARA,村中,37.565907,139.917103
高野町大字中沼,,,中坂才甲,37.534267,139.915807
門田町大字一ノ堰,,,羽黒前,37.446883,139.915678
門田町大字面川,,,中島,37.441854,139.914186
町北町大字始,,,宮前,37.518352,139.916511
門田町大字一ノ堰,,,村東,37.462548,139.915225
河東町郡山,カワヒガシマチコオリヤマ,KAWAHIGASHIMACHI KORIYAMA,北郡,37.5501,139.916395
河東町熊野堂,カワヒガシマチクマノドウ,KAWAHIGASHIMACHI KUMANODO,櫓,37.563101,139.916756
町北町大字始,,,中ノ明,37.515895,139.916991
門田町大字面川,,,館堀,37.434037,139.919012
高野町大字中沼,,,堰前,37.527485,139.918367
河東町郡山,カワヒガシマチコオリヤマ,KAWAHIGASHIMACHI KORIYAMA,古宮,37.547973,139.917842
門田町大字面川,,,根岸,37.44737,139.922269
町北町大字始,,,屋敷,37.52236,139.91944
河東町大田原,カワヒガシマチオオタワラ,KAWAHIGASHIMACHI OTAWARA,村東,37.567865,139.921921
門田町大字面川,,,清水上,37.437225,139.918505
門田町大字日吉,,,小金井,37.477826,139.919703
河東町郡山,カワヒガシマチコオリヤマ,KAWAHIGASHIMACHI KORIYAMA,金道,37.553531,139.924324
河東町熊野堂,カワヒガシマチクマノドウ,KAWAHIGASHIMACHI KUMANODO,村内,37.561208,139.920741
高野町大字中沼,,,四百苅乙,37.530801,139.919173
河東町大田原,カワヒガシマチオオタワラ,KAWAHIGASHIMACHI OTAWARA,鴨田,37.57192,139.923031
高野町大字中沼,,,沼川沿,37.529732,139.919751
町北町大字始,,,観音前,37.517489,139.92024
門田町大字中野,,,村南,37.46951,139.920179
門田町大字中野,,,屋敷,37.471067,139.922625
河東町熊野堂,カワヒガシマチクマノドウ,KAWAHIGASHIMACHI KUMANODO,原田,37.55726,139.921304
門田町大字堤沢,,,道西,37.456619,139.920991
門田町大字面川,,,上野,37.43959,139.920128
町北町大字始,,,見島,37.524942,139.922732
門田町大字中野,,,村北,37.473295,139.921549
門田町大字中野,,,大道西,37.465783,139.921639
町北町大字藤室,,,藤室南,37.508055,139.921365
門田町大字御山,,,村上,37.462846,139.925846
河東町大田原,カワヒガシマチオオタワラ,KAWAHIGASHIMACHI OTAWARA,柏原,37.574281,139.924629
町北町大字始,,,根柄,37.524293,139.921659
町北町大字上荒久田,,,宮下,37.5174,139.924523
門田町大字堤沢,,,下村,37.452013,139.924067
門田町大字堤沢,,,中田,37.456771,139.923236
町北町大字始,,,深町,37.521148,139.923626
門田町大字堤沢,,,北村,37.458372,139.927368
門田町大字中野,,,大道東,37.465013,139.922579
河東町郡山,カワヒガシマチコオリヤマ,KAWAHIGASHIMACHI KORIYAMA,一揆塚,37.549216,139.922878
町北町大字始,,,下荒久田,37.522846,139.924415
門田町大字御山,,,村中,37.464425,139.928042
河東町熊野堂,カワヒガシマチクマノドウ,KAWAHIGASHIMACHI KUMANODO,南原,37.556665,139.924879
門田町大字御山,,,村下,37.468323,139.927255
門田町大字年貢町,,,大道東,37.470523,139.924486
町北町大字石堂,,,赤丘,37.509841,139.92474
町北町大字始,,,北台,37.520294,139.926342
河東町広野,カワヒガシマチコウヤ,KAWAHIGASHIMACHI KOYA,割石,37.56492,139.926906
河東町倉橋,カワヒガシマチクラハシ,KAWAHIGASHIMACHI KURAHASHI,難波,37.537478,139.92916
河東町大田原,カワヒガシマチオオタワラ,KAWAHIGASHIMACHI OTAWARA,堂島,37.576092,139.925588
河東町郡山,カワヒガシマチコオリヤマ,KAWAHIGASHIMACHI KORIYAMA,休ミ石,37.551683,139.925781
河東町広田,カワヒガシマチヒロタ,KAWAHIGASHIMACHI HIROTA,田中原,37.539403,139.926209
河東町郡山,カワヒガシマチコオリヤマ,KAWAHIGASHIMACHI KORIYAMA,中子山,37.549583,139.926436
町北町大字上荒久田,,,崖下,37.51292,139.925528
河東町倉橋,カワヒガシマチクラハシ,KAWAHIGASHIMACHI KURAHASHI,藤倉,37.532748,139.932342
門田町大字堤沢,,,上村,37.4517,139.927029
河東町広田,カワヒガシマチヒロタ,KAWAHIGASHIMACHI HIROTA,六丁,37.544279,139.92827
町北町大字上荒久田,,,村北,37.518432,139.928149
門田町大字御山,,,樋越,37.464798,139.926894
町北町大字上荒久田,,,石尻,37.513457,139.926725
一箕町大字鶴賀,,,村西,37.524764,139.932085
河東町熊野堂,カワヒガシマチクマノドウ,KAWAHIGASHIMACHI KUMANODO,山神,37.568335,139.927892
町北町大字上荒久田,,,古屋敷,37.514923,139.928535
河東町金田,カワヒガシマチカネダ,KAWAHIGASHIMACHI KANEDA,古宮,37.539926,139.928347
河東町広田,カワヒガシマチヒロタ,KAWAHIGASHIMACHI HIROTA,横堀,37.550477,139.930764
河東町広田,カワヒガシマチヒロタ,KAWAHIGASHIMACHI HIROTA,沢目,37.547563,139.929352
河東町南高野,カワヒガシマチミナミコウヤ,KAWAHIGASHIMACHI MINAMIKOYA,向原,37.551303,139.930512
町北町大字上荒久田,,,鈴木新田,37.521418,139.92869
町北町大字上荒久田,,,畑村東,37.51347,139.929101
河東町広田,カワヒガシマチヒロタ,KAWAHIGASHIMACHI HIROTA,広田,37.549452,139.932457
河東町広田,カワヒガシマチヒロタ,KAWAHIGASHIMACHI HIROTA,塩新,37.543571,139.931978
河東町倉橋,カワヒガシマチクラハシ,KAWAHIGASHIMACHI KURAHASHI,倉道,37.53035,139.934509
河東町倉橋,カワヒガシマチクラハシ,KAWAHIGASHIMACHI KURAHASHI,槻木,37.530905,139.929466
河東町広野,カワヒガシマチコウヤ,KAWAHIGASHIMACHI KOYA,光森前,37.56347,139.930447
町北町大字上荒久田,,,鈴木,37.517416,139.93033
河東町広野,カワヒガシマチコウヤ,KAWAHIGASHIMACHI KOYA,俵早稲田,37.56425,139.931647
河東町広野,カワヒガシマチコウヤ,KAWAHIGASHIMACHI KOYA,北高野,37.571248,139.932947
河東町広野,カワヒガシマチコウヤ,KAWAHIGASHIMACHI KOYA,冬木沢,37.562548,139.932455
門田町大字黒岩,,,大坪,37.47405,139.93317
河東町南高野,カワヒガシマチミナミコウヤ,KAWAHIGASHIMACHI MINAMIKOYA,南高野,37.555829,139.933927
河東町金田,カワヒガシマチカネダ,KAWAHIGASHIMACHI KANEDA,塩庭,37.54274,139.936289
一箕町大字亀賀,,,川西,37.518812,139.933997
一箕町大字鶴賀,,,下柳原,37.52273,139.933542
門田町大字御山,,,中村,37.46174,139.932917
一箕町大字亀賀,,,村前,37.515811,139.934389
門田町大字黒岩,,,石高,37.470341,139.936598
河東町東長原,カワヒガシマチヒガシナガハラ,KAWAHIGASHIMACHI HIGASHINAGAHARA,原田,37.559681,139.937437
門田町大字御山,,,館ノ内,37.463562,139.933548
門田町大字御山,,,三島,37.465822,139.934603
河東町広野,カワヒガシマチコウヤ,KAWAHIGASHIMACHI KOYA,日吉,37.563742,139.934605
河東町広田,カワヒガシマチヒロタ,KAWAHIGASHIMACHI HIROTA,堤,37.551831,139.934064
門田町大字御山,,,館山甲,37.454131,139.940175
河東町広田,カワヒガシマチヒロタ,KAWAHIGASHIMACHI HIROTA,堤西,37.552637,139.933934
門田町大字御山,,,三分一,37.469136,139.935568
一箕町大字亀賀,,,北柳原,37.520822,139.934592
門田町大字黒岩,,,南青木,37.47669,139.936341
河東町浅山,カワヒガシマチアサヤマ,KAWAHIGASHIMACHI ASAYAMA,仲田,37.547709,139.935465
河東町広野,カワヒガシマチコウヤ,KAWAHIGASHIMACHI KOYA,浮世段,37.567056,139.938594
河東町広野,カワヒガシマチコウヤ,KAWAHIGASHIMACHI KOYA,茶臼森,37.567247,139.936836
門田町大字黒岩,,,若宮,37.473741,139.937193
河東町広田,カワヒガシマチヒロタ,KAWAHIGASHIMACHI HIROTA,堤東,37.553024,139.936669
一箕町大字鶴賀,,,上居合,37.522169,139.940742
河東町広田,カワヒガシマチヒロタ,KAWAHIGASHIMACHI HIROTA,東,37.552021,139.938614
一箕町大字亀賀,,,郷之原,37.518214,139.941248
河東町南高野,カワヒガシマチミナミコウヤ,KAWAHIGASHIMACHI MINAMIKOYA,小松原,37.557508,139.93869
一箕町大字亀賀,,,藤原,37.513654,139.940455
一箕町大字鶴賀,,,船ケ森西,37.525495,139.941678
河東町東長原,カワヒガシマチヒガシナガハラ,KAWAHIGASHIMACHI HIGASHINAGAHARA,東高野,37.556781,139.950589
河東町浅山,カワヒガシマチアサヤマ,KAWAHIGASHIMACHI ASAYAMA,伊勢前,37.551972,139.939943
河東町浅山,カワヒガシマチアサヤマ,KAWAHIGASHIMACHI ASAYAMA,北山,37.551367,139.941581
河東町金田,カワヒガシマチカネダ,KAWAHIGASHIMACHI KANEDA,駒板,37.540097,139.942634
一箕町大字鶴賀,,,船ケ森北,37.52714,139.942369
門田町大字黒岩,,,嫋竹ケ丘,37.478648,139.940598
河東町浅山,カワヒガシマチアサヤマ,KAWAHIGASHIMACHI ASAYAMA,戌亥,37.552723,139.940632
河東町南高野,カワヒガシマチミナミコウヤ,KAWAHIGASHIMACHI MINAMIKOYA,葉山,37.555358,139.944205
河東町広田,カワヒガシマチヒロタ,KAWAHIGASHIMACHI HIROTA,緑ケ丘,37.554676,139.941452
河東町金田,カワヒガシマチカネダ,KAWAHIGASHIMACHI KANEDA,村前,37.538485,139.942634
河東町広野,カワヒガシマチコウヤ,KAWAHIGASHIMACHI KOYA,杉山,37.56225,139.9424
一箕町大字八幡,,,八幡,37.509373,139.944022
河東町金田,カワヒガシマチカネダ,KAWAHIGASHIMACHI KANEDA,中田,37.534671,139.943786
河東町東長原,カワヒガシマチヒガシナガハラ,KAWAHIGASHIMACHI HIGASHINAGAHARA,長谷地,37.563357,139.948397
河東町浅山,カワヒガシマチアサヤマ,KAWAHIGASHIMACHI ASAYAMA,浅野,37.547518,139.945359
一箕町大字鶴賀,,,下居合,37.526447,139.94465
河東町金田,カワヒガシマチカネダ,KAWAHIGASHIMACHI KANEDA,東台,37.536324,139.945423
河東町東長原,カワヒガシマチヒガシナガハラ,KAWAHIGASHIMACHI HIGASHINAGAHARA,空也原,37.568059,139.94646
一箕町大字八幡,,,門田,37.505768,139.946037
河東町南高野,カワヒガシマチミナミコウヤ,KAWAHIGASHIMACHI MINAMIKOYA,高塚,37.556082,139.947885
河東町金田,カワヒガシマチカネダ,KAWAHIGASHIMACHI KANEDA,古川,37.543871,139.945453
一箕町大字松長,,,下松窪,37.531569,139.947777
一箕町大字八幡,,,墓料,37.509291,139.948408
一箕町大字鶴賀,,,船ケ森,37.52826,139.945343
河東町浅山,カワヒガシマチアサヤマ,KAWAHIGASHIMACHI ASAYAMA,沼田,37.551322,139.948503
河東町浅山,カワヒガシマチアサヤマ,KAWAHIGASHIMACHI ASAYAMA,大石,37.553825,139.946382
一箕町大字鶴賀,,,船ケ森東,37.524476,139.94972
一箕町大字鶴賀,,,堤,37.519381,139.945479
河東町金田,カワヒガシマチカネダ,KAWAHIGASHIMACHI KANEDA,村中,37.544625,139.946483
一箕町大字八角,,,中村東,37.504357,139.947099
河東町金田,カワヒガシマチカネダ,KAWAHIGASHIMACHI KANEDA,金沢,37.540338,139.948762
河東町金田,カワヒガシマチカネダ,KAWAHIGASHIMACHI KANEDA,藤倉新田,37.535866,139.948382
一箕町大字八幡,,,滝沢,37.506304,139.950459
一箕町大字八幡,,,牛ケ墓,37.504571,139.949777
河東町浅山,カワヒガシマチアサヤマ,KAWAHIGASHIMACHI ASAYAMA,古寄,37.548203,139.951463
河東町東長原,カワヒガシマチヒガシナガハラ,KAWAHIGASHIMACHI HIGASHINAGAHARA,一本木,37.567187,139.948818
東山町大字石山,,,天寧,37.487343,139.951686
一箕町大字松長,,,上松窪,37.533976,139.952133
一箕町大字松長,,,下長原,37.523828,139.95393
一箕町大字松長,,,南雨沼,37.519801,139.954224
河東町金田,カワヒガシマチカネダ,KAWAHIGASHIMACHI KANEDA,上ノ山下,37.54266,139.950997
河東町浅山,カワヒガシマチアサヤマ,KAWAHIGASHIMACHI ASAYAMA,堂ケ入,37.552798,139.952026
河東町金田,カワヒガシマチカネダ,KAWAHIGASHIMACHI KANEDA,長坂,37.550782,139.95334
一箕町大字鶴賀,,,苅林,37.522822,139.952438
河東町浅山,カワヒガシマチアサヤマ,KAWAHIGASHIMACHI ASAYAMA,寄の内,37.544526,139.9523
一箕町大字八幡,,,三島,37.507889,139.953902
一箕町大字八幡,,,弁天下,37.504822,139.952684
一箕町大字八幡,,,柏木,37.516006,139.958623
一箕町大字八幡,,,堰下,37.516786,139.955346
東山町大字石山,,,院内,37.481483,139.957719
一箕町大字松長,,,上長原,37.521669,139.961202
一箕町大字八幡,,,坂下,37.506063,139.956677
河東町八田,カワヒガシマチハッタ,KAWAHIGASHIMACHI HATTA,漆沢,37.551208,139.962882
一箕町大字八幡,,,躑躅山甲,37.513174,139.965421
河東町八田,カワヒガシマチハッタ,KAWAHIGASHIMACHI HATTA,明ル坂道下,37.531473,139.961671
河東町八田,カワヒガシマチハッタ,KAWAHIGASHIMACHI HATTA,道下,37.534066,139.960691
東山町大字湯本,,,寺屋敷,37.479654,139.96153
東山町大字湯本,,,下原,37.474522,139.962324
河東町八田,カワヒガシマチハッタ,KAWAHIGASHIMACHI HATTA,前田,37.539636,139.964913
河東町八田,カワヒガシマチハッタ,KAWAHIGASHIMACHI HATTA,坂ノ上,37.540824,139.959596
一箕町大字鶴賀,,,八幡吹屋,37.518202,139.966054
一箕町大字鶴賀,,,吹屋,37.519244,139.969078
河東町八田,カワヒガシマチハッタ,KAWAHIGASHIMACHI HATTA,家西,37.537562,139.970163
河東町八田,カワヒガシマチハッタ,KAWAHIGASHIMACHI HATTA,稲荷沢,37.539324,139.969833
河東町八田,カワヒガシマチハッタ,KAWAHIGASHIMACHI HATTA,八田野,37.544566,139.974389
一箕町大字八幡,,,石ケ森,37.519711,139.974124
一箕町大字金堀,,,長坂,37.512452,139.974175
河東町八田,カワヒガシマチハッタ,KAWAHIGASHIMACHI HATTA,宮前,37.548633,139.972557
河東町八田,カワヒガシマチハッタ,KAWAHIGASHIMACHI HATTA,稲荷丁,37.5366,139.973798
河東町八田,カワヒガシマチハッタ,KAWAHIGASHIMACHI HATTA,家東,37.535753,139.974712
河東町八田,カワヒガシマチハッタ,KAWAHIGASHIMACHI HATTA,七ッ森,37.536186,139.977577
河東町八田,カワヒガシマチハッタ,KAWAHIGASHIMACHI HATTA,谷地田,37.540027,139.977412
一箕町大字金堀,,,橋本,37.511666,139.979012
河東町八田,カワヒガシマチハッタ,KAWAHIGASHIMACHI HATTA,西平,37.532437,139.979773
河東町八田,カワヒガシマチハッタ,KAWAHIGASHIMACHI HATTA,東平,37.531509,139.981162
河東町八田,カワヒガシマチハッタ,KAWAHIGASHIMACHI HATTA,横手,37.54133,139.980133
河東町八田,カワヒガシマチハッタ,KAWAHIGASHIMACHI HATTA,中坪,37.53051,139.980997
河東町八田,カワヒガシマチハッタ,KAWAHIGASHIMACHI HATTA,丸山,37.526906,139.980957
河東町八田,カワヒガシマチハッタ,KAWAHIGASHIMACHI HATTA,桜石,37.547076,139.988755
河東町八田,カワヒガシマチハッタ,KAWAHIGASHIMACHI HATTA,茱萸木原甲,37.540319,139.988824
湊町大字赤井,,,穴切,37.509802,139.990203
河東町八田,カワヒガシマチハッタ,KAWAHIGASHIMACHI HATTA,大野原,37.521804,139.99388
河東町八田,カワヒガシマチハッタ,KAWAHIGASHIMACHI HATTA,竹蕨,37.517603,139.990219
河東町八田,カワヒガシマチハッタ,KAWAHIGASHIMACHI HATTA,下ノ家,37.516273,139.990341
河東町八田,カワヒガシマチハッタ,KAWAHIGASHIMACHI HATTA,沢目,37.517796,139.991684
湊町大字赤井,,,廻戸大窪,37.506815,139.992747
湊町大字赤井,,,小坂,37.503836,139.994567
湊町大字赤井,,,赤井,37.496101,140.000112
湊町大字赤井,,,丸内,37.497296,140.002508
湊町大字赤井,,,笹山原甲,37.511601,140.012996
湊町大字赤井,,,戸ノ口,37.519286,140.019541
河東町熊野堂,カワヒガシマチクマノドウ,KAWAHIGASHIMACHI KUMANODO,高舘,37.564148,139.918693
河東町熊野堂,カワヒガシマチクマノドウ,KAWAHIGASHIMACHI KUMANODO,佛山,37.566683,139.925052
河東町南高野,カワヒガシマチミナミコウヤ,KAWAHIGASHIMACHI MINAMIKOYA,高塚山,37.557537,139.943224
河東町広田,カワヒガシマチヒロタ,KAWAHIGASHIMACHI HIROTA,長峯,37.547902,139.933611
河東町郡山,カワヒガシマチコオリヤマ,KAWAHIGASHIMACHI KORIYAMA,獅子山,37.550497,139.925524
河東町郡山,カワヒガシマチコオリヤマ,KAWAHIGASHIMACHI KORIYAMA,東,37.550448,139.923089
河東町郡山,カワヒガシマチコオリヤマ,KAWAHIGASHIMACHI KORIYAMA,中屋敷,37.550897,139.921325
河東町郡山,カワヒガシマチコオリヤマ,KAWAHIGASHIMACHI KORIYAMA,金道山,37.549962,139.921333
河東町谷沢,カワヒガシマチタニサワ,KAWAHIGASHIMACHI TANISAWA,前田,37.552687,139.908532
河東町郡山,カワヒガシマチコオリヤマ,KAWAHIGASHIMACHI KORIYAMA,村北,37.554289,139.910479
高野町大字中沼,,,東坂才甲,37.533704,139.917949
高野町大字上高野,,,畑田,37.526601,139.910835
神指町大字北四合,,,東川原,37.521566,139.897085
神指町大字北四合,,,宮ノ後乙,37.521714,139.894393
神指町大字北四合,,,夫婦檀,37.520906,139.895435
神指町大字北四合,,,宮前,37.521343,139.892498
神指町高瀬,コウザシマチタカセ,KOZASHIMACHI TAKASE,五百苅,37.517365,139.895941
神指町大字中四合,,,町道下,37.504847,139.896092
神指町大字中四合,,,若宮丙,37.504213,139.896043
神指町大字中四合,,,村西,37.504382,139.896811
神指町大字南四合,,,鍛治屋敷,37.498229,139.894938
神指町大字南四合,,,幕内東,37.485583,139.90245
町北町大字上荒久田,,,千畑,37.512834,139.931281
一箕町大字亀賀,,,村東,37.519277,139.936053
一箕町大字八幡,,,中島,37.509101,139.950622
河東町金田,カワヒガシマチカネダ,KAWAHIGASHIMACHI KANEDA,松窪,37.535457,139.944561
河東町金田,カワヒガシマチカネダ,KAWAHIGASHIMACHI KANEDA,川窪,37.540427,139.938105
神指町高瀬,コウザシマチタカセ,KOZASHIMACHI TAKASE,中川原,37.512236,139.903401
神指町大字黒川,,,村北,37.512449,139.905141
神指町大字黒川,,,三ツ谷西,37.506468,139.904796
神指町大字黒川,,,橋本,37.50516,139.909177
神指町大字黒川,,,石引道上,37.505097,139.908366
神指町大字黒川,,,中川原甲,37.504231,139.909985
門田町大字年貢町,,,大道西,37.473485,139.923737
一箕町大字鶴賀,,,石畑,37.522438,139.96956
河東町代田,カワヒガシマチヨダ,KAWAHIGASHIMACHI YODA,岩田,37.562562,139.905277
河東町熊野堂,カワヒガシマチクマノドウ,KAWAHIGASHIMACHI KUMANODO,龍塚,37.565517,139.920014
河東町広野,カワヒガシマチコウヤ,KAWAHIGASHIMACHI KOYA,蒲谷地,37.568107,139.936484
河東町金田,カワヒガシマチカネダ,KAWAHIGASHIMACHI KANEDA,畑田,37.544056,139.936263
河東町倉橋,カワヒガシマチクラハシ,KAWAHIGASHIMACHI KURAHASHI,鏡山,37.532257,139.941987
河東町八田,カワヒガシマチハッタ,KAWAHIGASHIMACHI HATTA,明ル坂,37.534341,139.9596
河東町八田,カワヒガシマチハッタ,KAWAHIGASHIMACHI HATTA,家後,37.541332,139.966353
河東町八田,カワヒガシマチハッタ,KAWAHIGASHIMACHI HATTA,石山,37.539866,139.966369
河東町八田,カワヒガシマチハッタ,KAWAHIGASHIMACHI HATTA,坂ノ上丙,37.53658,139.963554
河東町八田,カワヒガシマチハッタ,KAWAHIGASHIMACHI HATTA,越戸,37.535109,139.970649
河東町八田,カワヒガシマチハッタ,KAWAHIGASHIMACHI HATTA,石坂,37.532026,139.96974
河東町八田,カワヒガシマチハッタ,KAWAHIGASHIMACHI HATTA,韮窪,37.534636,139.964086
河東町八田,カワヒガシマチハッタ,KAWAHIGASHIMACHI HATTA,村東,37.537941,139.965357
河東町八田,カワヒガシマチハッタ,KAWAHIGASHIMACHI HATTA,稲荷原,37.537377,139.971486
河東町八田,カワヒガシマチハッタ,KAWAHIGASHIMACHI HATTA,三千小屋,37.541922,139.980269
河東町八田,カワヒガシマチハッタ,KAWAHIGASHIMACHI HATTA,田ノ神松,37.542589,139.979233
河東町八田,カワヒガシマチハッタ,KAWAHIGASHIMACHI HATTA,別当,37.533694,139.984808
河東町八田,カワヒガシマチハッタ,KAWAHIGASHIMACHI HATTA,長田,37.532648,139.98054
河東町八田,カワヒガシマチハッタ,KAWAHIGASHIMACHI HATTA,高野下,37.533389,139.976951
河東町八田,カワヒガシマチハッタ,KAWAHIGASHIMACHI HATTA,作来場,37.528128,139.981984
河東町八田,カワヒガシマチハッタ,KAWAHIGASHIMACHI HATTA,鍋沼,37.535316,139.996345
河東町八田,カワヒガシマチハッタ,KAWAHIGASHIMACHI HATTA,東箕輪,37.512994,139.997132
河東町八田,カワヒガシマチハッタ,KAWAHIGASHIMACHI HATTA,西箕輪,37.514458,139.992564
一箕町大字金堀,,,古道,37.507153,139.980743
北会津町三本松,キタアイヅマチサンボンマツ,KITAAIZUMACHI SAMBOMMATSU,上大川向,37.473871,139.894164
北会津町上米塚,キタアイヅマチカミヨネヅカ,KITAAIZUMACHI KAMIYONEZUKA,村北,37.468306,139.897242
北会津町上米塚,キタアイヅマチカミヨネヅカ,KITAAIZUMACHI KAMIYONEZUKA,村東,37.467473,139.89832
北会津町三本松,キタアイヅマチサンボンマツ,KITAAIZUMACHI SAMBOMMATSU,下大川向,37.48015,139.892621
北会津町下荒井,キタアイヅマチシモアライ,KITAAIZUMACHI SHIMOARAI,馬場川原,37.50054,139.871764
北会津町下荒井,キタアイヅマチシモアライ,KITAAIZUMACHI SHIMOARAI,宮ノ東,37.499192,139.872115
北会津町蟹川,キタアイヅマチカニカワ,KITAAIZUMACHI KANIKAWA,川崎分,37.504833,139.878049
神指町大字中四合,,,天満,37.503154,139.89744
神指町大字中四合,,,西城戸西,37.502525,139.896616
町北町大字中沢,,,落合甲,37.519786,139.90229
町北町大字中沢,,,土手下,37.516741,139.903178
門田町大字面川,,,中江,37.444722,139.915955
門田町大字面川,,,村西,37.439497,139.919357
門田町大字面川,,,山ノ上,37.435917,139.92693
河東町金田,カワヒガシマチカネダ,KAWAHIGASHIMACHI KANEDA,西原,37.544879,139.935418
神指町大字黒川,,,街道西,37.51088,139.906613
神指町大字黒川,,,村東際,37.509951,139.907912
神指町大字黒川,,,坂川原,37.508743,139.907526
神指町大字黒川,,,古川,37.507844,139.90751
門田町大字黒岩,,,城南,37.478053,139.934958
門田町大字黒岩,,,手代曽根山,37.484215,139.947387
門田町大字黒岩,,,花見ケ丘,37.481868,139.948171
東山町大字湯本,,,上原,37.474551,139.963433
東山町大字湯本,,,村東,37.477669,139.96371
東山町大字湯本,,,居平,37.478123,139.962389
大戸町大字芦牧,,,峠,37.365373,139.915525
大戸町上小塩,オオトマチカミオシュウ,OTOMACHI KAMIOSHU,遅谷,37.364584,139.918773
河東町南高野,カワヒガシマチミナミコウヤ,KAWAHIGASHIMACHI MINAMIKOYA,金剛田,37.55583,139.92898
河東町東長原,カワヒガシマチヒガシナガハラ,KAWAHIGASHIMACHI HIGASHINAGAHARA,草倉山,37.562775,139.94392
河東町八田,カワヒガシマチハッタ,KAWAHIGASHIMACHI HATTA,漆窪,37.528707,139.977402
一箕町大字八幡,,,北滝沢,37.512249,139.944581
一箕町大字八幡,,,三十苅甲,37.508327,139.952178
河東町八田,カワヒガシマチハッタ,KAWAHIGASHIMACHI HATTA,戸ノ口堰下,37.528695,140.014211
河東町八田,カワヒガシマチハッタ,KAWAHIGASHIMACHI HATTA,石ケ坂,37.539912,140.008771
一箕町大字鶴賀,,,丸山越,37.525643,139.970858
一箕町大字八幡,,,真板倉乙,37.499305,139.953539
東山町大字湯本,,,積リ,37.479549,139.960716
東山町大字湯本,,,牧戸,37.461798,139.977859
一箕町大字鶴賀,,,水下,37.521768,139.97081
一箕町大字八幡,,,吹屋山,37.519425,139.971646
一箕町大字鶴賀,,,高山,37.519637,139.967317
東山町大字湯本,,,上湯本,37.468111,139.962669
東山町大字湯本,,,滝の湯,37.479526,139.96006
東山町大字湯本,,,川向,37.464331,139.959182
門田町大字黒岩,,,村東,37.477047,139.940148
神指町大字黒川,,,薬師川原,37.50873,139.908814
神指町大字黒川,,,東城戸,37.505992,139.907253
神指町大字黒川,,,三ツ谷東甲,37.502529,139.907599
門田町大字黒岩,,,五百山丙,37.483409,139.947007
神指町大字北四合,,,家ノ下丁,37.530201,139.885364
神指町大字北四合,,,花川作丙,37.529455,139.886004
神指町大字北四合,,,割田,37.529812,139.886244
町北町大字中沢,,,大道西上甲,37.51351,139.903362
町北町大字中沢,,,大道西下甲,37.514378,139.903068
