name,name_kana,name_romaji,nickname,latitude,longitude
松坂,,,,37.32511,139.765102
福重岡,フクエオカ,FUKUEOKA,,37.427827,139.869784
東尾岐,ヒガシオマタ,HIGASHIOMATA,,37.364242,139.822565
氷玉,ヒダマ,HIDAMA,,37.400916,139.873876
宮川,ミヤカワ,MIYAKAWA,,37.37116,139.771749
大石,オオイシ,OISHI,,37.430913,139.90423
藤家舘,,,,37.430953,139.85528
旭市川,アサヒイチカワ,ASAHIICHIKAWA,,37.397326,139.852876
旭寺入,アサヒテライリ,ASAHITERAIRI,,37.409854,139.839743
旭無量,アサヒムリョウ,ASAHIMURYO,,37.406899,139.822876
橋丸,ハシマル,HASHIMARU,,37.451356,139.867369
字西沖,,,,37.443058,139.87272
字堂ノ前,,,,37.446686,139.874001
尾岐窪,オマタクボ,OMATAKUBO,,37.422386,139.809452
西本,ニシモト,NISHIMOTO,,37.413597,139.771533
上平,ウワダイラ,UWADAIRA,,37.455546,139.74845
米田,ヨネタ,YONETA,,37.501304,139.818955
佐賀瀬川,サカセガワ,SAKASEGAWA,,37.494509,139.787934
鶴野辺,ツルノベ,TSURUNOBE,,37.503188,139.83473
小沢,オザワ,OZAWA,,37.516164,139.808362
沼田,ヌマタ,NUMATA,,37.513702,139.790597
穂馬,ホマ,HOMA,,37.395325,139.902614
大室,オオムロ,OMURO,,37.400711,139.801085
西尾,ニシオ,NISHIO,,37.406274,139.79206
字村上,,,,37.441399,139.880336
字三日町上,,,,37.444686,139.89655
字東谷地,,,,37.448903,139.893272
字中道下,,,,37.448824,139.889689
字黒沢,,,,37.45012,139.881926
字北浦,,,,37.451153,139.886382
字瀬戸屋前,,,,37.45347,139.889002
字松原際,,,,37.454359,139.889211
字杉,,,,37.454959,139.88241
字本郷前川原,,,,37.457782,139.88172
字簗場上,,,,37.451881,139.895464
字車川原,,,,37.452901,139.894687
字思堀向,,,,37.456225,139.893098
字上村東,,,,37.457332,139.902343
字上村西道下,,,,37.457482,139.89974
字石切畑,,,,37.451044,139.882742
字六日町,,,,37.446601,139.904584
字家東,,,,37.450414,139.902987
字惣印東,,,,37.45395,139.902992
字向川原,,,,37.451473,139.901591
字御用地,,,,37.448747,139.901472
字御用地跡,,,,37.452033,139.896771
字三日町,,,,37.44512,139.895153
字本郷高田町,,,,37.445625,139.891714
字本郷道東,,,,37.447089,139.892323
字寺ノ前,,,,37.44993,139.891287
字真々川,,,,37.449092,139.889494
字本郷上,,,,37.450708,139.890297
字大八郷,,,,37.443144,139.880267
字倉田,,,,37.442978,139.882915
字本郷道西,,,,37.447869,139.887105
字清水川,,,,37.451226,139.883766
字横堀下,,,,37.446313,139.881316
字本郷,,,,37.450304,139.886847
字延命寺前,,,,37.447267,139.882657
字蛇ノ宮,,,,37.44889,139.880611
字本郷千苅,,,,37.44202,139.878186
字本郷村西,,,,37.444041,139.877958
字丸山,,,,37.446708,139.879238
字宮後,,,,37.446645,139.8772
字北原,,,,37.449045,139.878647
字穴田,,,,37.449142,139.8752
字宗頤町,,,,37.457178,139.900794
字上村西道上,,,,37.456601,139.899089
字上村北,,,,37.45868,139.899888
字舩場,,,,37.448615,139.896886
字黒川,,,,37.457906,139.899285
字惣印南,,,,37.453921,139.900009
字新用地,,,,37.45365,139.896504
字黒川内,,,,37.457745,139.896098
字思堀,,,,37.456838,139.894897
字瀬戸町,,,,37.453095,139.890954
字川原町北,,,,37.45681,139.887183
字新町,,,,37.456248,139.891605
字惣印,,,,37.459305,139.89656
字家西,,,,37.457379,139.891391
字駅前,,,,37.4591,139.894246
字竹原,,,,37.461061,139.892803
字本屋敷,,,,37.457861,139.889495
字広面,,,,37.461363,139.88856
字川原町,,,,37.455229,139.886782
字山道上,,,,37.45206,139.882213
字北川原,,,,37.452479,139.885949
字権現堂,,,,37.459377,139.883186
字本郷道上,,,,37.454439,139.881467
字下川原,,,,37.451673,139.87573
字山道下,,,,37.452451,139.879015
字荒井前,,,,37.456761,139.881071
字清水台,,,,37.453926,139.875379
字近右エ門田,,,,37.459339,139.886054
字舘ノ廻,,,,37.460457,139.88112
字旱泥,,,,37.459991,139.877122
字荒井,,,,37.459002,139.881088
字地尻,,,,37.466026,139.842217
字観音北,,,,37.465346,139.842977
字高田道西,,,,37.474399,139.837909
蛇喰,,,,37.445855,139.760481
旭舘端,,,,37.432513,139.83847
旭三寄,アサヒミヨセ,ASAHIMIYOSE,,37.429492,139.823113
冨川,トミカワ,TOMIKAWA,,37.444208,139.840062
旭杉原,アサヒスギハラ,ASAHISUGIHARA,,37.437989,139.826742
杉屋,スギヤ,SUGIYA,,37.445442,139.815915
吉田,ヨシダ,YOSHIDA,,37.434094,139.796754
松岸,マツキシ,MATSUKISHI,,37.43838,139.805965
字大道端,,,,37.466843,139.856302
字水戸,,,,37.466273,139.853052
字東川原,,,,37.46659,139.849961
勝原,カツハラ,KATSUHARA,,37.448456,139.845456
字文珠東,,,,37.458004,139.840583
字宮林,,,,37.455656,139.841037
字内川原,,,,37.46373,139.846594
下堀,シモホリ,SHIMOHORI,,37.459952,139.854259
字外川原,,,,37.461139,139.845081
字法憧寺東,,,,37.45997,139.842042
字宮北,,,,37.45923,139.841239
字文珠西,,,,37.458442,139.839593
字清龍寺北,,,,37.460257,139.840529
字法憧寺北,,,,37.463567,139.84322
字法憧寺南,,,,37.461554,139.841076
字御蔵南,,,,37.459465,139.83717
字舘ノ南,,,,37.460649,139.836245
字川添,,,,37.463121,139.838352
字新丁屋敷,,,,37.461283,139.837316
字西裏屋敷添,,,,37.462343,139.838087
字鹿島,,,,37.463072,139.844407
字新丁西,,,,37.467492,139.840172
字西裏,,,,37.467978,139.839719
字龍興寺北,,,,37.464052,139.838855
字高田,,,,37.460221,139.83871
字漆原北,,,,37.459216,139.835424
字舘ノ越,,,,37.461488,139.833668
字布才地,,,,37.462123,139.830991
上戸原,ジョウドハラ,JODOHARA,,37.454153,139.818906
永井野,ナガイノ,NAGAINO,,37.451009,139.832084
字上江,,,,37.464105,139.826671
荻窪,オギクボ,OGIKUBO,,37.447115,139.789934
松沢,マツザワ,MATSUZAWA,,37.453948,139.792713
字宮里,,,,37.47056,139.859308
字安田,,,,37.47234,139.854146
字高田前川原,,,,37.470668,139.853094
字高田村東,,,,37.471554,139.856977
字宮ノ腰,,,,37.474313,139.854139
字家ノ下,,,,37.480079,139.850095
字台ノ下,,,,37.470789,139.849733
字高田道東,,,,37.475468,139.84139
字高田道上,,,,37.468028,139.845732
字谷地前,,,,37.469725,139.842761
字御田,,,,37.47129,139.842774
字柳台,,,,37.470233,139.84167
字沼尻,,,,37.474683,139.834299
字油田,,,,37.468857,139.834171
字沼ノ上,,,,37.471302,139.830519
八木沢,ヤギサワ,YAGISAWA,,37.474549,139.80767
赤留,アカル,AKARU,,37.465746,139.79933
字佐布川,,,,37.478847,139.849927
寺崎,テラサキ,TERASAKI,,37.481202,139.829108
境野,サカイノ,SAKAINO,,37.486769,139.8381
雀林,スズメバヤシ,SUZUMEBAYASHI,,37.487413,139.817479
字堰下,,,,37.458387,139.895522
字上村南,,,,37.456581,139.900445
字竹ノ花,,,,37.473661,139.847478
新屋敷,シンヤシキ,SHINYASHIKI,,37.51642,139.838053
和田目,ワダメ,WADAME,,37.525727,139.831562
立石田,タチイシダ,TACHIISHIDA,,37.517593,139.820596
字中川原,,,,37.482256,139.851468
字中新田,,,,37.488178,139.8487
字松ノ木田,,,,37.484178,139.845271
字権現宮南,,,,37.468721,139.846147
字坂ノ下道下,,,,37.483655,139.847596
字坂ノ下道上,,,,37.483091,139.846383
字本郷入口道上,,,,37.451044,139.900286
字谷地,,,,37.469386,139.842813
字権現宮,,,,37.46979,139.846422
字三本松,,,,37.45891,139.878893
字高田中川原道下,,,,37.484742,139.847529
