name,name_kana,name_romaji,nickname,latitude,longitude
千疋,,,,35.87027,139.823489
手代町,,,,35.823998,139.815954
新栄町,,,,35.858609,139.769727
清門町,,,,35.852308,139.781905
長栄町,,,,35.858356,139.777777
青柳一丁目,アオヤギ 1,AOYAGI 1,,35.842426,139.825453
青柳二丁目,アオヤギ 2,AOYAGI 2,,35.846421,139.822887
青柳三丁目,アオヤギ 3,AOYAGI 3,,35.84673,139.827978
青柳四丁目,アオヤギ 4,AOYAGI 4,,35.85196,139.817914
青柳五丁目,アオヤギ 5,AOYAGI 5,,35.855196,139.813723
青柳六丁目,アオヤギ 6,AOYAGI 6,,35.852232,139.824545
青柳七丁目,アオヤギ 7,AOYAGI 7,,35.856138,139.82202
青柳八丁目,アオヤギ 8,AOYAGI 8,,35.860254,139.819672
青柳町,アオヤギチョウ,AOYAGICHO,,35.850059,139.815446
旭町一丁目,アサヒチョウ 1,ASAHICHO 1,,35.851262,139.801328
旭町二丁目,アサヒチョウ 2,ASAHICHO 2,,35.84958,139.799661
旭町三丁目,アサヒチョウ 3,ASAHICHO 3,,35.852042,139.798333
旭町四丁目,アサヒチョウ 4,ASAHICHO 4,,35.850025,139.796334
旭町五丁目,アサヒチョウ 5,ASAHICHO 5,,35.848142,139.793284
旭町六丁目,アサヒチョウ 6,ASAHICHO 6,,35.850525,139.792187
遊馬町,アスマチョウ,ASUMACHO,,35.81947,139.777511
稲荷一丁目,イナリ 1,INARI 1,,35.832264,139.811296
稲荷二丁目,イナリ 2,INARI 2,,35.831711,139.818377
稲荷三丁目,イナリ 3,INARI 3,,35.830792,139.823802
稲荷四丁目,イナリ 4,INARI 4,,35.834512,139.824029
稲荷五丁目,イナリ 5,INARI 5,,35.838815,139.822657
稲荷六丁目,イナリ 6,INARI 6,,35.836346,139.828639
柿木町,カキノキチョウ,KAKINOKICHO,,35.860775,139.832202
学園町,ガクエンチョウ,GAKUENCHO,,35.839905,139.795448
北谷一丁目,キタヤ 1,KITAYA 1,,35.841428,139.785972
北谷二丁目,キタヤ 2,KITAYA 2,,35.842392,139.780822
北谷三丁目,キタヤ 3,KITAYA 3,,35.844782,139.784512
北谷町,キタヤチョウ,KITAYACHO,,35.846446,139.786787
金明町,キンメイチョウ,KIMMEICHO,,35.856356,139.792446
小山一丁目,コヤマ 1,KOYAMA 1,,35.837917,139.784114
小山二丁目,コヤマ 2,KOYAMA 2,,35.837329,139.780275
栄町一丁目,サカエチョウ 1,SAKAECHO 1,,35.83746,139.804868
栄町二丁目,サカエチョウ 2,SAKAECHO 2,,35.841563,139.803216
栄町三丁目,サカエチョウ 3,SAKAECHO 3,,35.846533,139.801136
新栄一丁目,シンエイ 1,SHINEI 1,,35.854605,139.772887
新栄二丁目,シンエイ 2,SHINEI 2,,35.857384,139.76856
新栄三丁目,シンエイ 3,SHINEI 3,,35.861333,139.766068
新栄四丁目,シンエイ 4,SHINEI 4,,35.86306,139.769638
新善町,シンゼンチョウ,SHINZENCHO,,35.848838,139.784644
神明一丁目,シンメイ 1,SHIMMEI 1,,35.834513,139.805592
神明二丁目,シンメイ 2,SHIMMEI 2,,35.835386,139.808331
住吉一丁目,スミヨシ 1,SUMIYOSHI 1,,35.831219,139.805508
住吉二丁目,スミヨシ 2,SUMIYOSHI 2,,35.831352,139.80936
清門一丁目,セイモン 1,SEIMON 1,,35.852837,139.785813
清門二丁目,セイモン 2,SEIMON 2,,35.851467,139.78094
清門三丁目,セイモン 3,SEIMON 3,,35.853468,139.779256
瀬崎一丁目,セザキ 1,SEZAKI 1,,35.815702,139.802974
瀬崎二丁目,セザキ 2,SEZAKI 2,,35.815383,139.806657
瀬崎三丁目,セザキ 3,SEZAKI 3,,35.811479,139.806337
瀬崎四丁目,セザキ 4,SEZAKI 4,,35.809417,139.806092
瀬崎五丁目,セザキ 5,SEZAKI 5,,35.813763,139.812352
瀬崎六丁目,セザキ 6,SEZAKI 6,,35.811651,139.814881
瀬崎七丁目,セザキ 7,SEZAKI 7,,35.809294,139.813383
草加一丁目,ソウカ 1,SOKA 1,,35.835206,139.802179
草加二丁目,ソウカ 2,SOKA 2,,35.834442,139.798618
草加三丁目,ソウカ 3,SOKA 3,,35.837924,139.797156
草加四丁目,ソウカ 4,SOKA 4,,35.838132,139.800157
草加五丁目,ソウカ 5,SOKA 5,,35.838875,139.802031
高砂一丁目,タカサゴ 1,TAKASAGO 1,,35.824765,139.804931
高砂二丁目,タカサゴ 2,TAKASAGO 2,,35.828142,139.805352
中央一丁目,チュウオウ 1,CHUO 1,,35.826408,139.80988
中央二丁目,チュウオウ 2,CHUO 2,,35.828422,139.810035
長栄一丁目,チョウエイ 1,CHOEI 1,,35.857498,139.784045
長栄二丁目,チョウエイ 2,CHOEI 2,,35.856986,139.780144
長栄三丁目,チョウエイ 3,CHOEI 3,,35.857369,139.775294
長栄四丁目,チョウエイ 4,CHOEI 4,,35.859618,139.77233
手代一丁目,テシロ 1,TESHIRO 1,,35.825676,139.8152
手代二丁目,テシロ 2,TESHIRO 2,,35.82225,139.813577
手代三丁目,テシロ 3,TESHIRO 3,,35.823781,139.819131
苗塚町,ナエヅカチョウ,NAEZUKACHO,,35.832522,139.784664
中根一丁目,ナカネ 1,NAKANE 1,,35.847824,139.804264
中根二丁目,ナカネ 2,NAKANE 2,,35.84809,139.80709
中根三丁目,ナカネ 3,NAKANE 3,,35.84731,139.810568
西町,ニシチョウ,NISHICHO,,35.828256,139.790834
新里町,ニッサトチョウ,NISSATOCHO,,35.813222,139.778352
花栗一丁目,ハナグリ 1,HANAGURI 1,,35.834314,139.793723
花栗二丁目,ハナグリ 2,HANAGURI 2,,35.834811,139.788766
花栗三丁目,ハナグリ 3,HANAGURI 3,,35.83778,139.787912
花栗四丁目,ハナグリ 4,HANAGURI 4,,35.838096,139.792277
原町一丁目,ハラチョウ 1,HARACHO 1,,35.845176,139.77883
原町二丁目,ハラチョウ 2,HARACHO 2,,35.846381,139.776013
原町三丁目,ハラチョウ 3,HARACHO 3,,35.849982,139.775174
氷川町,ヒカワチョウ,HIKAWACHO,,35.826939,139.799761
弁天一丁目,ベンテン 1,BENTEN 1,,35.84463,139.812026
弁天二丁目,ベンテン 2,BENTEN 2,,35.842213,139.8132
弁天三丁目,ベンテン 3,BENTEN 3,,35.841091,139.819761
弁天四丁目,ベンテン 4,BENTEN 4,,35.84379,139.817895
弁天五丁目,ベンテン 5,BENTEN 5,,35.846482,139.818068
弁天六丁目,ベンテン 6,BENTEN 6,,35.846419,139.814671
松江一丁目,マツエ 1,MATSUE 1,,35.842816,139.80594
松江二丁目,マツエ 2,MATSUE 2,,35.840792,139.809216
松江三丁目,マツエ 3,MATSUE 3,,35.836707,139.810494
松江四丁目,マツエ 4,MATSUE 4,,35.839105,139.814217
松江五丁目,マツエ 5,MATSUE 5,,35.835761,139.817667
松江六丁目,マツエ 6,MATSUE 6,,35.835995,139.820156
松原一丁目,マツバラ 1,MATSUBARA 1,,35.843133,139.799254
松原二丁目,マツバラ 2,MATSUBARA 2,,35.843254,139.795965
松原三丁目,マツバラ 3,MATSUBARA 3,,35.843358,139.792823
松原四丁目,マツバラ 4,MATSUBARA 4,,35.843024,139.789661
松原五丁目,マツバラ 5,MATSUBARA 5,,35.846155,139.796195
谷塚一丁目,ヤツカ 1,YATSUKA 1,,35.811681,139.801049
谷塚二丁目,ヤツカ 2,YATSUKA 2,,35.807704,139.797784
谷塚上町,ヤツカカミチョウ,YATSUKA KAMICHO,,35.813569,139.788999
谷塚町,ヤツカチョウ,YATSUKACHO,,35.813842,139.798054
谷塚仲町,ヤツカナカチョウ,YATSUKA NAKACHO,,35.8117,139.792004
柳島町,ヤナギシマチョウ,YANAGISHIMACHO,,35.820487,139.787087
八幡町,ヤハタチョウ,YAHATACHO,,35.854342,139.806029
吉町一丁目,ヨシチョウ 1,YOSHICHO 1,,35.824876,139.809734
吉町二丁目,ヨシチョウ 2,YOSHICHO 2,,35.823086,139.809473
吉町三丁目,ヨシチョウ 3,YOSHICHO 3,,35.820696,139.809005
吉町四丁目,ヨシチョウ 4,YOSHICHO 4,,35.818552,139.808589
吉町五丁目,ヨシチョウ 5,YOSHICHO 5,,35.820437,139.80406
両新田西町,リョウシンデンニシチョウ,RYOSHINDEN NISHICHO,,35.812359,139.783948
両新田東町,リョウシンデンヒガシチョウ,RYOSHINDEN HIGASHICHO,,35.812225,139.78675
