name,name_kana,name_romaji,nickname,latitude,longitude
神宮前四丁目,ジングウマエ 4,JINGUMAE 4,,35.668183,139.709361
神宮前一丁目,ジングウマエ 1,JINGUMAE 1,,35.671552,139.705302
代々木五丁目,ヨヨギ 5,YOYOGI 5,,35.67374,139.689648
大山町,オオヤマチョウ,OYAMACHO,,35.669143,139.675797
神宮前三丁目,ジングウマエ 3,JINGUMAE 3,,35.670429,139.710341
元代々木町,モトヨヨギチョウ,MOTOYOYOGICHO,,35.671868,139.685486
富ケ谷一丁目, 1, 1,,35.667245,139.690103
代々木神園町,ヨヨギカミゾノチョウ,YOYOGIKAMIZONOCHO,,35.674453,139.697809
西原三丁目,ニシハラ 3,NISHIHARA 3,,35.670857,139.679845
上原一丁目,ウエハラ 1,UEHARA 1,,35.668983,139.683921
広尾二丁目,ヒロオ 2,HIRO 2,,35.651579,139.715394
広尾一丁目,ヒロオ 1,HIRO 1,,35.649659,139.713048
恵比寿二丁目,エビス 2,EBISU  2,,35.64642,139.720188
恵比寿三丁目,エビス 3,EBISU  3,,35.643613,139.71804
恵比寿南一丁目,エビスミナミ 1,EBISUMINAMI 1,,35.644942,139.709897
東二丁目,ヒガシ 2,HIGASHI 2,,35.653311,139.709558
恵比寿一丁目,エビス 1,EBISU  1,,35.647125,139.71394
恵比寿四丁目,エビス 4,EBISU  4,,35.645034,139.71357
恵比寿南三丁目,エビスミナミ 3,EBISUMINAMI 3,,35.644828,139.705793
恵比寿南二丁目,エビスミナミ 2,EBISUMINAMI 2,,35.643887,139.708596
広尾四丁目,ヒロオ 4,HIRO 4,,35.65375,139.719721
広尾五丁目,ヒロオ 5,HIRO 5,,35.649943,139.720022
恵比寿西一丁目,エビスニシ 1,EBISUNISHI 1,,35.647744,139.705598
広尾三丁目,ヒロオ 3,HIRO 3,,35.654796,139.715447
恵比寿西二丁目,エビスニシ 2,EBISUNISHI 2,,35.650158,139.706643
東三丁目,ヒガシ 3,HIGASHI 3,,35.650397,139.710167
東四丁目,ヒガシ 4,HIGASHI 4,,35.655627,139.712382
渋谷四丁目,シブヤ 4,SHIBUYA  4,,35.660065,139.711074
猿楽町,サルガクチョウ,SARUGAKUCHO,,35.650091,139.700868
東一丁目,ヒガシ 1,HIGASHI 1,,35.65539,139.708409
鉢山町,ハチヤマチョウ,HACHIYAMACHO,,35.651414,139.698164
代官山町,ダイカンヤマチョウ,DAIKANYAMACHO,,35.650671,139.704275
南平台町,ナンペイダイチョウ,NAMPEIDAICHO,,35.653838,139.695937
道玄坂二丁目,ドウゲンザカ 2,DOGENZAKA 2,,35.659396,139.698321
渋谷三丁目,シブヤ 3,SHIBUYA  3,,35.655965,139.705095
渋谷二丁目,シブヤ 2,SHIBUYA  2,,35.659609,139.705829
渋谷一丁目,シブヤ 1,SHIBUYA  1,,35.661813,139.704292
鶯谷町,ウグイスダニチョウ,UGUISUDANICHO,,35.652875,139.701595
桜丘町,サクラガオカチョウ,SAKURAGAOKACHO,,35.655642,139.700634
神泉町,シンセンチョウ,SHINSENCHO,,35.656447,139.692221
神南一丁目,ジンナン 1,JINNAN 1,,35.663127,139.700363
松濤一丁目,ショウトウ 1,SHOTO 1,,35.660907,139.693059
松濤二丁目,ショウトウ 2,SHOTO 2,,35.659975,139.689776
宇田川町,ウダガワチョウ,UDAGAWACHO,,35.66209,139.697425
道玄坂一丁目,ドウゲンザカ 1,DOGENZAKA 1,,35.657283,139.69832
円山町,マルヤマチョウ,MARUYAMACHO,,35.657632,139.69487
神山町,カミヤマチョウ,KAMIYAMACHO,,35.663788,139.691473
神南二丁目,ジンナン 2,JINNAN 2,,35.666451,139.696982
上原二丁目,ウエハラ 2,UEHARA 2,,35.665506,139.681588
富ケ谷二丁目, 2, 2,,35.664704,139.685723
神宮前五丁目,ジングウマエ 5,JINGUMAE 5,,35.664524,139.706017
神宮前六丁目,ジングウマエ 6,JINGUMAE 6,,35.66608,139.703704
上原三丁目,ウエハラ 3,UEHARA 3,,35.666035,139.676861
千駄ケ谷六丁目, 6, 6,,35.684449,139.706181
西原一丁目,ニシハラ 1,NISHIHARA 1,,35.675511,139.680993
西原二丁目,ニシハラ 2,NISHIHARA 2,,35.673739,139.677973
笹塚二丁目,ササヅカ 2,SASAZUKA 2,,35.675148,139.667012
千駄ケ谷二丁目, 2, 2,,35.676096,139.710689
神宮前二丁目,ジングウマエ 2,JINGUMAE 2,,35.673794,139.71186
千駄ケ谷一丁目, 1, 1,,35.679251,139.710893
千駄ケ谷三丁目, 3, 3,,35.675858,139.706066
代々木一丁目,ヨヨギ 1,YOYOGI 1,,35.681885,139.700039
千駄ケ谷四丁目, 4, 4,,35.680447,139.705903
代々木二丁目,ヨヨギ 2,YOYOGI 2,,35.685535,139.698743
初台二丁目,ハツダイ 2,HATSUDAI 2,,35.675903,139.68566
初台一丁目,ハツダイ 1,HATSUDAI 1,,35.679788,139.686286
幡ケ谷二丁目, 2, 2,,35.677847,139.675082
笹塚三丁目,ササヅカ 3,SASAZUKA 3,,35.677629,139.668123
幡ケ谷三丁目, 3, 3,,35.68051,139.673012
笹塚一丁目,ササヅカ 1,SASAZUKA 1,,35.673459,139.667698
幡ケ谷一丁目, 1, 1,,35.674993,139.673218
千駄ケ谷五丁目, 5, 5,,35.685264,139.703318
代々木三丁目,ヨヨギ 3,YOYOGI 3,,35.683222,139.693911
代々木四丁目,ヨヨギ 4,YOYOGI 4,,35.680757,139.69097
本町六丁目,ホンマチ 6,HOMMACHI 6,,35.682216,139.678379
本町一丁目,ホンマチ 1,HOMMACHI 1,,35.680992,139.683187
本町二丁目,ホンマチ 2,HOMMACHI 2,,35.683824,139.682573
本町三丁目,ホンマチ 3,HOMMACHI 3,,35.688983,139.681637
本町五丁目,ホンマチ 5,HOMMACHI 5,,35.683954,139.676389
本町四丁目,ホンマチ 4,HOMMACHI 4,,35.686835,139.679794
