name,name_kana,name_romaji,nickname,latitude,longitude
北町,キタマチ,KITAMACHI,,35.69995,139.735037
早稲田南町,ワセダミナミチョウ,WASEDA MINAMICHO,,35.704367,139.723244
中井一丁目,ナカイ 1,NAKAI 1,,35.714969,139.684236
若葉三丁目,ワカバ 3,WAKABA 3,,35.682624,139.724309
南元町,ミナミモトマチ,MINAMIMOTOMACHI,,35.68065,139.724021
横寺町,ヨコテラマチ,YOKOTERAMACHI,,35.701911,139.73523
市谷砂土原町一丁目,イチガヤサドハラチョウ 1,ICHIGAYASADOHARACHO 1,,35.694693,139.735376
市谷田町一丁目,イチガヤタマチ 1,ICHIGAYATAMACHI 1,,35.692921,139.73631
市谷鷹匠町,イチガヤタカジョウマチ,ICHIGAYATAKAJOMACHI,,35.695949,139.733482
若葉二丁目,ワカバ 2,WAKABA 2,,35.684961,139.72478
四谷二丁目,ヨツヤ 2,YOTSUYA 2,,35.687101,139.725681
信濃町,シナノマチ,SHINANOMACHI,,35.682271,139.719788
須賀町,スガチョウ,SUGACHO,,35.68524,139.722118
舟町,フナマチ,FUNAMACHI,,35.69007,139.721116
愛住町,アイズミチョウ,AIZUMICHO,,35.690028,139.719198
左門町,サモンチョウ,SAMONCHO,,35.685902,139.720502
四谷三丁目,ヨツヤ 3,YOTSUYA 3,,35.688019,139.720751
市谷台町,イチガヤダイマチ,ICHIGAYADAIMACHI,,35.693596,139.718343
余丁町,ヨチョウマチ,YOCHOMACHI,,35.696362,139.71569
大京町,ダイキョウチョウ,DAIKYOCHO,,35.683849,139.717044
四谷四丁目,ヨツヤ 4,YOTSUYA 4,,35.688582,139.716267
富久町,トミヒサチョウ,TOMIHISACHO,,35.693492,139.714956
新宿二丁目,シンジュク 2,SHINJUKU 2,,35.690064,139.708387
新宿一丁目,シンジュク 1,SHINJUKU 1,,35.689556,139.712248
新宿四丁目,シンジュク 4,SHINJUKU 4,,35.688834,139.703724
内藤町,ナイトウマチ,NAITOMACHI,,35.685704,139.711617
歌舞伎町二丁目,カブキチョウ 2,KABUKICHO 2,,35.696556,139.703825
新宿三丁目,シンジュク 3,SHINJUKU 3,,35.691227,139.703563
新宿五丁目,シンジュク 5,SHINJUKU 5,,35.693168,139.707875
西新宿四丁目,ニシシンジュク 4,NISHISHINJUKU  4,,35.68754,139.68762
西新宿二丁目,ニシシンジュク 2,NISHISHINJUKU  2,,35.68945,139.691774
西新宿三丁目,ニシシンジュク 3,NISHISHINJUKU  3,,35.684529,139.689179
市谷田町二丁目,イチガヤタマチ 2,ICHIGAYATAMACHI 2,,35.694703,139.737466
市谷左内町,イチガヤサナイチョウ,ICHIGAYASANAICHO,,35.694183,139.733332
市谷長延寺町,イチガヤチョウエンジマチ,ICHIGAYACHOENJIMACHI,,35.694317,139.73457
神楽坂二丁目,カグラザカ 2,KAGURAZAKA 2,,35.700667,139.741673
揚場町,アゲバチョウ,AGEBACHO,,35.70214,139.742855
下宮比町,シモミヤビチョウ,SHIMOMIYABICHO,,35.703242,139.743644
市谷砂土原町二丁目,イチガヤサドハラチョウ 2,ICHIGAYASADOHARACHO 2,,35.695627,139.735483
市谷田町三丁目,イチガヤタマチ 3,ICHIGAYATAMACHI 3,,35.696372,139.738875
市谷砂土原町三丁目,イチガヤサドハラチョウ 3,ICHIGAYASADOHARACHO 3,,35.696844,139.736692
神楽河岸,カグラガシ,KAGURAGASHI,,35.700818,139.743435
神楽坂一丁目,カグラザカ 1,KAGURAZAKA 1,,35.699633,139.741932
神楽坂四丁目,カグラザカ 4,KAGURAZAKA 4,,35.702219,139.739927
神楽坂三丁目,カグラザカ 3,KAGURAZAKA 3,,35.701456,139.740523
袋町,フクロマチ,FUKUROMACHI,,35.700537,139.738001
南町,ミナミチョウ,MINAMICHO,,35.698695,139.736525
白銀町,シロガネチョウ,SHIROGANECHO,,35.703842,139.738197
筑土八幡町,ツクドハチマンチョウ,TSUKUDOHACHIMANCHO,,35.704248,139.740147
神楽坂六丁目,カグラザカ 6,KAGURAZAKA 6,,35.703039,139.737006
岩戸町,イワトチョウ,IWATOCHO,,35.701453,139.737424
神楽坂五丁目,カグラザカ 5,KAGURAZAKA 5,,35.702155,139.738616
住吉町,スミヨシチョウ,SUMIYOSHICHO,,35.693058,139.721362
払方町,ハライカタマチ,HARAIKATAMACHI,,35.697266,139.734844
若宮町,ワカミヤチョウ,WAKAMIYACHO,,35.699535,139.739381
市谷船河原町,イチガヤフナガワラマチ,ICHIGAYAFUNAGAWARAMACHI,,35.697993,139.74006
市谷八幡町,イチガヤハチマンチョウ,ICHIGAYAHACHIMANCHO,,35.692142,139.734458
中町,ナカチョウ,NAKACHO,,35.699231,139.735864
細工町,サイクマチ,SAIKUMACHI,,35.698992,139.732996
南山伏町,ミナミヤマブシチョウ,MINAMIYAMABUSHICHO,,35.699136,139.731255
市谷加賀町一丁目,イチガヤカガチョウ 1,ICHIGAYAKAGACHO 1,,35.696438,139.730974
納戸町,ナンドマチ,NANDOMACHI,,35.69752,139.733051
箪笥町,タンスマチ,TANSUMACHI,,35.700527,139.734843
市谷加賀町二丁目,イチガヤカガチョウ 2,ICHIGAYAKAGACHO 2,,35.696825,139.728614
東榎町,ヒガシエノキチョウ,HIGASHIENOKICHO,,35.705069,139.729478
二十騎町,ニジュツキマチ,NIJUTSUKIMACHI,,35.698331,139.730641
市谷甲良町,イチガヤコウラチョウ,ICHIGAYAKORACHO,,35.698878,139.728113
原町一丁目,ハラマチ 1,HARAMACHI 1,,35.700392,139.725522
北山伏町,キタヤマブシチョウ,KITAYAMABUSHICHO,,35.700081,139.730101
市谷山伏町,イチガヤヤマブシチョウ,ICHIGAYAYAMABUSHICHO,,35.700056,139.728198
市谷柳町,イチガヤヤナギチョウ,ICHIGAYAYANAGICHO,,35.699274,139.726406
市谷仲之町,イチガヤナカノチョウ,ICHIGAYANAKANOCHO,,35.694719,139.723009
河田町,カワダチョウ,KAWADACHO,,35.696752,139.719557
原町三丁目,ハラマチ 3,HARAMACHI 3,,35.69977,139.722755
百人町四丁目,ヒャクニンチョウ 4,HYAKUNINCHO 4,,35.708209,139.698092
市谷薬王寺町,イチガヤヤクオウジマチ,ICHIGAYAYAKUOJIMACHI,,35.696809,139.725201
原町二丁目,ハラマチ 2,HARAMACHI 2,,35.700576,139.723995
新宿六丁目,シンジュク 6,SHINJUKU 6,,35.695364,139.709795
戸山二丁目,トヤマ 2,TOYAMA 2,,35.702734,139.712125
高田馬場四丁目,タカダノババ 4,TAKADANOBABA 4,,35.710764,139.699185
西新宿一丁目,ニシシンジュク 1,NISHISHINJUKU  1,,35.690383,139.697501
大久保一丁目,オオクボ 1,OKUBO 1,,35.699644,139.70496
新宿七丁目,シンジュク 7,SHINJUKU 7,,35.699527,139.710776
西新宿八丁目,ニシシンジュク 8,NISHISHINJUKU  8,,35.695779,139.692462
北新宿三丁目,キタシンジュク 3,KITASHINJUKU 3,,35.703853,139.69098
西新宿五丁目,ニシシンジュク 5,NISHISHINJUKU  5,,35.692885,139.685558
西新宿六丁目,ニシシンジュク 6,NISHISHINJUKU  6,,35.693426,139.690969
北新宿二丁目,キタシンジュク 2,KITASHINJUKU 2,,35.698586,139.689632
百人町三丁目,ヒャクニンチョウ 3,HYAKUNINCHO 3,,35.706008,139.697743
津久戸町,ツクドチョウ,TSUKUDOCHO,,35.703229,139.741231
東五軒町,ヒガシゴケンチョウ,HIGASHIGOKENCHO,,35.706614,139.739298
天神町,テンジンチョウ,TENJINCHO,,35.705445,139.730652
赤城元町,アカギモトマチ,AKAGI MOTOMACHI,,35.704664,139.736364
改代町,カイタイチョウ,KAITAICHO,,35.707262,139.734464
赤城下町,アカギシタマチ,AKAGI SHITAMACHI,,35.705625,139.733786
水道町,スイドウチョウ,SUIDOCHO,,35.708049,139.736088
新小川町,シンオガワマチ,SHINOGAWAMACHI,,35.706239,139.742185
築地町,ツキジマチ,TSUKIJIMACHI,,35.705976,139.735788
西五軒町,ニシゴケンチョウ,NISHIGOKENCHO,,35.706956,139.737522
中里町,ナカザトチョウ,NAKAZATOCHO,,35.705958,139.731867
矢来町,ヤライチョウ,YARAICHO,,35.702518,139.732339
山吹町,ヤマブキチョウ,YAMABUKICHO,,35.707939,139.729794
若松町,ワカマツチョウ,WAKAMATSUCHO,,35.700183,139.717368
早稲田町,ワセダマチ,WASEDAMACHI,,35.706063,139.722353
早稲田鶴巻町,ワセダツルマキチョウ,WASEDA TSURUMAKICHO,,35.708002,139.724433
戸山一丁目,トヤマ 1,TOYAMA 1,,35.703747,139.718015
馬場下町,ババシタチョウ,BABASHITACHO,,35.706118,139.719654
喜久井町,キクイチョウ,KIKUICHO,,35.703728,139.722061
弁天町,ベンテンチョウ,BENTENCHO,,35.7032,139.726729
戸塚町一丁目,トツカマチ 1,TOTSUKAMACHI 1,,35.709843,139.722149
大久保二丁目,オオクボ 2,OKUBO 2,,35.702675,139.705706
戸山三丁目,トヤマ 3,TOYAMA 3,,35.706289,139.712518
西早稲田二丁目,ニシワセダ 2,NISHIWASEDA(2-CHOME1-BAN1-23-GO.2-B 2,,35.708898,139.713041
西早稲田三丁目,ニシワセダ 3,NISHIWASEDA(2-CHOME1-BAN1-23-GO.2-B 3,,35.712085,139.713796
西早稲田一丁目,ニシワセダ 1,NISHIWASEDA(2-CHOME1-BAN1-23-GO.2-B 1,,35.709821,139.719032
高田馬場一丁目,タカダノババ 1,TAKADANOBABA 1,,35.710978,139.706426
歌舞伎町一丁目,カブキチョウ 1,KABUKICHO 1,,35.695393,139.701297
百人町一丁目,ヒャクニンチョウ 1,HYAKUNINCHO 1,,35.699919,139.699238
百人町二丁目,ヒャクニンチョウ 2,HYAKUNINCHO 2,,35.702991,139.698729
大久保三丁目,オオクボ 3,OKUBO 3,,35.706817,139.70517
北新宿四丁目,キタシンジュク 4,KITASHINJUKU 4,,35.706768,139.691302
中落合四丁目,ナカオチアイ 4,NAKAOCHIAI 4,,35.71887,139.683508
高田馬場三丁目,タカダノババ 3,TAKADANOBABA 3,,35.713475,139.697204
南榎町,ミナミエノキチョウ,MINAMIENOKICHO,,35.702102,139.728968
榎町,エノキチョウ,ENOKICHO,,35.705152,139.727718
高田馬場二丁目,タカダノババ 2,TAKADANOBABA 2,,35.712982,139.707511
上落合一丁目,カミオチアイ 1,KAMIOCHIAI 1,,35.713484,139.692431
下落合一丁目,シモオチアイ 1,SHIMOCHIAI 1,,35.715741,139.699591
西新宿七丁目,ニシシンジュク 7,NISHISHINJUKU  7,,35.695578,139.697241
北新宿一丁目,キタシンジュク 1,KITASHINJUKU 1,,35.699484,139.693877
中落合二丁目,ナカオチアイ 2,NAKAOCHIAI 2,,35.719492,139.692223
上落合三丁目,カミオチアイ 3,KAMIOCHIAI 3,,35.712522,139.68372
上落合二丁目,カミオチアイ 2,KAMIOCHIAI 2,,35.713504,139.688107
中井二丁目,ナカイ 2,NAKAI 2,,35.716427,139.683826
中落合一丁目,ナカオチアイ 1,NAKAOCHIAI 1,,35.717139,139.69024
下落合二丁目,シモオチアイ 2,SHIMOCHIAI 2,,35.718128,139.702509
下落合四丁目,シモオチアイ 4,SHIMOCHIAI 4,,35.719392,139.696567
下落合三丁目,シモオチアイ 3,SHIMOCHIAI 3,,35.721176,139.701739
中落合三丁目,ナカオチアイ 3,NAKAOCHIAI 3,,35.720805,139.688752
西落合二丁目,ニシオチアイ 2,NISHIOCHIAI 2,,35.720912,139.676389
西落合一丁目,ニシオチアイ 1,NISHIOCHIAI 1,,35.721082,139.681274
西落合四丁目,ニシオチアイ 4,NISHIOCHIAI 4,,35.726893,139.678379
西落合三丁目,ニシオチアイ 3,NISHIOCHIAI 3,,35.724182,139.678924
荒木町,アラキチョウ,ARAKICHO,,35.690421,139.723123
片町,カタマチ,KATAMACHI,,35.692289,139.724476
市谷本村町,イチガヤホンムラチョウ,ICHIGAYAHOMMURACHO,,35.692544,139.729326
四谷坂町,ヨツヤサカマチ,YOTSUYASAKAMACHI,,35.690599,139.727178
四谷三栄町,ヨツヤサンエイチョウ,YOTSUYASANEICHO,,35.688757,139.725668
四谷本塩町,ヨツヤホンシオチョウ,YOTSUYAHONSHIOCHO,,35.689053,139.729776
四谷一丁目,ヨツヤ 1,YOTSUYA 1,,35.685906,139.728799
若葉一丁目,ワカバ 1,WAKABA 1,,35.684268,139.726541
霞ヶ丘町,,,,35.677073,139.716292
