name,name_kana,name_romaji,nickname,latitude,longitude
羽田空港三丁目,ハネダクウコウ 3,HANEDAKUKO 3,,35.549786,139.786522
平和島二丁目,ヘイワジマ 2,HEIWAJIMA 2,,35.587316,139.745175
羽田三丁目,ハネダ 3,HANEDA 3,,35.546379,139.745061
羽田六丁目,ハネダ 6,HANEDA 6,,35.546031,139.74955
平和島五丁目,ヘイワジマ 5,HEIWAJIMA 5,,35.577557,139.744934
大森南五丁目,オオモリミナミ 5,OMORIMINAMI 5,,35.563815,139.749477
羽田四丁目,ハネダ 4,HANEDA 4,,35.549961,139.746616
大森南四丁目,オオモリミナミ 4,OMORIMINAMI 4,,35.566826,139.74697
羽田旭町,ハネダアサヒチョウ,HANEDAASAHICHO,,35.553743,139.749566
東糀谷四丁目,ヒガシコウジヤ 4,HIGASHIKOJIYA 4,,35.555464,139.74505
昭和島一丁目,ショウワジマ 1,SHOWAJIMA 1,,35.571533,139.746867
平和島三丁目,ヘイワジマ 3,HEIWAJIMA 3,,35.583588,139.747385
東糀谷五丁目,ヒガシコウジヤ 5,HIGASHIKOJIYA 5,,35.559103,139.744808
平和島六丁目,ヘイワジマ 6,HEIWAJIMA 6,,35.579188,139.749429
大森南二丁目,オオモリミナミ 2,OMORIMINAMI 2,,35.562543,139.743604
東海四丁目,トウカイ 4,TOKAI 4,,35.589646,139.765891
東海一丁目,トウカイ 1,TOKAI 1,,35.586293,139.75288
久が原一丁目,クガハラ 1,KUGAHARA 1,,35.585549,139.691256
山王二丁目,サンノウ 2,SANNO 2,,35.589121,139.725116
山王三丁目,サンノウ 3,SANNO 3,,35.5841,139.722859
南馬込四丁目,ミナミマゴメ 4,MINAMIMAGOME 4,,35.585358,139.712388
南馬込三丁目,ミナミマゴメ 3,MINAMIMAGOME 3,,35.585528,139.717802
仲池上二丁目,ナカイケガミ 2,NAKAIKEGAMI 2,,35.582907,139.700656
仲池上一丁目,ナカイケガミ 1,NAKAIKEGAMI 1,,35.587651,139.697507
田園調布本町,デンエンチョウフホンチョウ,DENENCHOFU HONCHO,,35.585089,139.674611
大森本町一丁目,オオモリホンチョウ 1,OMORIHONCHO 1,,35.584746,139.73736
平和島一丁目,ヘイワジマ 1,HEIWAJIMA 1,,35.585813,139.740409
大森北二丁目,オオモリキタ 2,OMORIKITA 2,,35.58578,139.733699
西馬込二丁目,ニシマゴメ 2,NISHIMAGOME 2,,35.586702,139.703858
南馬込五丁目,ミナミマゴメ 5,MINAMIMAGOME 5,,35.588506,139.709303
田園調布一丁目,デンエンチョウフ 1,DENENCHOFU 1,,35.589326,139.671359
北嶺町,キタミネマチ,KITAMINEMACHI,,35.586198,139.682196
山王四丁目,サンノウ 4,SANNO 4,,35.587246,139.721687
大森北一丁目,オオモリキタ 1,OMORIKITA 1,,35.587281,139.729647
城南島一丁目,ジョウナンジマ 1,JONANJIMA 1,,35.577702,139.770275
城南島三丁目,ジョウナンジマ 3,JONANJIMA 3,,35.57886,139.779889
城南島四丁目,ジョウナンジマ 4,JONANJIMA 4,,35.580196,139.783628
羽田五丁目,ハネダ 5,HANEDA 5,,35.549095,139.750394
京浜島一丁目,ケイヒンジマ 1,KEIHINJIMA 1,,35.569659,139.758735
羽田空港二丁目,ハネダクウコウ 2,HANEDAKUKO 2,,35.5512,139.764712
羽田空港一丁目,ハネダクウコウ 1,HANEDAKUKO 1,,35.554814,139.756936
東糀谷六丁目,ヒガシコウジヤ 6,HIGASHIKOJIYA 6,,35.557932,139.749935
京浜島二丁目,ケイヒンジマ 2,KEIHINJIMA 2,,35.568985,139.764485
京浜島三丁目,ケイヒンジマ 3,KEIHINJIMA 3,,35.573815,139.765573
昭和島二丁目,ショウワジマ 2,SHOWAJIMA 2,,35.571707,139.752093
東海二丁目,トウカイ 2,TOKAI 2,,35.580627,139.753998
南六郷二丁目,ミナミロクゴウ 2,MINAMIROKUGO 2,,35.544964,139.7206
南六郷三丁目,ミナミロクゴウ 3,MINAMIROKUGO 3,,35.542185,139.716026
仲六郷四丁目,ナカロクゴウ 4,NAKAROKUGO 4,,35.540839,139.707751
西六郷四丁目,ニシロクゴウ 4,NISHIROKUGO 4,,35.54137,139.702374
本羽田三丁目,ホンハネダ 3,HONHANEDA 3,,35.545155,139.737353
羽田二丁目,ハネダ 2,HANEDA 2,,35.546705,139.742235
東糀谷二丁目,ヒガシコウジヤ 2,HIGASHIKOJIYA 2,,35.555403,139.740856
本羽田一丁目,ホンハネダ 1,HONHANEDA 1,,35.546645,139.728
西糀谷三丁目,ニシコウジヤ 3,NISHIKOJIYA 3,,35.554648,139.736543
東糀谷三丁目,ヒガシコウジヤ 3,HIGASHIKOJIYA 3,,35.55304,139.743082
萩中三丁目,ハギナカ 3,HAGINAKA 3,,35.551008,139.737127
羽田一丁目,ハネダ 1,HANEDA 1,,35.550615,139.742878
本羽田二丁目,ホンハネダ 2,HONHANEDA 2,,35.545217,139.731914
西糀谷四丁目,ニシコウジヤ 4,NISHIKOJIYA 4,,35.554943,139.730633
西糀谷二丁目,ニシコウジヤ 2,NISHIKOJIYA 2,,35.558977,139.735813
東糀谷一丁目,ヒガシコウジヤ 1,HIGASHIKOJIYA 1,,35.559116,139.740444
萩中二丁目,ハギナカ 2,HAGINAKA 2,,35.551526,139.731596
東六郷二丁目,ヒガシロクゴウ 2,HIGASHIROKUGO 2,,35.548885,139.717237
西糀谷一丁目,ニシコウジヤ 1,NISHIKOJIYA 1,,35.558716,139.730565
萩中一丁目,ハギナカ 1,HAGINAKA 1,,35.55124,139.726372
南蒲田一丁目,ミナミカマタ 1,MINAMIKAMATA 1,,35.558726,139.725287
南蒲田三丁目,ミナミカマタ 3,MINAMIKAMATA 3,,35.554228,139.72689
南蒲田二丁目,ミナミカマタ 2,MINAMIKAMATA 2,,35.555352,139.722996
北糀谷二丁目,キタコウジヤ 2,KITAKOJIYA 2,,35.562323,139.73306
東蒲田二丁目,ヒガシカマタ 2,HIGASHIKAMATA 2,,35.561848,139.728015
大森中三丁目,オオモリナカ 3,OMORINAKA 3,,35.564592,139.732378
南六郷一丁目,ミナミロクゴウ 1,MINAMIROKUGO 1,,35.547327,139.724046
東六郷一丁目,ヒガシロクゴウ 1,HIGASHIROKUGO 1,,35.55262,139.720287
蒲田四丁目,カマタ 4,KAMATA 4,,35.560144,139.721394
蒲田本町二丁目,カマタホンチョウ 2,KAMATAHONCHO 2,,35.557062,139.719476
東蒲田一丁目,ヒガシカマタ 1,HIGASHIKAMATA 1,,35.564989,139.729107
大森中二丁目,オオモリナカ 2,OMORINAKA 2,,35.56751,139.732573
蒲田三丁目,カマタ 3,KAMATA 3,,35.563465,139.723952
西六郷三丁目,ニシロクゴウ 3,NISHIROKUGO 3,,35.546431,139.704474
仲六郷二丁目,ナカロクゴウ 2,NAKAROKUGO 2,,35.550591,139.713807
仲六郷三丁目,ナカロクゴウ 3,NAKAROKUGO 3,,35.54735,139.711908
東六郷三丁目,ヒガシロクゴウ 3,HIGASHIROKUGO 3,,35.541825,139.711125
蒲田本町一丁目,カマタホンチョウ 1,KAMATAHONCHO 1,,35.557417,139.715744
新蒲田一丁目,シンカマタ 1,SHINKAMATA 1,,35.55758,139.711433
西六郷二丁目,ニシロクゴウ 2,NISHIROKUGO 2,,35.549836,139.707269
西六郷一丁目,ニシロクゴウ 1,NISHIROKUGO 1,,35.553994,139.708081
仲六郷一丁目,ナカロクゴウ 1,NAKAROKUGO 1,,35.553666,139.715608
西蒲田七丁目,ニシカマタ 7,NISHIKAMATA 7,,35.563007,139.712494
蒲田五丁目,カマタ 5,KAMATA 5,,35.561768,139.718337
西蒲田八丁目,ニシカマタ 8,NISHIKAMATA 8,,35.56048,139.711986
東矢口三丁目,ヒガシヤグチ 3,HIGASHIYAGUCHI 3,,35.562196,139.706307
新蒲田三丁目,シンカマタ 3,SHINKAMATA 3,,35.556675,139.706595
新蒲田二丁目,シンカマタ 2,SHINKAMATA 2,,35.560517,139.705024
多摩川一丁目,タマガワ 1,TAMAGAWA 1,,35.563115,139.699423
多摩川二丁目,タマガワ 2,TAMAGAWA 2,,35.557006,139.700288
矢口一丁目,ヤグチ 1,YAGUCHI 1,,35.567344,139.692486
矢口三丁目,ヤグチ 3,YAGUCHI 3,,35.558958,139.692724
大森東四丁目,オオモリヒガシ 4,OMORIHIGASHI 4,,35.567425,139.738306
大森南三丁目,オオモリミナミ 3,OMORIMINAMI 3,,35.565735,139.742741
ふるさとの浜辺公園,フルサトノハマベコウエン,FURUSATONOHAMABEKOEN,,35.573351,139.741849
平和の森公園,ヘイワノモリコウエン,HEIWANOMORIKOEN,,35.579671,139.740183
大森東五丁目,オオモリヒガシ 5,OMORIHIGASHI 5,,35.569174,139.743172
北糀谷一丁目,キタコウジヤ 1,KITAKOJIYA 1,,35.563224,139.735619
大森南一丁目,オオモリミナミ 1,OMORIMINAMI 1,,35.56361,139.738624
平和島四丁目,ヘイワジマ 4,HEIWAJIMA 4,,35.581935,139.742403
大森西五丁目,オオモリニシ 5,OMORINISHI 5,,35.570808,139.727932
大森中一丁目,オオモリナカ 1,OMORINAKA 1,,35.571149,139.73339
大森北三丁目,オオモリキタ 3,OMORIKITA 3,,35.582776,139.73317
大森東三丁目,オオモリヒガシ 3,OMORIHIGASHI 3,,35.571921,139.740036
大森東二丁目,オオモリヒガシ 2,OMORIHIGASHI 2,,35.573302,139.736365
大森西三丁目,オオモリニシ 3,OMORINISHI 3,,35.573399,139.72925
蒲田二丁目,カマタ 2,KAMATA 2,,35.566513,139.725574
大森東一丁目,オオモリヒガシ 1,OMORIHIGASHI 1,,35.576501,139.738648
大森西六丁目,オオモリニシ 6,OMORINISHI 6,,35.568681,139.726742
西蒲田五丁目,ニシカマタ 5,NISHIKAMATA 5,,35.565837,139.715229
蒲田一丁目,カマタ 1,KAMATA 1,,35.565696,139.719843
大森西四丁目,オオモリニシ 4,OMORINISHI 4,,35.572757,139.722489
大森本町二丁目,オオモリホンチョウ 2,OMORIHONCHO 2,,35.579346,139.737491
大森北六丁目,オオモリキタ 6,OMORIKITA 6,,35.579466,139.731939
大森西二丁目,オオモリニシ 2,OMORINISHI 2,,35.577212,139.730913
中央二丁目,チュウオウ 2,CHUO 2,,35.578647,139.720973
中央三丁目,チュウオウ 3,CHUO 3,,35.576362,139.718961
大森西一丁目,オオモリニシ 1,OMORINISHI 1,,35.577538,139.724678
大森北五丁目,オオモリキタ 5,OMORIKITA 5,,35.580739,139.726208
大森北四丁目,オオモリキタ 4,OMORIKITA 4,,35.583287,139.727434
大森西七丁目,オオモリニシ 7,OMORINISHI 7,,35.569914,139.721438
西蒲田六丁目,ニシカマタ 6,NISHIKAMATA 6,,35.566056,139.710368
西蒲田四丁目,ニシカマタ 4,NISHIKAMATA 4,,35.568861,139.715185
中央七丁目,チュウオウ 7,CHUO 7,,35.575893,139.715106
西蒲田一丁目,ニシカマタ 1,NISHIKAMATA 1,,35.571576,139.713017
中央六丁目,チュウオウ 6,CHUO 6,,35.577933,139.712719
中央八丁目,チュウオウ 8,CHUO 8,,35.572709,139.716869
中央四丁目,チュウオウ 4,CHUO 4,,35.580046,139.716623
中央一丁目,チュウオウ 1,CHUO 1,,35.581202,139.71963
中央五丁目,チュウオウ 5,CHUO 5,,35.581055,139.711591
西蒲田二丁目,ニシカマタ 2,NISHIKAMATA 2,,35.570534,139.708379
池上六丁目,イケガミ 6,IKEGAMI 6,,35.569934,139.704095
池上五丁目,イケガミ 5,IKEGAMI 5,,35.572814,139.70851
東矢口二丁目,ヒガシヤグチ 2,HIGASHIYAGUCHI 2,,35.564813,139.700696
池上四丁目,イケガミ 4,IKEGAMI 4,,35.574461,139.706629
千鳥二丁目,チドリ 2,CHIDORI 2,,35.568999,139.693787
池上八丁目,イケガミ 8,IKEGAMI 8,,35.569474,139.697392
池上二丁目,イケガミ 2,IKEGAMI 2,,35.579012,139.702529
久が原五丁目,クガハラ 5,KUGAHARA 5,,35.576689,139.697185
池上一丁目,イケガミ 1,IKEGAMI 1,,35.578435,139.707141
南馬込六丁目,ミナミマゴメ 6,MINAMIMAGOME 6,,35.583429,139.708197
東矢口一丁目,ヒガシヤグチ 1,HIGASHIYAGUCHI 1,,35.565711,139.705319
西蒲田三丁目,ニシカマタ 3,NISHIKAMATA 3,,35.56786,139.708972
池上七丁目,イケガミ 7,IKEGAMI 7,,35.569868,139.700563
池上三丁目,イケガミ 3,IKEGAMI 3,,35.575581,139.701131
千鳥一丁目,チドリ 1,CHIDORI 1,,35.572995,139.694237
久が原六丁目,クガハラ 6,KUGAHARA 6,,35.575043,139.692635
下丸子一丁目,シモマルコ 1,SHIMOMARUKO 1,,35.567905,139.688589
千鳥三丁目,チドリ 3,CHIDORI 3,,35.572158,139.688849
下丸子二丁目,シモマルコ 2,SHIMOMARUKO 2,,35.563514,139.684309
矢口二丁目,ヤグチ 2,YAGUCHI 2,,35.562929,139.69302
久が原四丁目,クガハラ 4,KUGAHARA 4,,35.57986,139.692239
久が原二丁目,クガハラ 2,KUGAHARA 2,,35.582366,139.696993
南久が原一丁目,ミナミクガハラ 1,MINAMIKUGAHARA 1,,35.576376,139.688259
久が原三丁目,クガハラ 3,KUGAHARA 3,,35.581793,139.689288
鵜の木二丁目,ウノキ 2,UNOKI 2,,35.574012,139.677849
鵜の木一丁目,ウノキ 1,UNOKI 1,,35.575418,139.682645
南久が原二丁目,ミナミクガハラ 2,MINAMIKUGAHARA 2,,35.576697,139.685377
東嶺町,ヒガシミネマチ,HIGASHIMINEMACHI,,35.582653,139.684287
西嶺町,ニシミネマチ,NISHIMINEMACHI,,35.581374,139.679623
鵜の木三丁目,ウノキ 3,UNOKI 3,,35.577447,139.677562
田園調布南,デンエンチョウフミナミ,DENENCHOFU MINAMI,,35.580197,139.67385
下丸子四丁目,シモマルコ 4,SHIMOMARUKO 4,,35.569348,139.679391
下丸子三丁目,シモマルコ 3,SHIMOMARUKO 3,,35.567823,139.684012
東海五丁目,トウカイ 5,TOKAI 5,,35.592023,139.771493
西馬込一丁目,ニシマゴメ 1,NISHIMAGOME 1,,35.590541,139.705525
南雪谷五丁目,ミナミユキガヤ 5,MINAMIYUKIGAYA 5,,35.589094,139.688511
南雪谷四丁目,ミナミユキガヤ 4,MINAMIYUKIGAYA 4,,35.589109,139.683551
東雪谷二丁目,ヒガシユキガヤ 2,HIGASHIYUKIGAYA 2,,35.596687,139.685928
田園調布五丁目,デンエンチョウフ 5,DENENCHOFU 5,,35.594701,139.657613
山王一丁目,サンノウ 1,SANNO 1,,35.592411,139.724981
中馬込三丁目,ナカマゴメ 3,NAKAMAGOME 3,,35.592227,139.704863
南馬込一丁目,ミナミマゴメ 1,MINAMIMAGOME 1,,35.591809,139.713871
東馬込一丁目,ヒガシマゴメ 1,HIGASHIMAGOME 1,,35.597329,139.713425
中馬込二丁目,ナカマゴメ 2,NAKAMAGOME 2,,35.595767,139.709113
北馬込二丁目,キタマゴメ 2,KITAMAGOME 2,,35.598405,139.709912
上池台五丁目,カミイケダイ 5,KAMIIKEDAI 5,,35.593618,139.701012
中馬込一丁目,ナカマゴメ 1,NAKAMAGOME 1,,35.596698,139.705288
東雪谷五丁目,ヒガシユキガヤ 5,HIGASHIYUKIGAYA 5,,35.59073,139.692373
上池台四丁目,カミイケダイ 4,KAMIIKEDAI 4,,35.597521,139.70025
北馬込一丁目,キタマゴメ 1,KITAMAGOME 1,,35.599788,139.705352
南雪谷二丁目,ミナミユキガヤ 2,MINAMIYUKIGAYA 2,,35.590694,139.681226
南雪谷三丁目,ミナミユキガヤ 3,MINAMIYUKIGAYA 3,,35.591679,139.686336
南雪谷一丁目,ミナミユキガヤ 1,MINAMIYUKIGAYA 1,,35.594621,139.68326
東雪谷一丁目,ヒガシユキガヤ 1,HIGASHIYUKIGAYA 1,,35.597691,139.689909
東雪谷三丁目,ヒガシユキガヤ 3,HIGASHIYUKIGAYA 3,,35.593932,139.688877
東雪谷四丁目,ヒガシユキガヤ 4,HIGASHIYUKIGAYA 4,,35.592817,139.694539
上池台三丁目,カミイケダイ 3,KAMIIKEDAI 3,,35.59391,139.697452
上池台二丁目,カミイケダイ 2,KAMIIKEDAI 2,,35.599045,139.69377
南千束三丁目,ミナミセンゾク 3,MINAMISENZOKU 3,,35.602,139.686589
南千束二丁目,ミナミセンゾク 2,MINAMISENZOKU 2,,35.603089,139.689396
北千束三丁目,キタセンゾク 3,KITASENZOKU 3,,35.606389,139.687434
田園調布四丁目,デンエンチョウフ 4,DENENCHOFU 4,,35.593802,139.661824
石川町一丁目,イシカワチョウ 1,ISHIKAWACHO 1,,35.602746,139.68253
石川町二丁目,イシカワチョウ 2,ISHIKAWACHO 2,,35.597953,139.682353
田園調布三丁目,デンエンチョウフ 3,DENENCHOFU 3,,35.594932,139.665248
田園調布二丁目,デンエンチョウフ 2,DENENCHOFU 2,,35.594972,139.670322
雪谷大塚町,ユキガヤオオツカマチ,YUKIGAYAOTSUKAMACHI,,35.592141,139.678534
南馬込二丁目,ミナミマゴメ 2,MINAMIMAGOME 2,,35.589817,139.716695
東馬込二丁目,ヒガシマゴメ 2,HIGASHIMAGOME 2,,35.59357,139.716787
南千束一丁目,ミナミセンゾク 1,MINAMISENZOKU 1,,35.603044,139.694175
上池台一丁目,カミイケダイ 1,KAMIIKEDAI 1,,35.600944,139.697809
北千束一丁目,キタセンゾク 1,KITASENZOKU 1,,35.610185,139.688469
北千束二丁目,キタセンゾク 2,KITASENZOKU 2,,35.60701,139.692666
東海三丁目,トウカイ 3,TOKAI 3,,35.581064,139.761533
城南島二丁目,ジョウナンジマ 2,JONANJIMA 2,,35.580659,139.776815
城南島五丁目,ジョウナンジマ 5,JONANJIMA 5,,35.583213,139.779804
城南島七丁目,ジョウナンジマ 7,JONANJIMA 7,,35.580266,139.77069
城南島六丁目,ジョウナンジマ 6,JONANJIMA 6,,35.582509,139.77328
東海六丁目,トウカイ 6,TOKAI 6,,35.587428,139.771696
