name,name_kana,name_romaji,nickname,latitude,longitude
上布田町,,,,35.639302,139.545331
下布田町,,,,35.636501,139.549646
入間町一丁目,イリマチョウ 1,IRIMACHO 1,,35.652493,139.588664
入間町二丁目,イリマチョウ 2,IRIMACHO 2,,35.649082,139.58496
入間町三丁目,イリマチョウ 3,IRIMACHO 3,,35.647766,139.589933
上石原,カミイシワラ,KAMIISHIWARA,,35.648754,139.522076
上石原一丁目,カミイシワラ 1,KAMIISHIWARA 1,,35.658982,139.530182
上石原二丁目,カミイシワラ 2,KAMIISHIWARA 2,,35.655678,139.528221
上石原三丁目,カミイシワラ 3,KAMIISHIWARA 3,,35.651703,139.523937
菊野台一丁目,キクノダイ 1,KIKUNODAI 1,,35.655546,139.566985
菊野台二丁目,キクノダイ 2,KIKUNODAI 2,,35.651546,139.566406
菊野台三丁目,キクノダイ 3,KIKUNODAI 3,,35.652595,139.571144
国領町,コクリョウチョウ,KOKURYOCHO,,35.636327,139.556512
国領町一丁目,コクリョウチョウ 1,KOKURYOCHO 1,,35.651385,139.553983
国領町二丁目,コクリョウチョウ 2,KOKURYOCHO 2,,35.651682,139.559226
国領町三丁目,コクリョウチョウ 3,KOKURYOCHO 3,,35.649614,139.560117
国領町四丁目,コクリョウチョウ 4,KOKURYOCHO 4,,35.647558,139.558156
国領町五丁目,コクリョウチョウ 5,KOKURYOCHO 5,,35.647717,139.553352
国領町六丁目,コクリョウチョウ 6,KOKURYOCHO 6,,35.644818,139.553653
国領町七丁目,コクリョウチョウ 7,KOKURYOCHO 7,,35.643892,139.56028
国領町八丁目,コクリョウチョウ 8,KOKURYOCHO 8,,35.647732,139.564078
小島町,コジマチョウ,KOJIMACHO,,35.640634,139.538103
小島町一丁目,コジマチョウ 1,KOJIMACHO 1,,35.654304,139.541507
小島町二丁目,コジマチョウ 2,KOJIMACHO 2,,35.651039,139.540241
小島町三丁目,コジマチョウ 3,KOJIMACHO 3,,35.647834,139.539103
佐須町一丁目,サズマチ 1,SAZUMACHI 1,,35.661539,139.551382
佐須町二丁目,サズマチ 2,SAZUMACHI 2,,35.660076,139.554033
佐須町三丁目,サズマチ 3,SAZUMACHI 3,,35.657349,139.553585
佐須町四丁目,サズマチ 4,SAZUMACHI 4,,35.657648,139.557957
佐須町五丁目,サズマチ 5,SAZUMACHI 5,,35.661457,139.560668
柴崎一丁目,シバサキ 1,SHIBASAKI 1,,35.657009,139.562968
柴崎二丁目,シバサキ 2,SHIBASAKI 2,,35.662181,139.564909
下石原,シモイシワラ,SHIMOISHIWARA,,35.643106,139.529039
下石原一丁目,シモイシワラ 1,SHIMOISHIWARA 1,,35.656656,139.536065
下石原二丁目,シモイシワラ 2,SHIMOISHIWARA 2,,35.653638,139.534998
下石原三丁目,シモイシワラ 3,SHIMOISHIWARA 3,,35.65073,139.533894
深大寺北町一丁目,ジンダイジキタマチ 1,JINDAIJIKITAMACHI 1,,35.674399,139.547756
深大寺北町二丁目,ジンダイジキタマチ 2,JINDAIJIKITAMACHI 2,,35.673482,139.552025
深大寺北町三丁目,ジンダイジキタマチ 3,JINDAIJIKITAMACHI 3,,35.676637,139.550064
深大寺北町四丁目,ジンダイジキタマチ 4,JINDAIJIKITAMACHI 4,,35.678958,139.553013
深大寺北町五丁目,ジンダイジキタマチ 5,JINDAIJIKITAMACHI 5,,35.679062,139.549601
深大寺北町六丁目,ジンダイジキタマチ 6,JINDAIJIKITAMACHI 6,,35.679205,139.545105
深大寺北町七丁目,ジンダイジキタマチ 7,JINDAIJIKITAMACHI 7,,35.674819,139.543846
深大寺東町一丁目,ジンダイジヒガシマチ 1,JINDAIJIHIGASHIMACHI 1,,35.670206,139.55756
深大寺東町二丁目,ジンダイジヒガシマチ 2,JINDAIJIHIGASHIMACHI 2,,35.667702,139.560501
深大寺東町三丁目,ジンダイジヒガシマチ 3,JINDAIJIHIGASHIMACHI 3,,35.668076,139.563466
深大寺東町四丁目,ジンダイジヒガシマチ 4,JINDAIJIHIGASHIMACHI 4,,35.671677,139.561514
深大寺東町五丁目,ジンダイジヒガシマチ 5,JINDAIJIHIGASHIMACHI 5,,35.673366,139.556247
深大寺東町六丁目,ジンダイジヒガシマチ 6,JINDAIJIHIGASHIMACHI 6,,35.675433,139.557548
深大寺東町七丁目,ジンダイジヒガシマチ 7,JINDAIJIHIGASHIMACHI 7,,35.678258,139.559338
深大寺東町八丁目,ジンダイジヒガシマチ 8,JINDAIJIHIGASHIMACHI 8,,35.679729,139.555711
深大寺南町一丁目,ジンダイジミナミマチ 1,JINDAIJIMINAMIMACHI 1,,35.662214,139.55512
深大寺南町二丁目,ジンダイジミナミマチ 2,JINDAIJIMINAMIMACHI 2,,35.662214,139.557921
深大寺南町三丁目,ジンダイジミナミマチ 3,JINDAIJIMINAMIMACHI 3,,35.664587,139.560283
深大寺南町四丁目,ジンダイジミナミマチ 4,JINDAIJIMINAMIMACHI 4,,35.665005,139.555604
深大寺南町五丁目,ジンダイジミナミマチ 5,JINDAIJIMINAMIMACHI 5,,35.667619,139.556343
深大寺元町一丁目,ジンダイジモトマチ 1,JINDAIJIMOTOMACHI 1,,35.66384,139.544853
深大寺元町二丁目,ジンダイジモトマチ 2,JINDAIJIMOTOMACHI 2,,35.663887,139.550292
深大寺元町三丁目,ジンダイジモトマチ 3,JINDAIJIMOTOMACHI 3,,35.665704,139.545719
深大寺元町四丁目,ジンダイジモトマチ 4,JINDAIJIMOTOMACHI 4,,35.669769,139.542996
深大寺元町五丁目,ジンダイジモトマチ 5,JINDAIJIMOTOMACHI 5,,35.669219,139.549653
仙川町一丁目,センガワチョウ 1,SENGAWACHO 1,,35.66088,139.585596
仙川町二丁目,センガワチョウ 2,SENGAWACHO 2,,35.662948,139.581477
仙川町三丁目,センガワチョウ 3,SENGAWACHO 3,,35.664106,139.585102
染地一丁目,ソメチ 1,SOMECHI 1,,35.64208,139.547221
染地二丁目,ソメチ 2,SOMECHI 2,,35.640622,139.552062
染地三丁目,ソメチ 3,SOMECHI 3,,35.639561,139.558768
多摩川一丁目,タマガワ 1,TAMAGAWA 1,,35.650181,139.528523
多摩川二丁目,タマガワ 2,TAMAGAWA 2,,35.646466,139.525504
多摩川三丁目,タマガワ 3,TAMAGAWA 3,,35.645686,139.530905
多摩川四丁目,タマガワ 4,TAMAGAWA 4,,35.64329,139.533126
多摩川五丁目,タマガワ 5,TAMAGAWA 5,,35.642587,139.536897
多摩川六丁目,タマガワ 6,TAMAGAWA 6,,35.643509,139.541763
多摩川七丁目,タマガワ 7,TAMAGAWA 7,,35.640693,139.542439
調布ケ丘一丁目,チョウフガオカ 1,CHOFUGAOKA 1,,35.657327,139.545124
調布ケ丘二丁目,チョウフガオカ 2,CHOFUGAOKA 2,,35.655227,139.5499
調布ケ丘三丁目,チョウフガオカ 3,CHOFUGAOKA 3,,35.658935,139.549209
調布ケ丘四丁目,チョウフガオカ 4,CHOFUGAOKA 4,,35.66128,139.54497
飛田給一丁目,トビタキュウ 1,TOBITAKYU 1,,35.661605,139.52404
飛田給二丁目,トビタキュウ 2,TOBITAKYU 2,,35.658766,139.522836
飛田給三丁目,トビタキュウ 3,TOBITAKYU 3,,35.656037,139.520725
西つつじケ丘一丁目,ニシツツジガオカ 1,NISHITSUTSUJIGAOKA 1,,35.660936,139.569348
西つつじケ丘二丁目,ニシツツジガオカ 2,NISHITSUTSUJIGAOKA 2,,35.661675,139.57238
西つつじケ丘三丁目,ニシツツジガオカ 3,NISHITSUTSUJIGAOKA 3,,35.657496,139.571871
西つつじケ丘四丁目,ニシツツジガオカ 4,NISHITSUTSUJIGAOKA 4,,35.653368,139.575433
西町,ニシマチ,NISHIMACHI,,35.666945,139.528461
野水一丁目,ノミズ 1,NOMIZU 1,,35.681836,139.524426
野水二丁目,ノミズ 2,NOMIZU 2,,35.685314,139.524597
東つつじケ丘一丁目,ヒガシツツジガオカ 1,HIGASHITSUTSUJIGAOKA 1,,35.659826,139.57739
東つつじケ丘二丁目,ヒガシツツジガオカ 2,HIGASHITSUTSUJIGAOKA 2,,35.657279,139.577725
東つつじケ丘三丁目,ヒガシツツジガオカ 3,HIGASHITSUTSUJIGAOKA 3,,35.652653,139.580525
富士見町一丁目,フジミチョウ 1,FUJIMICHO 1,,35.6602,139.53539
富士見町二丁目,フジミチョウ 2,FUJIMICHO 2,,35.658915,139.540462
富士見町三丁目,フジミチョウ 3,FUJIMICHO 3,,35.662883,139.540672
富士見町四丁目,フジミチョウ 4,FUJIMICHO 4,,35.665296,139.535988
布田一丁目,フダ 1,FUDA 1,,35.653183,139.545652
布田二丁目,フダ 2,FUDA 2,,35.652152,139.549112
布田三丁目,フダ 3,FUDA 3,,35.648897,139.548616
布田四丁目,フダ 4,FUDA 4,,35.649755,139.544838
布田五丁目,フダ 5,FUDA 5,,35.645693,139.543306
布田六丁目,フダ 6,FUDA 6,,35.645436,139.548007
緑ケ丘一丁目,ミドリガオカ 1,MIDORIGAOKA 1,,35.668376,139.580444
緑ケ丘二丁目,ミドリガオカ 2,MIDORIGAOKA 2,,35.668229,139.585631
八雲台一丁目,ヤグモダイ 1,YAGUMODAI 1,,35.654717,139.554447
八雲台二丁目,ヤグモダイ 2,YAGUMODAI 2,,35.654022,139.559258
若葉町一丁目,ワカバチョウ 1,WAKABACHO 1,,35.65803,139.582881
若葉町二丁目,ワカバチョウ 2,WAKABACHO 2,,35.65734,139.588136
若葉町三丁目,ワカバチョウ 3,WAKABACHO 3,,35.653794,139.584076
