name,name_kana,name_romaji,nickname,latitude,longitude
宮崎二丁目,ミヤザキ 2,MIYAZAKI 2,,35.588048,139.591687
宮崎一丁目,ミヤザキ 1,MIYAZAKI 1,,35.584751,139.593441
宮前平一丁目,ミヤマエダイラ 1,MIYAMAEDAIRA 1,,35.584839,139.585832
宮崎,ミヤザキ,MIYAZAKI,,35.587619,139.597347
土橋四丁目,ツチハシ 4,TSUCHIHASHI 4,,35.586192,139.570235
土橋一丁目,ツチハシ 1,TSUCHIHASHI 1,,35.587051,139.576673
宮前平三丁目,ミヤマエダイラ 3,MIYAMAEDAIRA 3,,35.587669,139.586497
宮前平二丁目,ミヤマエダイラ 2,MIYAMAEDAIRA 2,,35.587782,139.581604
土橋二丁目,ツチハシ 2,TSUCHIHASHI 2,,35.584926,139.575955
犬蔵二丁目,イヌクラ 2,INUKURA 2,,35.583435,139.563502
東有馬四丁目,ヒガシアリマ 4,HIGASHIARIMA 4,,35.569544,139.588441
東有馬二丁目,ヒガシアリマ 2,HIGASHIARIMA 2,,35.575382,139.594066
東有馬五丁目,ヒガシアリマ 5,HIGASHIARIMA 5,,35.569215,139.595067
梶ケ谷,カジガヤ,KAJIGAYA,,35.58194,139.605476
東有馬三丁目,ヒガシアリマ 3,HIGASHIARIMA 3,,35.572447,139.591135
東有馬一丁目,ヒガシアリマ 1,HIGASHIARIMA 1,,35.576096,139.589251
有馬六丁目,アリマ 6,ARIMA 6,,35.570325,139.583039
有馬四丁目,アリマ 4,ARIMA 4,,35.575604,139.58013
有馬九丁目,アリマ 9,ARIMA 9,,35.572188,139.570378
有馬五丁目,アリマ 5,ARIMA 5,,35.573262,139.580892
有馬八丁目,アリマ 8,ARIMA 8,,35.573306,139.574567
有馬七丁目,アリマ 7,ARIMA 7,,35.570958,139.57781
小台二丁目,コダイ 2,KODAI 2,,35.582278,139.581834
鷺沼一丁目,サギヌマ 1,SAGINUMA 1,,35.576974,139.572934
有馬一丁目,アリマ 1,ARIMA 1,,35.578103,139.578515
小台一丁目,コダイ 1,KODAI 1,,35.581471,139.577296
土橋三丁目,ツチハシ 3,TSUCHIHASHI 3,,35.582518,139.573235
鷺沼二丁目,サギヌマ 2,SAGINUMA 2,,35.574646,139.569128
鷺沼三丁目,サギヌマ 3,SAGINUMA 3,,35.579103,139.56924
有馬三丁目,アリマ 3,ARIMA 3,,35.575056,139.585161
鷺沼四丁目,サギヌマ 4,SAGINUMA 4,,35.582943,139.567685
菅生六丁目,スガオ 6,SUGAO 6,,35.592765,139.561347
宮崎六丁目,ミヤザキ 6,MIYAZAKI 6,,35.591282,139.580981
土橋六丁目,ツチハシ 6,TSUCHIHASHI 6,,35.589136,139.571104
菅生五丁目,スガオ 5,SUGAO 5,,35.593765,139.556634
神木二丁目,シボク 2,SHIBOKU 2,,35.594771,139.583051
宮崎四丁目,ミヤザキ 4,MIYAZAKI 4,,35.59393,139.587005
神木本町二丁目,シボクホンチョウ 2,SHIBOKUHONCHO 2,,35.603419,139.585331
土橋七丁目,ツチハシ 7,TSUCHIHASHI 7,,35.590547,139.575373
神木本町三丁目,シボクホンチョウ 3,SHIBOKUHONCHO 3,,35.599542,139.586328
宮崎五丁目,ミヤザキ 5,MIYAZAKI 5,,35.591243,139.58665
宮崎三丁目,ミヤザキ 3,MIYAZAKI 3,,35.591563,139.591243
平六丁目,タイラ 6,TAIRA 6,,35.596675,139.578087
神木一丁目,シボク 1,SHIBOKU 1,,35.593385,139.580384
けやき平,ケヤキダイラ,KEYAKIDAIRA,,35.593079,139.57501
犬蔵三丁目,イヌクラ 3,INUKURA 3,,35.588909,139.555367
犬蔵一丁目,イヌクラ 1,INUKURA 1,,35.59051,139.559299
初山二丁目,ハツヤマ 2,HATSUYAMA 2,,35.596342,139.562868
平一丁目,タイラ 1,TAIRA 1,,35.601225,139.57782
神木本町一丁目,シボクホンチョウ 1,SHIBOKUHONCHO 1,,35.60325,139.579467
五所塚一丁目,ゴショヅカ 1,GOSHOZUKA 1,,35.60578,139.575317
平五丁目,タイラ 5,TAIRA 5,,35.598364,139.576281
土橋五丁目,ツチハシ 5,TSUCHIHASHI 5,,35.589782,139.568083
南平台,ナンペイダイ,NAMPEIDAI,,35.594052,139.56976
白幡台二丁目,シラハタダイ 2,SHIRAHATADAI 2,,35.595752,139.566312
白幡台一丁目,シラハタダイ 1,SHIRAHATADAI 1,,35.597064,139.568798
平四丁目,タイラ 4,TAIRA 4,,35.598097,139.572178
平二丁目,タイラ 2,TAIRA 2,,35.601855,139.572713
平三丁目,タイラ 3,TAIRA 3,,35.603081,139.569094
五所塚二丁目,ゴショヅカ 2,GOSHOZUKA 2,,35.604516,139.573773
菅生四丁目,スガオ 4,SUGAO 4,,35.593455,139.551518
水沢一丁目,ミズサワ 1,MIZUSAWA 1,,35.590543,139.549837
菅生三丁目,スガオ 3,SUGAO 3,,35.595648,139.548448
菅生一丁目,スガオ 1,SUGAO 1,,35.599855,139.555378
初山一丁目,ハツヤマ 1,HATSUYAMA 1,,35.600965,139.562308
菅生ケ丘,スガオガオカ,SUGAOGAOKA,,35.596922,139.542145
水沢三丁目,ミズサワ 3,MIZUSAWA 3,,35.594447,139.542682
潮見台,シオミダイ,SHIOMIDAI,,35.594099,139.532237
水沢二丁目,ミズサワ 2,MIZUSAWA 2,,35.591729,139.542802
神木本町四丁目,シボクホンチョウ 4,SHIBOKUHONCHO 4,,35.597356,139.584064
神木本町五丁目,シボクホンチョウ 5,SHIBOKUHONCHO 5,,35.598484,139.58062
菅生二丁目,スガオ 2,SUGAO 2,,35.600109,139.550281
有馬二丁目,アリマ 2,ARIMA 2,,35.578585,139.585061
馬絹一丁目,マギヌ 1,MAGINU 1,,35.581546,139.587416
野川,ノガワダイ,NOGAWADAI,,35.573078,139.606135
馬絹二丁目,マギヌ 2,MAGINU 2,,35.581163,139.592254
馬絹三丁目,マギヌ 3,MAGINU 3,,35.579191,139.593971
馬絹四丁目,マギヌ 4,MAGINU 4,,35.579912,139.598876
馬絹五丁目,マギヌ 5,MAGINU 5,,35.583116,139.600006
馬絹六丁目,マギヌ 6,MAGINU 6,,35.58256,139.59614
野川本町三丁目,ノガワホンチョウ 3,NOGAWAHONCHO 3,,35.575561,139.618075
馬絹,マギヌ,MAGINU,,35.585894,139.598984
