name,name_kana,name_romaji,nickname,latitude,longitude
稲村ガ崎一丁目,イナムラガサキ 1,INAMURAGASAKI 1,,35.304045,139.525579
稲村ガ崎二丁目,イナムラガサキ 2,INAMURAGASAKI 2,,35.305929,139.523811
稲村ガ崎三丁目,イナムラガサキ 3,INAMURAGASAKI 3,,35.305155,139.518778
稲村ガ崎四丁目,イナムラガサキ 4,INAMURAGASAKI 4,,35.307213,139.520696
稲村ガ崎五丁目,イナムラガサキ 5,INAMURAGASAKI 5,,35.311138,139.522385
今泉一丁目,イマイズミ 1,IMAIZUMI 1,,35.349558,139.55331
今泉二丁目,イマイズミ 2,IMAIZUMI 2,,35.345047,139.552319
今泉三丁目,イマイズミ 3,IMAIZUMI 3,,35.344701,139.558631
今泉四丁目,イマイズミ 4,IMAIZUMI 4,,35.345132,139.566224
今泉五丁目,イマイズミ 5,IMAIZUMI 5,,35.340116,139.570464
今泉台一丁目,イマイズミダイ 1,IMAIZUMIDAI 1,,35.342348,139.553728
今泉台二丁目,イマイズミダイ 2,IMAIZUMIDAI 2,,35.341085,139.558881
今泉台三丁目,イマイズミダイ 3,IMAIZUMIDAI 3,,35.340005,139.556712
今泉台四丁目,イマイズミダイ 4,IMAIZUMIDAI 4,,35.337521,139.558785
今泉台五丁目,イマイズミダイ 5,IMAIZUMIDAI 5,,35.336535,139.561715
今泉台六丁目,イマイズミダイ 6,IMAIZUMIDAI 6,,35.337399,139.565991
今泉台七丁目,イマイズミダイ 7,IMAIZUMIDAI 7,,35.340804,139.564383
岩瀬,イワセ,IWASE,,35.354748,139.547444
岩瀬一丁目,イワセ 1,IWASE 1,,35.35521,139.540665
植木,ウエキ,UEKI,,35.349151,139.514544
扇ガ谷一丁目,オウギガヤツ 1,OGIGAYATSU 1,,35.323423,139.54799
扇ガ谷二丁目,オウギガヤツ 2,OGIGAYATSU 2,,35.326523,139.551539
扇ガ谷三丁目,オウギガヤツ 3,OGIGAYATSU 3,,35.328798,139.550335
扇ガ谷四丁目,オウギガヤツ 4,OGIGAYATSU 4,,35.32786,139.545748
大船,オオフナ,OFUNA,,35.348065,139.545292
大船一丁目,オオフナ 1,OFUNA 1,,35.352094,139.531825
大船二丁目,オオフナ 2,OFUNA 2,,35.351832,139.535421
大船三丁目,オオフナ 3,OFUNA 3,,35.348401,139.534816
大船四丁目,オオフナ 4,OFUNA 4,,35.346039,139.538498
大船五丁目,オオフナ 5,OFUNA 5,,35.349049,139.539259
大船六丁目,オオフナ 6,OFUNA 6,,35.351901,139.540016
大町一丁目,オオマチ 1,OMACHI 1,,35.317238,139.555649
大町二丁目,オオマチ 2,OMACHI 2,,35.312861,139.554839
大町三丁目,オオマチ 3,OMACHI 3,,35.315813,139.559671
大町四丁目,オオマチ 4,OMACHI 4,,35.312568,139.559984
大町五丁目,オオマチ 5,OMACHI 5,,35.30971,139.561661
大町六丁目,オオマチ 6,OMACHI 6,,35.314691,139.564186
大町七丁目,オオマチ 7,OMACHI 7,,35.312051,139.565955
岡本,オカモト,OKAMOTO,,35.346681,139.51823
岡本一丁目,オカモト 1,OKAMOTO 1,,35.355359,139.528302
岡本二丁目,オカモト 2,OKAMOTO 2,,35.350538,139.525931
御成町,オナリマチ,ONARIMACHI,,35.318904,139.547953
梶原,カジワラ,KAJIWARA,,35.332743,139.514074
梶原一丁目,カジワラ 1,KAJIWARA 1,,35.330662,139.522143
梶原二丁目,カジワラ 2,KAJIWARA 2,,35.329903,139.528278
梶原三丁目,カジワラ 3,KAJIWARA 3,,35.331316,139.534582
梶原四丁目,カジワラ 4,KAJIWARA 4,,35.327317,139.530002
梶原五丁目,カジワラ 5,KAJIWARA 5,,35.328128,139.53882
鎌倉山一丁目,カマクラヤマ 1,KAMAKURAYAMA 1,,35.318847,139.520947
鎌倉山二丁目,カマクラヤマ 2,KAMAKURAYAMA 2,,35.31659,139.5186
鎌倉山三丁目,カマクラヤマ 3,KAMAKURAYAMA 3,,35.319284,139.514822
鎌倉山四丁目,カマクラヤマ 4,KAMAKURAYAMA 4,,35.32445,139.514084
上町屋,カミマチヤ,KAMIMACHIYA,,35.33926,139.518739
腰越,コシゴエ,KOSHIGOE,,35.312434,139.505309
腰越一丁目,コシゴエ 1,KOSHIGOE 1,,35.308714,139.499287
腰越二丁目,コシゴエ 2,KOSHIGOE 2,,35.308221,139.494544
腰越三丁目,コシゴエ 3,KOSHIGOE 3,,35.309215,139.491298
腰越四丁目,コシゴエ 4,KOSHIGOE 4,,35.311832,139.497237
腰越五丁目,コシゴエ 5,KOSHIGOE 5,,35.31308,139.493551
小袋谷,コブクロヤ,KOBUKUROYA,,35.3436,139.540422
小袋谷一丁目,コブクロヤ 1,KOBUKUROYA 1,,35.348053,139.531988
小袋谷二丁目,コブクロヤ 2,KOBUKUROYA 2,,35.343977,139.536947
小町一丁目,コマチ 1,KOMACHI 1,,35.318565,139.55222
小町二丁目,コマチ 2,KOMACHI 2,,35.320827,139.553204
小町三丁目,コマチ 3,KOMACHI 3,,35.320669,139.558286
極楽寺一丁目,ゴクラクジ 1,GOKURAKUJI 1,,35.306806,139.528746
極楽寺二丁目,ゴクラクジ 2,GOKURAKUJI 2,,35.313526,139.529421
極楽寺三丁目,ゴクラクジ 3,GOKURAKUJI 3,,35.309213,139.526531
極楽寺四丁目,ゴクラクジ 4,GOKURAKUJI 4,,35.313355,139.525602
坂ノ下,サカノシタ,SAKANOSHITA,,35.307294,139.532237
笹目町,ササメマチ,SASAMEMACHI,,35.316838,139.541597
佐助一丁目,サスケ 1,SASUKE 1,,35.320073,139.543015
佐助二丁目,サスケ 2,SASUKE 2,,35.324207,139.541843
材木座一丁目,ザイモクザ 1,ZAIMOKUZA 1,,35.31335,139.551573
材木座二丁目,ザイモクザ 2,ZAIMOKUZA 2,,35.310109,139.555575
材木座三丁目,ザイモクザ 3,ZAIMOKUZA 3,,35.309183,139.55124
材木座四丁目,ザイモクザ 4,ZAIMOKUZA 4,,35.307118,139.556572
材木座五丁目,ザイモクザ 5,ZAIMOKUZA 5,,35.307548,139.548873
材木座六丁目,ザイモクザ 6,ZAIMOKUZA 6,,35.303525,139.554051
七里ガ浜一丁目,シチリガハマ 1,SHICHIRIGAHAMA 1,,35.308626,139.51074
七里ガ浜二丁目,シチリガハマ 2,SHICHIRIGAHAMA 2,,35.308026,139.505757
七里ガ浜東一丁目,シチリガハマヒガシ 1,SHICHIRIGAHAMAHIGASHI 1,,35.306319,139.51598
七里ガ浜東二丁目,シチリガハマヒガシ 2,SHICHIRIGAHAMAHIGASHI 2,,35.307192,139.513202
七里ガ浜東三丁目,シチリガハマヒガシ 3,SHICHIRIGAHAMAHIGASHI 3,,35.311551,139.518893
七里ガ浜東四丁目,シチリガハマヒガシ 4,SHICHIRIGAHAMAHIGASHI 4,,35.311788,139.516128
七里ガ浜東五丁目,シチリガハマヒガシ 5,SHICHIRIGAHAMAHIGASHI 5,,35.313347,139.512733
城廻,シロメグリ,SHIROMEGURI,,35.355292,139.510055
十二所,ジュウニソ,JUNISO,,35.325509,139.583383
浄明寺一丁目,ジョウミョウジ 1,JOMYOJI 1,,35.319882,139.565182
浄明寺二丁目,ジョウミョウジ 2,JOMYOJI 2,,35.317932,139.569563
浄明寺三丁目,ジョウミョウジ 3,JOMYOJI 3,,35.32212,139.57022
浄明寺四丁目,ジョウミョウジ 4,JOMYOJI 4,,35.322383,139.575039
浄明寺五丁目,ジョウミョウジ 5,JOMYOJI 5,,35.318107,139.573887
浄明寺六丁目,ジョウミョウジ 6,JOMYOJI 6,,35.313948,139.573197
関谷,セキヤ,SEKIYA,,35.361596,139.508195
高野,タカノ,TAKANO,,35.344006,139.547759
玉縄一丁目,タマナワ 1,TAMANAWA 1,,35.351762,139.523627
玉縄二丁目,タマナワ 2,TAMANAWA 2,,35.356417,139.523647
玉縄三丁目,タマナワ 3,TAMANAWA 3,,35.353054,139.522353
玉縄四丁目,タマナワ 4,TAMANAWA 4,,35.356584,139.51849
玉縄五丁目,タマナワ 5,TAMANAWA 5,,35.359726,139.521257
台,ダイ,DAI,,35.339586,139.536999
台一丁目,ダイ 1,DAI 1,,35.349373,139.52708
台二丁目,ダイ 2,DAI 2,,35.34706,139.528429
台三丁目,ダイ 3,DAI 3,,35.344896,139.531358
台四丁目,ダイ 4,DAI 4,,35.341509,139.531162
台五丁目,ダイ 5,DAI 5,,35.342109,139.534666
津,ツ,TSU,,35.319525,139.50908
津西一丁目,ツニシ 1,TSUNISHI 1,,35.315671,139.500183
津西二丁目,ツニシ 2,TSUNISHI 2,,35.315068,139.496544
手広,テビロ,TEBIRO,,35.323695,139.509004
手広一丁目,テビロ 1,TEBIRO 1,,35.329262,139.512021
手広二丁目,テビロ 2,TEBIRO 2,,35.326412,139.511268
手広三丁目,テビロ 3,TEBIRO 3,,35.330269,139.507169
手広四丁目,テビロ 4,TEBIRO 4,,35.328022,139.50673
手広五丁目,テビロ 5,TEBIRO 5,,35.325265,139.50613
手広六丁目,テビロ 6,TEBIRO 6,,35.32907,139.502556
寺分,テラブン,TERABUN,,35.335418,139.516503
寺分一丁目,テラブン 1,TERABUN 1,,35.33394,139.522422
寺分二丁目,テラブン 2,TERABUN 2,,35.336141,139.526789
寺分三丁目,テラブン 3,TERABUN 3,,35.333091,139.526435
常盤,トキワ,TOKIWA,,35.323076,139.531539
二階堂,ニカイドウ,NIKAIDO,,35.329099,139.571058
西鎌倉一丁目,ニシカマクラ 1,NISHIKAMAKURA 1,,35.320877,139.504442
西鎌倉二丁目,ニシカマクラ 2,NISHIKAMAKURA 2,,35.323701,139.503299
西鎌倉三丁目,ニシカマクラ 3,NISHIKAMAKURA 3,,35.319657,139.499806
西鎌倉四丁目,ニシカマクラ 4,NISHIKAMAKURA 4,,35.320847,139.497922
西御門一丁目,ニシミカド 1,NISHIMIKADO 1,,35.329382,139.560209
西御門二丁目,ニシミカド 2,NISHIMIKADO 2,,35.327526,139.562754
長谷一丁目,ハセ 1,HASE 1,,35.314621,139.538516
長谷二丁目,ハセ 2,HASE 2,,35.310983,139.537724
長谷三丁目,ハセ 3,HASE 3,,35.314164,139.533053
長谷四丁目,ハセ 4,HASE 4,,35.317755,139.533876
長谷五丁目,ハセ 5,HASE 5,,35.319592,139.538036
笛田,フエダ,FUEDA,,35.331963,139.510347
笛田一丁目,フエダ 1,FUEDA 1,,35.331661,139.508051
笛田二丁目,フエダ 2,FUEDA 2,,35.324999,139.517425
笛田三丁目,フエダ 3,FUEDA 3,,35.325059,139.51947
笛田四丁目,フエダ 4,FUEDA 4,,35.324915,139.522342
笛田五丁目,フエダ 5,FUEDA 5,,35.319672,139.52513
笛田六丁目,フエダ 6,FUEDA 6,,35.318268,139.529476
山崎,ヤマサキ,YAMASAKI,,35.339615,139.527592
山ノ内,ヤマノウチ,YAMANOCHI,,35.33556,139.54847
由比ガ浜一丁目,ユイガハマ 1,YUIGAHAMA 1,,35.315672,139.545935
由比ガ浜二丁目,ユイガハマ 2,YUIGAHAMA 2,,35.313156,139.547965
由比ガ浜三丁目,ユイガハマ 3,YUIGAHAMA 3,,35.313346,139.542461
由比ガ浜四丁目,ユイガハマ 4,YUIGAHAMA 4,,35.310327,139.543271
雪ノ下,ユキノシタ,YUKINOSHITA,,35.323501,139.562829
雪ノ下一丁目,ユキノシタ 1,YUKINOSHITA 1,,35.322642,139.554531
雪ノ下二丁目,ユキノシタ 2,YUKINOSHITA 2,,35.327359,139.556062
雪ノ下三丁目,ユキノシタ 3,YUKINOSHITA 3,,35.324358,139.560101
雪ノ下四丁目,ユキノシタ 4,YUKINOSHITA 4,,35.320848,139.561655
雪ノ下五丁目,ユキノシタ 5,YUKINOSHITA 5,,35.321677,139.563211
