name,name_kana,name_romaji,nickname,latitude,longitude
朝日町一丁目,アサヒマチ 1,ASAHIMACHI 1,,37.918613,139.22574
朝日町二丁目,アサヒマチ 2,ASAHIMACHI 2,,37.920692,139.226043
朝日町三丁目,アサヒマチ 3,ASAHIMACHI 3,,37.919731,139.227713
朝日町四丁目,アサヒマチ 4,ASAHIMACHI 4,,37.917624,139.226844
彩野一丁目,アヤノ 1,AYANO 1,,37.920445,139.186332
彩野二丁目,アヤノ 2,AYANO 2,,37.92013,139.188026
彩野三丁目,アヤノ 3,AYANO 3,,37.919818,139.189602
彩野四丁目,アヤノ 4,AYANO 4,,37.919464,139.191312
石動一丁目,イスルギ 1,ISURUGI 1,,37.922152,139.214208
石動二丁目,イスルギ 2,ISURUGI 2,,37.923154,139.21288
内島見,ウチシマミ,UCHISHIMAMI,,37.941312,139.208552
内沼,ウチヌマ,UCHINUMA,,37.889561,139.231245
浦木,ウラギ,URAGI,,37.895333,139.213482
浦ノ入,ウラノイリ,URANOIRI,,37.953999,139.223546
大久保,オオクボ,OKUBO,,37.891472,139.177258
大瀬柳,オオセヤナギ,OSEYANAGI,,37.891482,139.188756
太田,オオタ,OTA,,37.931828,139.235482
大月,オオヅキ,OZUKI,,37.879667,139.230731
大迎,オオムカエ,OMUKAE,,37.879725,139.17018
岡新田,オカシンデン,OKASHINDEN,,37.869571,139.22055
笠柳,カサヤナギ,KASAYANAGI,,37.941091,139.228702
かぶとやま一丁目,カブトヤマ 1,KABUTOYAMA 1,,37.927729,139.220899
かぶとやま二丁目,カブトヤマ 2,KABUTOYAMA 2,,37.930092,139.22002
上大月,カミオオヅキ,KAMIOZUKI,,37.867683,139.226884
上土地亀,カミドチガメ,KAMIDOCHIGAME,,37.905047,139.211434
上堀田,カミホリダ,KAMIHORIDA,,37.871752,139.204642
神谷内,カミヤチ,KAMIYACHI,,37.953196,139.159488
嘉山,カヤマ,KAYAMA,,37.90498,139.226798
嘉山一丁目,カヤマ 1,KAYAMA 1,,37.91262,139.218199
嘉山二丁目,カヤマ 2,KAYAMA 2,,37.911673,139.220501
嘉山三丁目,カヤマ 3,KAYAMA 3,,37.909384,139.222591
嘉山四丁目,カヤマ 4,KAYAMA 4,,37.906809,139.22237
嘉山五丁目,カヤマ 5,KAYAMA 5,,37.907091,139.220343
嘉山六丁目,カヤマ 6,KAYAMA 6,,37.910532,139.218682
川西一丁目,カワニシ 1,KAWANISHI 1,,37.910908,139.213299
川西二丁目,カワニシ 2,KAWANISHI 2,,37.910411,139.216216
川西三丁目,カワニシ 3,KAWANISHI 3,,37.908516,139.215888
川西四丁目,カワニシ 4,KAWANISHI 4,,37.909886,139.210413
木崎,キザキ,KIZAKI,,37.945847,139.20094
葛塚,クズツカ,KUZUTSUKA,,37.922471,139.206253
小杉,コスギ,KOSUGI,,37.867285,139.177703
笹山,ササヤマ,SASAYAMA,,37.955174,139.206476
笹山東,,,,37.957509,139.214946
里飯野,サトイイノ,SATOIINO,,37.872281,139.215842
三軒屋町,サンゲンヤチョウ,SANGENYACHO,,37.948961,139.147464
島見町,シマミチョウ,SHIMAMICHO,,37.96852,139.194893
下大谷内,シモオオヤチ,SHIMOOYACHI,,37.944865,139.179042
下土地亀,シモドチガメ,SHIMODOCHIGAME,,37.911728,139.198588
下早通,シモハヤドオリ,SHIMOHAYADORI,,37.928869,139.181947
十二,ジュウニ,JUNI,,37.877988,139.196028
十二前,ジュウニマエ,JUNIMAE,,37.867438,139.179622
白勢町,シロセチョウ,SHIROSECHO,,37.958989,139.202177
新富町,シントミチョウ,SHINTOMICHO,,37.96448,139.184845
新鼻,シンバナ,SHIMBANA,,37.900603,139.246777
新元島町,シンモトジマチョウ,SHIMMOTOJIMACHO,,37.945075,139.144386
須戸,スド,SUDO,,37.918032,139.196507
須戸一丁目,スド 1,SUDO 1,,37.918902,139.183875
須戸二丁目,スド 2,SUDO 2,,37.918426,139.185637
須戸三丁目,スド 3,SUDO 3,,37.918277,139.187349
須戸四丁目,スド 4,SUDO 4,,37.917863,139.188984
須戸五丁目,スド 5,SUDO 5,,37.917394,139.190734
すみれ野一丁目,スミレノ 1,SUMIRENO 1,,37.920511,139.158829
すみれ野二丁目,スミレノ 2,SUMIRENO 2,,37.920715,139.161218
すみれ野三丁目,スミレノ 3,SUMIRENO 3,,37.917213,139.161392
すみれ野四丁目,スミレノ 4,SUMIRENO 4,,37.919681,139.162424
太子堂,タイシドウ,TAISHIDO,,37.887677,139.164145
高森,タカモリ,TAKAMORI,,37.905501,139.154475
高森新田,タカモリシンデン,TAKAMORISHINDEN,,37.904872,139.182046
太夫浜,タユウハマ,TAYUHAMA,,37.959854,139.169578
太夫浜新町一丁目,タユウハマシンマチ 1,TAYUHAMASHIMMACHI 1,,37.960085,139.156987
太夫浜新町二丁目,タユウハマシンマチ 2,TAYUHAMASHIMMACHI 2,,37.962204,139.159361
太郎代,タロウダイ,TARODAI,,37.980551,139.216246
つくし野一丁目,ツクシノ 1,TSUKUSHINO 1,,37.927742,139.152942
つくし野二丁目,ツクシノ 2,TSUKUSHINO 2,,37.928782,139.157453
東栄町一丁目,トウエイチョウ 1,TOEICHO 1,,37.913076,139.22262
東栄町二丁目,トウエイチョウ 2,TOEICHO 2,,37.914304,139.22484
東栄町三丁目,トウエイチョウ 3,TOEICHO 3,,37.91413,139.22737
樋ノ入,ドノイリ,DONOIRI,,37.93753,139.17361
鳥屋,トヤ,TOYA,,37.928699,139.203249
長戸,ナガト,NAGATO,,37.899456,139.200396
長戸呂,ナガトロ,NAGATORO,,37.885732,139.185296
長戸呂新田,ナガトロシンデン,NAGATOROSHINDEN,,37.902862,139.189856
長場,ナガバ,NAGABA,,37.882256,139.207376
名目所,ナメトコロ,NAMETOKORO,,37.95085,139.158055
名目所一丁目,ナメトコロ 1,NAMETOKORO 1,,37.942476,139.159436
名目所二丁目,ナメトコロ 2,NAMETOKORO 2,,37.946884,139.159756
名目所三丁目,ナメトコロ 3,NAMETOKORO 3,,37.948517,139.155349
新井郷,ニイゴウ,NIIGO,,37.912241,139.184558
新崎,ニイザキ,NIIZAKI,,37.917977,139.153241
新崎一丁目,ニイザキ 1,NIIZAKI 1,,37.922435,139.152211
新崎二丁目,ニイザキ 2,NIIZAKI 2,,37.924988,139.150932
新崎三丁目,ニイザキ 3,NIIZAKI 3,,37.925182,139.159914
濁川,ニゴリカワ,NIGORIKAWA,,37.935423,139.150139
濁川一丁目,ニゴリカワ 1,NIGORIKAWA 1,,37.929589,139.150095
西名目所,ニシナメトコロ,NISHINAMETOKORO,,37.942114,139.148858
灰塚,ハイズカ,HAIZUKA,,37.872986,139.180674
白新町一丁目,ハクシンチョウ 1,HAKUSHINCHO 1,,37.918905,139.217189
白新町二丁目,ハクシンチョウ 2,HAKUSHINCHO 2,,37.917231,139.215795
白新町三丁目,ハクシンチョウ 3,HAKUSHINCHO 3,,37.915497,139.214236
白新町四丁目,ハクシンチョウ 4,HAKUSHINCHO 4,,37.914589,139.211676
浜浦,ハマウラ,HAMAURA,,37.961922,139.21142
早通,ハヤドオリ,HAYADORI,,37.926049,139.190854
早通北一丁目,ハヤドオリキタ 1,HAYADORIKITA 1,,37.921822,139.179657
早通北二丁目,ハヤドオリキタ 2,HAYADORIKITA 2,,37.923334,139.180536
早通北三丁目,ハヤドオリキタ 3,HAYADORIKITA 3,,37.921006,139.183608
早通北四丁目,ハヤドオリキタ 4,HAYADORIKITA 4,,37.922467,139.18408
早通北五丁目,ハヤドオリキタ 5,HAYADORIKITA 5,,37.924163,139.184543
早通北六丁目,ハヤドオリキタ 6,HAYADORIKITA 6,,37.923556,139.186733
早通南一丁目,ハヤドオリミナミ 1,HAYADORIMINAMI 1,,37.920472,139.179163
早通南二丁目,ハヤドオリミナミ 2,HAYADORIMINAMI 2,,37.91929,139.178873
早通南三丁目,ハヤドオリミナミ 3,HAYADORIMINAMI 3,,37.918289,139.178709
早通南四丁目,ハヤドオリミナミ 4,HAYADORIMINAMI 4,,37.917577,139.177869
早通南五丁目,ハヤドオリミナミ 5,HAYADORIMINAMI 5,,37.918589,139.181945
東栄町,トウエイチョウ,TOEICHO,,37.952531,139.183275
平林,ヒラバヤシ,HIRABAYASHI,,37.866693,139.195178
仏伝,ブツデン,BUTSUDEN,,37.917649,139.174953
北陽一丁目,ホクヨウ 1,HOKUYO 1,,37.941078,139.185937
北陽二丁目,ホクヨウ 2,HOKUYO 2,,37.942597,139.185694
細山,ホソヤマ,HOSOYAMA,,37.895059,139.158119
前新田,マエシンデン,MAESHINDEN,,37.91384,139.235095
松潟,マツカタ,MATSUKATA,,37.924312,139.171172
松栄町,マツエイチョウ,MATSUEICHO,,37.948087,139.175147
松浜一丁目,マツハマ 1,MATSUHAMA 1,,37.952167,139.145654
松浜二丁目,マツハマ 2,MATSUHAMA 2,,37.952352,139.142137
松浜三丁目,マツハマ 3,MATSUHAMA 3,,37.953999,139.141311
松浜四丁目,マツハマ 4,MATSUHAMA 4,,37.95503,139.145184
松浜五丁目,マツハマ 5,MATSUHAMA 5,,37.957491,139.144528
松浜六丁目,マツハマ 6,MATSUHAMA 6,,37.956994,139.140682
松浜七丁目,マツハマ 7,MATSUHAMA 7,,37.955772,139.137736
松浜八丁目,マツハマ 8,MATSUHAMA 8,,37.961886,139.143371
松浜新町,マツハマシンマチ,MATSUHAMASHIMMACHI,,37.949632,139.150978
松浜町,マツハマチョウ,MATSUHAMACHO,,37.959879,139.133107
松浜東町一丁目,マツハマヒガシマチ 1,MATSUHAMAHIGASHIMACHI 1,,37.951897,139.150979
松浜東町二丁目,マツハマヒガシマチ 2,MATSUHAMAHIGASHIMACHI 2,,37.953911,139.152424
松浜本町一丁目,マツハマホンチョウ 1,MATSUHAMAHONCHO 1,,37.950407,139.147224
松浜本町二丁目,マツハマホンチョウ 2,MATSUHAMAHONCHO 2,,37.948828,139.14341
松浜本町三丁目,マツハマホンチョウ 3,MATSUHAMAHONCHO 3,,37.950413,139.143053
松浜本町四丁目,マツハマホンチョウ 4,MATSUHAMAHONCHO 4,,37.950391,139.139332
松浜みなと,マツハマミナト,MATSUHAMAMINATO,,37.960878,139.139484
美里一丁目,ミサト 1,MISATO 1,,37.906994,139.215938
美里二丁目,ミサト 2,MISATO 2,,37.906356,139.218947
三ツ森川原,ミツモリカワラ,MITSUMORIKAWARA,,37.90671,139.157102
三ツ屋,ミツヤ,MITSUYA,,37.891048,139.162174
村新田,ムラシンデン,MURASHINDEN,,37.937082,139.252158
森下,モリシタ,MORISHITA,,37.908635,139.162009
柳原一丁目,ヤナギハラ 1,YANAGIHARA 1,,37.918818,139.212721
柳原二丁目,ヤナギハラ 2,YANAGIHARA 2,,37.91998,139.210472
柳原三丁目,ヤナギハラ 3,YANAGIHARA 3,,37.917042,139.210387
柳原四丁目,ヤナギハラ 4,YANAGIHARA 4,,37.918069,139.20812
柳原五丁目,ヤナギハラ 5,YANAGIHARA 5,,37.919034,139.20822
柳原六丁目,ヤナギハラ 6,YANAGIHARA 6,,37.917216,139.205319
柳原七丁目,ヤナギハラ 7,YANAGIHARA 7,,37.917835,139.204702
山飯野,ヤマイイノ,YAMAIINO,,37.873315,139.194659
横井,ヨコイ,YOKOI,,37.936424,139.221428
横越,ヨコゴシ,YOKOGOSHI,,37.866384,139.185881
横土居,ヨコドイ,YOKODOI,,37.964902,139.224256
木崎,キザキ,KIZAKI,尾山,37.940127,139.186885
上土地亀,カミドチガメ,KAMIDOCHIGAME,大曲,37.910939,139.208091
