name,name_kana,name_romaji,nickname,latitude,longitude
東町,アズマチョウ,AZUMACHO,,37.170515,138.243006
石橋,イシバシ,ISHIBASHI,,37.158568,138.236817
石橋一丁目,イシバシ 1,ISHIBASHI 1,,37.164518,138.238298
石橋二丁目,イシバシ 2,ISHIBASHI 2,,37.163787,138.234515
板倉区青葉,イタクラクアオバ,ITAKURAKU AOBA,,37.073913,138.287936
板倉区稲増,イタクラクイナマス,ITAKURAKU INAMASU,,37.07972,138.284161
板倉区大池新田,,,,37.002373,138.306043
板倉区大野新田,イタクラクオオノシンデン,ITAKURAKU ONOSHINDEN,,37.020689,138.324537
板倉区釜塚,イタクラクカマヅカ,ITAKURAKU KAMAZUKA,,37.026232,138.316173
板倉区上中島新田,イタクラクカミナカジマシンデン,ITAKURAKU KAMINAKAJIMASHINDEN,,37.058571,138.280337
板倉区上福田新田,イタクラクカミフクダシンデン,ITAKURAKU KAMIFUKUDASHINDEN,,37.07667,138.301762
板倉区久々野,イタクラククグノ,ITAKURAKU KUGUNO,,36.994344,138.343741
板倉区熊川,イタクラククマガワ,ITAKURAKU KUMAGAWA,,37.042811,138.292763
板倉区熊川新田,イタクラククマガワシンデン,ITAKURAKU KUMAGAWASHINDEN,,37.038993,138.289332
板倉区栗澤,,,,37.031572,138.33015
板倉区玄藤寺新田,イタクラクゲンドウジシンデン,ITAKURAKU GENDOJISHINDEN,,37.040072,138.352884
板倉区小石原,イタクラクコイシハラ,ITAKURAKU KOISHIHARA,,37.047417,138.271454
板倉区国川,イタクラクコクガワ,ITAKURAKU KOKUGAWA,,37.042635,138.312817
板倉区菰立,イタクラクコモダテ,ITAKURAKU KOMODATE,,37.011386,138.296655
板倉区坂井,イタクラクサカイ,ITAKURAKU SAKAI,,37.058488,138.302943
板倉区猿供養寺,イタクラクサルクヨウジ,ITAKURAKU SARUKUYOJI,,37.013075,138.3285
板倉区沢田,イタクラクサワダ,ITAKURAKU SAWADA,,37.057196,138.310076
板倉区下田屋,イタクラクシモタヤ,ITAKURAKU SHIMOTAYA,,37.058714,138.285346
板倉区下米沢,イタクラクシモヨネザワ,ITAKURAKU SHIMOYONEZAWA,,37.0475,138.2845
板倉区関田,イタクラクセキダ,ITAKURAKU SEKIDA,,37.007956,138.373524
板倉区関根,イタクラクセキネ,ITAKURAKU SEKINE,,37.058446,138.292063
板倉区曽根田,イタクラクソネダ,ITAKURAKU SONEDA,,37.045925,138.306656
板倉区田井,イタクラクタイ,ITAKURAKU TAI,,37.067997,138.286042
板倉区高野,イタクラクタカノ,ITAKURAKU TAKANO,,37.063548,138.295725
板倉区達野,イタクラクタテノ,ITAKURAKU TATENO,,37.03774,138.34108
板倉区田屋,イタクラクタヤ,ITAKURAKU TAYA,,37.053736,138.313988
板倉区筒方,イタクラクドウガタ,ITAKURAKU DOGATA,,37.020508,138.34502
板倉区戸狩,イタクラクトガリ,ITAKURAKU TOGARI,,37.073641,138.296485
板倉区長塚,イタクラクナガツカ,ITAKURAKU NAGATSUKA,,37.064107,138.309706
板倉区中之宮,イタクラクナカノミヤ,ITAKURAKU NAKANOMIYA,,37.031312,138.296501
板倉区長嶺,イタクラクナガミネ,ITAKURAKU NAGAMINE,,37.065604,138.301571
板倉区中四ツ屋,イタクラクナカヨツヤ,ITAKURAKU NAKAYOTSUYA,,37.049645,138.315885
板倉区機織,イタクラクハタオリ,ITAKURAKU HATAORI,,37.011604,138.311063
板倉区針,イタクラクハリ,ITAKURAKU HARI,,37.049944,138.296546
板倉区東山寺,イタクラクヒガシヤマデラ,ITAKURAKU HIGASHIYAMADERA,,37.00773,138.345304
板倉区福王寺,イタクラクフクオウジ,ITAKURAKU FUKUOJI,,37.039177,138.308023
板倉区不動新田,イタクラクフドウシンデン,ITAKURAKU FUDOSHINDEN,,37.022328,138.308391
板倉区別所,イタクラクベッショ,ITAKURAKU BESSHO,,37.044713,138.326574
板倉区緑ケ丘,イタクラクミドリガオカ,ITAKURAKU MIDORIGAOKA,,37.07057,138.288613
板倉区南中島,イタクラクミナミナカジマ,ITAKURAKU MINAMINAKAJIMA,,37.051849,138.28126
板倉区南四ツ屋新田,イタクラクミナミヨツヤシンデン,ITAKURAKU MINAMIYOTSUYASHINDEN,,37.075343,138.305216
板倉区宮島,イタクラクミヤジマ,ITAKURAKU MIYAJIMA,,37.048451,138.311125
板倉区山越,イタクラクヤマゴシ,ITAKURAKU YAMAGOSHI,,37.033317,138.286587
板倉区山部,イタクラクヤマベ,ITAKURAKU YAMABE,,37.037031,138.300051
板倉区横町,イタクラクヨコチョウ,ITAKURAKU YOKOCHO,,37.052167,138.288307
板倉区吉増,イタクラクヨシマス,ITAKURAKU YOSHIMASU,,37.037585,138.283755
板倉区米増,イタクラクヨネマス,ITAKURAKU YONEMASU,,37.035731,138.293078
稲田一丁目,イナダ 1,INADA 1,,37.117118,138.268746
稲田二丁目,イナダ 2,INADA 2,,37.120182,138.26639
稲田三丁目,イナダ 3,INADA 3,,37.121548,138.267624
稲田四丁目,イナダ 4,INADA 4,,37.11964,138.27095
浦川原区有島,ウラガワラクアリシマ,URAGAWARAKU ARISHIMA,,37.151725,138.427831
浦川原区飯室,ウラガワラクイイムロ,URAGAWARAKU IIMURO,,37.165443,138.380094
浦川原区飯室新田,,,,37.159538,138.380523
浦川原区今熊,ウラガワラクイマグマ,URAGAWARAKU IMAGUMA,,37.152788,138.379666
浦川原区岩室,ウラガワラクイワムロ,URAGAWARAKU IWAMURO,,37.137774,138.40409
浦川原区印内,ウラガワラクインナイ,URAGAWARAKU INNAI,,37.16164,138.395934
浦川原区大栃山,ウラガワラクオオトチヤマ,URAGAWARAKU OTOCHIYAMA,,37.170977,138.438033
浦川原区釜淵,ウラガワラクカマブチ,URAGAWARAKU KAMABUCHI,,37.161409,138.434595
浦川原区上猪子田,ウラガワラクカミイノコダ,URAGAWARAKU KAMIINOKODA,,37.175539,138.480096
浦川原区上岡,ウラガワラクカミオカ,URAGAWARAKU KAMIOKA,,37.171874,138.393559
浦川原区上柿野,ウラガワラクカミガキノ,URAGAWARAKU KAMIGAKINO,,37.174193,138.428788
浦川原区熊沢,ウラガワラククマザワ,URAGAWARAKU KUMAZAWA,,37.141561,138.423375
浦川原区顕聖寺,ウラガワラクケンショウジ,URAGAWARAKU KENSHOJI,,37.15937,138.421883
浦川原区小蒲生田,ウラガワラクコガモダ,URAGAWARAKU KOGAMODA,,37.169835,138.455505
浦川原区小谷島,ウラガワラクコヤジマ,URAGAWARAKU KOYAJIMA,,37.149514,138.482335
浦川原区桜島,ウラガワラクサクラシマ,URAGAWARAKU SAKURASHIMA,,37.150583,138.396648
浦川原区下猪子田,ウラガワラクシモイノコダ,URAGAWARAKU SHIMOINOKODA,,37.154381,138.466358
浦川原区下柿野,ウラガワラクシモガキノ,URAGAWARAKU SHIMOGAKINO,,37.165423,138.424072
浦川原区真光寺,ウラガワラクシンコウジ,URAGAWARAKU SHINKOJI,,37.115058,138.426181
浦川原区杉坪,ウラガワラクスギツボ,URAGAWARAKU SUGITSUBO,,37.169281,138.415416
浦川原区谷,ウラガワラクタニ,URAGAWARAKU TANI,,37.101392,138.44006
浦川原区坪野,ウラガワラクツボノ,URAGAWARAKU TSUBONO,,37.11386,138.412301
浦川原区中猪子田,ウラガワラクナカイノコダ,URAGAWARAKU NAKAINOKODA,,37.154948,138.455908
浦川原区長走,ウラガワラクナガハシリ,URAGAWARAKU NAGAHASHIRI,,37.151799,138.405523
浦川原区東俣,ウラガワラクヒガシマタ,URAGAWARAKU HIGASHIMATA,,37.175419,138.418301
浦川原区菱田,ウラガワラクヒシダ,URAGAWARAKU HISHIDA,,37.151494,138.415056
浦川原区日向,ウラガワラクヒナタ,URAGAWARAKU HINATA,,37.16139,138.402671
浦川原区法定寺,ウラガワラクホウジョウジ,URAGAWARAKU HOJOJI,,37.131393,138.407554
浦川原区六日町,ウラガワラクムイカマチ,URAGAWARAKU MUIKAMACHI,,37.165606,138.406831
浦川原区虫川,ウラガワラクムシガワ,URAGAWARAKU MUSHIGAWA,,37.159504,138.446033
浦川原区山印内,ウラガワラクヤマインナイ,URAGAWARAKU YAMAINNAI,,37.163497,138.389134
浦川原区山本,ウラガワラクヤマモト,URAGAWARAKU YAMAMOTO,,37.149876,138.388043
浦川原区横川,ウラガワラクヨコカワ,URAGAWARAKU YOKOKAWA,,37.162261,138.413174
浦川原区横住,ウラガワラクヨコズミ,URAGAWARAKU YOKOZUMI,,37.125776,138.419436
大字青木,,,,37.082565,138.238654
大字青野,,,,37.164162,138.349539
大字赤塚新田,,,,37.131295,138.26824
大字朝日,,,,37.078164,138.220242
大字愛宕国分,,,,37.157124,138.230334
大字天野原新田,,,,37.092471,138.288905
大字荒町,,,,37.088406,138.244989
大字荒屋,,,,37.143524,138.279146
大字有間川,,,,37.15987,138.147704
大字飯,,,,37.126103,138.233008
大字飯田,,,,37.097827,138.334942
大字飯塚,,,,37.150221,138.302925
大字池,,,,37.099663,138.293177
大字石川,,,,37.16279,138.335124
大字石沢,,,,37.072199,138.254638
大字石橋新田,,,,37.191335,138.2836
大字市野江,,,,37.136758,138.278277
大字稲,,,,37.099669,138.307195
大字稲谷,,,,37.087351,138.31947
大字稲荷,,,,37.069019,138.245241
大字茨沢,,,,37.113079,138.279812
大字今池,,,,37.096699,138.272343
大字今泉,,,,37.075615,138.245849
大字岩木,,,,37.133022,138.215841
大字牛池新田,,,,37.153137,138.195221
大字後谷,,,,37.083574,138.192258
大字宇津尾,,,,37.125045,138.197316
大字夷浜,,,,37.203722,138.29008
大字夷浜新田,,,,37.197409,138.287814
大字小池,,,,37.134798,138.12562
大字大口,,,,37.079902,138.346719
大字大貫,,,,37.108009,138.224893
大字大場,,,,37.161593,138.215114
大字大渕,,,,37.109295,138.126781
大字岡崎新田,,,,37.177694,138.337995
大字岡原,,,,37.082795,138.262343
大字鍛冶免分,,,,37.155917,138.145521
大字春日,,,,37.152115,138.219557
大字春日新田,,,,37.169716,138.257201
大字上荒浜,,,,37.196053,138.274672
大字上池部,,,,37.115277,138.302172
大字上稲田,,,,37.122362,138.263602
大字上源入,,,,37.159807,138.259588
大字上五貫野,,,,37.171402,138.303213
大字上島,,,,37.131552,138.258265
大字上正善寺,,,,37.133326,138.180559
大字上新町,,,,37.099286,138.28732
大字上曽根,,,,37.091305,138.320008
大字上千原,,,,37.165313,138.288317
大字上綱子,,,,37.106824,138.17553
大字上富川,,,,37.091644,138.301288
大字上中田,,,,37.089908,138.237725
大字上名柄,,,,37.166926,138.317463
大字上野田,,,,37.122171,138.297332
大字上箱井,,,,37.075658,138.261459
大字上真砂,,,,37.142143,138.304733
大字上門前,,,,37.068083,138.217245
大字上湯谷,,,,37.109269,138.186446
大字上吉野,,,,37.172842,138.332675
大字鴨島,,,,37.116229,138.274285
大字川端,,,,37.154322,138.303121
大字木島,,,,37.068942,138.271014
大字木田,,,,37.148987,138.244809
大字北方,,,,37.084602,138.357567
大字北新保,,,,37.147793,138.295631
大字北田中,,,,37.134312,138.307681
大字北谷,,,,37.098674,138.135561
大字北田屋新田,,,,37.143192,138.248743
大字儀明,,,,37.114629,138.193566
大字京田,,,,37.097358,138.231352
大字桐原,,,,37.136738,138.287436
大字熊塚,,,,37.093357,138.303173
大字黒井,,,,37.189972,138.269526
大字黒田,,,,37.081302,138.225512
大字小泉,,,,37.157773,138.31442
大字高和町,,,,37.106206,138.324783
大字五ケ所新田,,,,37.091349,138.267225
大字小猿屋,,,,37.148532,138.273177
大字小猿屋新田,,,,37.141607,138.27271
大字居多,,,,37.166456,138.213427
大字小滝,,,,37.070663,138.22061
大字五智国分,,,,37.161309,138.208818
大字五野井,,,,37.159954,138.332544
大字駒林,,,,37.146167,138.321662
大字子安,,,,37.104732,138.279368
大字三交,,,,37.15728,138.242291
大字三田,,,,37.151174,138.266435
大字三田新田,,,,37.156688,138.267201
大字塩荷谷,,,,37.106403,138.203462
大字塩屋,,,,37.158961,138.243275
大字塩屋新田,,,,37.161577,138.249241
大字四ケ所,,,,37.120987,138.274497
大字七ケ所新田,,,,37.084741,138.259014
大字島田,,,,37.082014,138.275624
大字島田上新田,,,,37.073448,138.27693
大字島田下新田,,,,37.091969,138.27021
大字下荒浜,,,,37.195,138.281484
大字下池部,,,,37.115836,138.293337
大字下稲田,,,,37.124601,138.268881
大字下稲塚,,,,37.084775,138.312998
大字下源入,,,,37.16438,138.257979
大字下五貫野,,,,37.174373,138.293292
大字下正善寺,,,,37.129585,138.206427
大字下新田,,,,37.089471,138.260652
大字下新町,,,,37.101419,138.281517
大字下曽根,,,,37.091531,138.312453
大字下綱子,,,,37.122445,138.151009
大字下百々,,,,37.147325,138.314316
大字下富川,,,,37.099008,138.29816
大字下中田,,,,37.092793,138.243548
大字下名柄,,,,37.166186,138.308368
大字下野田,,,,37.130091,138.294705
大字下箱井,,,,37.093037,138.263141
大字下馬場,,,,37.075169,138.220368
大字下真砂,,,,37.176035,138.287132
大字下門前,,,,37.159204,138.253922
大字下吉新田,,,,37.176724,138.282843
大字下吉野,,,,37.173569,138.320832
大字下四ツ屋,,,,37.079655,138.304346
大字十二ノ木,,,,37.089945,138.341432
大字上雲寺,,,,37.102876,138.297163
大字新長者原,,,,37.082739,138.287545
大字新保古新田,,,,37.108021,138.292896
大字杉野袋,,,,37.146896,138.305516
大字薄袋,,,,37.143626,138.245236
大字諏訪,,,,37.135867,138.298621
大字大豆,,,,37.148361,138.210279
大字大道新田,,,,37.137192,138.247271
大字大道福田,,,,37.14743,138.250149
大字大日,,,,37.134595,138.265161
大字高崎新田,,,,37.187562,138.259529
大字高住,,,,37.144658,138.13935
大字高田新田,,,,37.092909,138.245303
大字高津,,,,37.094476,138.327272
大字高森,,,,37.138198,138.294438
大字滝寺,,,,37.120893,138.215086
大字田沢新田,,,,37.174587,138.342123
大字辰尾新田,,,,37.087369,138.298062
大字丹原,,,,37.151944,138.129416
大字地頭方,,,,37.073213,138.239283
大字茶屋ケ原,,,,37.164101,138.110558
大字長者町,,,,37.088256,138.28517
大字塚田新田,,,,37.127235,138.228013
大字劔,,,,37.109759,138.311501
大字鶴町,,,,37.129153,138.306215
大字寺,,,,37.128394,138.26528
大字寺分,,,,37.140263,138.223617
大字寺町,,,,37.065935,138.259614
大字土口,,,,37.084739,138.115593
大字轟木,,,,37.16165,138.242803
大字戸野目,,,,37.122709,138.278782
大字戸野目古新田,,,,37.129906,138.272485
大字富岡,,,,37.145,138.26065
大字樋場,,,,37.104394,138.273353
大字直江津,,,,37.18757,138.253313
大字長岡,,,,37.154959,138.32572
大字長岡新田,,,,37.162243,138.324538
大字長面,,,,37.121959,138.287812
大字中桑取,,,,37.138701,138.157607
大字中正善寺,,,,37.133509,138.192688
大字中田新田,,,,37.1364,138.269035
大字中田原,,,,37.095329,138.235693
大字中々村新田,,,,37.135977,138.250814
大字中ノ俣,,,,37.090073,138.158837
大字中箱井,,,,37.080318,138.259981
大字長浜,,,,37.153763,138.168261
大字中真砂,,,,37.154008,138.294933
大字中門前,,,,37.15314,138.209786
大字中屋敷,,,,37.14455,138.208226
大字鍋ケ浦,,,,37.153506,138.121345
大字西市野口,,,,37.116964,138.279133
大字西ケ窪浜,,,,37.207063,138.297123
大字西田中,,,,37.063123,138.254823
大字西戸野,,,,37.151807,138.139114
大字西松野木,,,,37.081622,138.295631
大字西谷内,,,,37.093538,138.135661
大字西山寺,,,,37.138995,138.13473
大字西横山,,,,37.123766,138.135376
大字西吉尾,,,,37.120367,138.126991
大字野尻,,,,37.099678,138.315864
大字灰塚,,,,37.082001,138.210908
大字花立,,,,37.152391,138.149673
大字東市野口,,,,37.110827,138.298596
大字東稲塚新田,,,,37.085831,138.305473
大字東京田,,,,37.089123,138.334089
大字東中島,,,,37.164249,138.30015
大字東原,,,,37.133753,138.302911
大字東吉尾,,,,37.115442,138.133598
大字平岡,,,,37.139712,138.256088
大字福岡新田,,,,37.178773,138.332709
大字福田,,,,37.169903,138.27376
大字福橋,,,,37.169016,138.280339
大字藤新田,,,,37.137529,138.232899
大字藤塚,,,,37.113205,138.285487
大字藤野新田,,,,37.154009,138.247922
大字藤巻,,,,37.135086,138.234998
大字本新保,,,,37.105772,138.300416
大字本道,,,,37.130721,138.283781
大字増沢,,,,37.102734,138.118618
大字松村新田,,,,37.168417,138.258498
大字丸山新田,,,,37.096499,138.254785
大字三ツ橋,,,,37.164171,138.271632
大字三ツ橋新田,,,,37.158189,138.273537
大字三ツ屋,,,,37.172462,138.267622
大字皆口,,,,37.088342,138.139423
大字南方,,,,37.085033,138.34521
大字南新保,,,,37.1435,138.29441
大字南田屋新田,,,,37.140662,138.2515
大字宮野尾,,,,37.155166,138.20214
大字妙油,,,,37.095901,138.340312
大字向橋,,,,37.097611,138.218339
大字虫川,,,,37.142551,138.286939
大字虫生岩戸,,,,37.164975,138.19519
大字本長者原,,,,37.092865,138.283935
大字元屋敷,,,,37.100862,138.320107
大字森田,,,,37.09301,138.343174
大字門田新田,,,,37.128552,138.279098
大字安江,,,,37.164497,138.265143
大字八幡,,,,37.158687,138.233417
大字藪野,,,,37.093633,138.29316
大字遊光寺浜,,,,37.200119,138.282964
大字横曽根,,,,37.151821,138.285923
大字横畑,,,,37.060805,138.148623
大字吉浦,,,,37.16104,138.120414
大字吉岡,,,,37.110413,138.302268
大字四辻町,,,,37.118662,138.311555
大字米岡,,,,37.131254,138.31599
大字脇野田,,,,37.08958,138.242872
大潟区和泉新田,オオガタクイズミシンデン,OGATAKU IZUMISHINDEN,,37.211761,138.363996
大潟区岩野,オオガタクイワノコシンデン,OGATAKU IWANOKOSHINDEN,,37.219025,138.347309
大潟区岩野古新田,オオガタクイワノコシンデン,OGATAKU IWANOKOSHINDEN,,37.224672,138.3412
大潟区内雁子,オオガタクウチガンゴ,OGATAKU UCHIGANGO,,37.233775,138.372368
大潟区内雁子新田,オオガタクウチガンゴシンデン,OGATAKU UCHIGANGOSHINDEN,,37.235564,138.365959
大潟区潟田,オオガタクカタダ,OGATAKU KATADA,,37.214384,138.341204
大潟区潟町,オオガタクカタマチ,OGATAKU KATAMACHI,,37.230891,138.344973
大潟区潟守新田,オオガタクカタモリシンデン,OGATAKU KATAMORISHINDEN,,37.201674,138.298194
大潟区上潟,,,,37.22057,138.360249
大潟区上小船津浜,オオガタクカミコブナツハマ,OGATAKU KAMIKOBUNATSUHAMA,,37.217818,138.314542
大潟区川北,,,,37.206341,138.320242
大潟区雁子浜,オオガタクガンコハマ,OGATAKU GANKOHAMA,,37.242099,138.344569
大潟区九戸浜,オオガタククドハマ,OGATAKU KUDOHAMA,,37.237593,138.337588
大潟区蜘ケ池,オオガタククモガイケ,OGATAKU KUMOGAIKE,,37.212936,138.324807
大潟区犀潟,オオガタクサイガタ,OGATAKU SAIGATA,,37.211616,138.303436
大潟区里鵜島新田,オオガタクサトウジマシンデン,OGATAKU SATOJIMASHINDEN,,37.222381,138.361341
大潟区渋柿浜,オオガタクシブカキハマ,OGATAKU SHIBUKAKIHAMA,,37.212635,138.314126
大潟区下小船津浜,オオガタクシモコブナツハマ,OGATAKU SHIMOKOBUNATSUHAMA,,37.219599,138.318737
大潟区高橋新田,オオガタクタカハシシンデン,OGATAKU TAKAHASHISHINDEN,,37.215838,138.363542
大潟区土底浜,オオガタクドソコハマ,OGATAKU DOSOKOHAMA,,37.225245,138.327942
大潟区長崎,オオガタクナガサキ,OGATAKU NAGASAKI,,37.224964,138.350057
大潟区浜雁子新田,,,,37.224335,138.3618
大潟区東潟,,,,37.214327,138.357225
大潟区山鵜島新田,オオガタクヤマウジマシンデン,OGATAKU YAMAUJIMASHINDEN,,37.227614,138.359836
大潟区吉崎新田,オオガタクヨシザキシンデン,OGATAKU YOSHIZAKISHINDEN,,37.219106,138.354249
大潟区四ツ屋浜,オオガタクヨツヤハマ,OGATAKU YOTSUYAHAMA,,37.231052,138.329949
大潟区米倉新田,オオガタクヨネグラシンデン,OGATAKU YONEGURASHINDEN,,37.2212,138.363906
大島区板山,オオシマクイタヤマ,OSHIMAKU ITAYAMA,,37.179243,138.513666
大島区牛ケ鼻,オオシマクウシガハナ,OSHIMAKU USHIGAHANA,,37.088517,138.531085
大島区大島,オオシマクオオシマ,OSHIMAKU OSHIMA,,37.123451,138.500087
大島区大平,オオシマクオオダイラ,OSHIMAKU ODAIRA,,37.15198,138.510508
大島区岡,オオシマクオカ,OSHIMAKU OKA,,37.165044,138.505617
大島区上達,オオシマクカミタテ,OSHIMAKU KAMITATE,,37.136827,138.501644
大島区下達,オオシマクシモタテ,OSHIMAKU SHIMOTATE,,37.144859,138.5361
大島区菖蒲,オオシマクショウブ,OSHIMAKU SHOBU,,37.061837,138.520737
大島区棚岡,オオシマクタナオカ,OSHIMAKU TANAOKA,,37.119574,138.506034
大島区田麦,オオシマクタムギ,OSHIMAKU TAMUGI,,37.169295,138.539309
大島区中野,オオシマクナカノ,OSHIMAKU NAKANO,,37.124487,138.517862
大島区仁上,オオシマクニガミ,OSHIMAKU NIGAMI,,37.099118,138.506105
大島区嶺,オオシマクミネ,OSHIMAKU MINE,,37.175341,138.556972
大手町,オオテマチ,OTEMACHI,,37.108012,138.248559
大貫一丁目,オオヌキ 1,ONUKI 1,,37.101816,138.233121
大貫二丁目,オオヌキ 2,ONUKI 2,,37.105907,138.232681
大貫三丁目,オオヌキ 3,ONUKI 3,,37.110512,138.235218
大貫四丁目,オオヌキ 4,ONUKI 4,,37.112029,138.230482
大町一丁目,オオマチ 1,OMACHI 1,,37.104,138.245173
大町二丁目,オオマチ 2,OMACHI 2,,37.107314,138.245498
大町三丁目,オオマチ 3,OMACHI 3,,37.111247,138.245763
大町四丁目,オオマチ 4,OMACHI 4,,37.114293,138.246092
大町五丁目,オオマチ 5,OMACHI 5,,37.117132,138.246956
加賀町,カガチョウ,KAGACHO,,37.157456,138.226857
柿崎区旭平,カキザキクアサヒダイラ,KAKIZAKIKU ASAHIDAIRA,,37.231142,138.490083
柿崎区阿弥陀瀬,カキザキクアミダセ,KAKIZAKIKU AMIDASE,,37.26843,138.40518
柿崎区芋島,カキザキクイモノシマ,KAKIZAKIKU IMONOSHIMA,,37.243291,138.45661
柿崎区芋島新田,,,,37.240488,138.449444
柿崎区岩手,カキザキクイワデ,KAKIZAKIKU IWADE,,37.247735,138.440751
柿崎区岩野,カキザキクイワノ,KAKIZAKIKU IWANO,,37.261497,138.442948
柿崎区江島新田,カキザキクエジマシンデン,KAKIZAKIKU EJIMASHINDEN,,37.247465,138.379628
柿崎区小萱,カキザキクオガヤ,KAKIZAKIKU OGAYA,,37.288294,138.460314
柿崎区荻谷,カキザキクオギノタニ,KAKIZAKIKU OGINOTANI,,37.264376,138.405612
柿崎区落合,カキザキクオチアイ,KAKIZAKIKU OCHIAI,,37.25391,138.397351
柿崎区柿崎,カキザキクカキザキ,KAKIZAKIKU KAKIZAKI,,37.279008,138.394283
柿崎区金谷,カキザキクカナヤ,KAKIZAKIKU KANAYA,,37.284861,138.409945
柿崎区上小野,カキザキクカミオノ,KAKIZAKIKU KAMIONO,,37.25339,138.421557
柿崎区上金原,カキザキクカミカナハラ,KAKIZAKIKU KAMIKANAHARA,,37.244469,138.397351
柿崎区上中山,カキザキクカミナカヤマ,KAKIZAKIKU KAMINAKAYAMA,,37.244016,138.47312
柿崎区上直海,カキザキクカミノウミ,KAKIZAKIKU KAMINOMI,,37.241914,138.389218
柿崎区川井,カキザキクカワイ,KAKIZAKIKU KAWAI,,37.265304,138.391542
柿崎区川田,カキザキクカワタ,KAKIZAKIKU KAWATA,,37.265705,138.423613
柿崎区雁海,カキザキクガンカイ,KAKIZAKIKU GANKAI,,37.277696,138.424932
柿崎区行法,カキザキクギョウホウ,KAKIZAKIKU GYOHO,,37.259687,138.393932
柿崎区黒岩,カキザキククロイワ,KAKIZAKIKU KUROIWA,,37.255031,138.510007
柿崎区下条,カキザキクゲジョウ,KAKIZAKIKU GEJO,,37.253323,138.388682
柿崎区犀ケ池新田,,,,37.239537,138.368253
柿崎区坂田新田,カキザキクサカタシンデン,KAKIZAKIKU SAKATASHINDEN,,37.250144,138.368509
柿崎区桜町新田,カキザキクサクラマチシンデン,KAKIZAKIKU SAKURAMACHISHINDEN,,37.239089,138.398847
柿崎区猿毛,カキザキクサルゲ,KAKIZAKIKU SARUGE,,37.26095,138.476416
柿崎区猿毛新田,,,,37.254563,138.471966
柿崎区下小野,カキザキクシモオノ,KAKIZAKIKU SHIMONO,,37.252448,138.409984
柿崎区下金原,カキザキクシモカナハラ,KAKIZAKIKU SHIMOKANAHARA,,37.252201,138.393668
柿崎区下中山,カキザキクシモナカヤマ,KAKIZAKIKU SHIMONAKAYAMA,,37.288159,138.426565
柿崎区下灰庭新田,カキザキクシモハイニワシンデン,KAKIZAKIKU SHIMOHAINIWASHINDEN,,37.244371,138.440529
柿崎区下牧,カキザキクシモマキ,KAKIZAKIKU SHIMOMAKI,,37.276473,138.461089
柿崎区上下浜,カキザキクジョウゲハマ,KAKIZAKIKU JOGEHAMA,,37.245629,138.355666
柿崎区上下浜新田,,,,37.250961,138.374179
柿崎区城腰,カキザキクジョウノコシ,KAKIZAKIKU JONOKOSHI,,37.256594,138.489802
柿崎区高寺,カキザキクタカテラ,KAKIZAKIKU TAKATERA,,37.26264,138.401009
柿崎区高畑,カキザキクタカバタケ,KAKIZAKIKU TAKABATAKE,,37.249594,138.428238
柿崎区竹鼻,カキザキクタケガハナ,KAKIZAKIKU TAKEGAHANA,,37.298185,138.413915
柿崎区角取,カキザキクツノドリ,KAKIZAKIKU TSUNODORI,,37.253936,138.401387
柿崎区角取新田,,,,37.256513,138.400606
柿崎区栃窪,カキザキクトチクボ,KAKIZAKIKU TOCHIKUBO,,37.277085,138.437876
柿崎区直海浜,カキザキクノウミハマ,KAKIZAKIKU NOMIHAMA,,37.265046,138.373259
柿崎区馬正面,カキザキクバショウメン,KAKIZAKIKU BASHOMEN,,37.25938,138.381242
柿崎区東谷内,カキザキクヒガシヤチ,KAKIZAKIKU HIGASHIYACHI,,37.280245,138.418817
柿崎区東横山,カキザキクヒガシヨコヤマ,KAKIZAKIKU HIGASHIYOKOYAMA,,37.223942,138.482477
柿崎区平沢,カキザキクヒラサワ,KAKIZAKIKU HIRASAWA,,37.273707,138.44731
柿崎区米山寺,カキザキクベイサンジ,KAKIZAKIKU BEISANJI,,37.258137,138.45368
柿崎区法音寺,カキザキクホウオンジ,KAKIZAKIKU HOONJI,,37.283338,138.402511
柿崎区松留,カキザキクマツドメ,KAKIZAKIKU MATSUDOME,,37.236706,138.47092
柿崎区水野,カキザキクミズノ,KAKIZAKIKU MIZUNO,,37.274133,138.486408
柿崎区三ツ屋浜,カキザキクミツヤハマ,KAKIZAKIKU MITSUYAHAMA,,37.25714,138.362339
柿崎区百木,カキザキクモモキ,KAKIZAKIKU MOMOKI,,37.244189,138.413122
柿崎区柳ケ崎,カキザキクヤナガサキ,KAKIZAKIKU YANAGASAKI,,37.259486,138.40619
柿崎区山谷,カキザキクヤマヤ,KAKIZAKIKU YAMAYA,,37.275828,138.409382
春日新田一丁目,カスガシンデン 1,KASUGASHINDEN 1,,37.171229,138.252357
春日新田二丁目,カスガシンデン 2,KASUGASHINDEN 2,,37.173928,138.259904
春日新田三丁目,カスガシンデン 3,KASUGASHINDEN 3,,37.176039,138.251451
春日新田四丁目,カスガシンデン 4,KASUGASHINDEN 4,,37.17755,138.259006
春日新田五丁目,カスガシンデン 5,KASUGASHINDEN 5,,37.166756,138.25127
春日野一丁目,カスガノ 1,KASUGANO 1,,37.150449,138.231504
春日野二丁目,カスガノ 2,KASUGANO 2,,37.156114,138.231606
春日山町一丁目,カスガヤママチ 1,KASUGAYAMAMACHI 1,,37.143646,138.222283
春日山町二丁目,カスガヤママチ 2,KASUGAYAMAMACHI 2,,37.144457,138.227419
春日山町三丁目,カスガヤママチ 3,KASUGAYAMAMACHI 3,,37.144146,138.231884
上昭和町,カミショウワマチ,KAMISHOWAMACHI,,37.120669,138.227803
鴨島一丁目,カモジマ 1,KAMOJIMA 1,,37.113178,138.272626
鴨島二丁目,カモジマ 2,KAMOJIMA 2,,37.111379,138.268292
鴨島三丁目,カモジマ 3,KAMOJIMA 3,,37.109245,138.269443
川原町,カワラマチ,KAWARAMACHI,,37.177195,138.252674
木田一丁目,キダ 1,KIDA 1,,37.144769,138.237519
木田二丁目,キダ 2,KIDA 2,,37.144895,138.243364
木田三丁目,キダ 3,KIDA 3,,37.139833,138.241071
北城町一丁目,キタシロチョウ 1,KITASHIROCHO 1,,37.116187,138.262884
北城町二丁目,キタシロチョウ 2,KITASHIROCHO 2,,37.115705,138.257551
北城町三丁目,キタシロチョウ 3,KITASHIROCHO 3,,37.117701,138.253398
北城町四丁目,キタシロチョウ 4,KITASHIROCHO 4,,37.118431,138.257782
木田新田一丁目,キダシンデン 1,KIDASHINDEN 1,,37.138657,138.23855
木田新田二丁目,キダシンデン 2,KIDASHINDEN 2,,37.139506,138.236098
北本町一丁目,キタホンチョウ 1,KITAHONCHO 1,,37.120498,138.242089
北本町二丁目,キタホンチョウ 2,KITAHONCHO 2,,37.121978,138.243716
北本町四丁目,キタホンチョウ 4,KITAHONCHO 4,,37.127583,138.24102
清里区,キヨサトクアオヤナギ,KIYOSATOKU AOYANAGI,,37.01155,138.410317
清里区青柳,キヨサトクアオヤナギ,KIYOSATOKU AOYANAGI,,37.021956,138.381914
清里区赤池,キヨサトクアカイケ,KIYOSATOKU AKAIKE,,37.030503,138.388488
清里区荒牧,キヨサトクアラマキ,KIYOSATOKU ARAMAKI,,37.077094,138.34196
清里区今曽根,キヨサトクイマゾネ,KIYOSATOKU IMAZONE,,37.071704,138.313233
清里区鶯澤,,,,37.051419,138.362484
清里区岡野町,キヨサトクオカノマチ,KIYOSATOKU OKANOMACHI,,37.08494,138.329801
清里区岡嶺新田,キヨサトクオカミネシンデン,KIYOSATOKU OKAMINESHINDEN,,37.07661,138.328779
清里区上稲塚,キヨサトクカミイナヅカ,KIYOSATOKU KAMIINAZUKA,,37.082698,138.321934
清里区上田島,キヨサトクカミタジマ,KIYOSATOKU KAMITAJIMA,,37.062466,138.341378
清里区上中條,,,,37.058861,138.366565
清里区上深澤,,,,37.069435,138.337693
清里区北野,キヨサトクキタノ,KIYOSATOKU KITANO,,37.055028,138.381231
清里区塩曽根,キヨサトクシオゾネ,KIYOSATOKU SHIOZONE,,37.057151,138.331313
清里区菅原,キヨサトクスガハラ,KIYOSATOKU SUGAHARA,,37.07308,138.326873
清里区鈴倉,キヨサトクスズクラ,KIYOSATOKU SUZUKURA,,37.072448,138.351586
清里区棚田,キヨサトクタナダ,KIYOSATOKU TANADA,,37.061163,138.378499
清里区寺脇,キヨサトクテラワキ,KIYOSATOKU TERAWAKI,,37.075178,138.360472
清里区梨窪,キヨサトクナシクボ,KIYOSATOKU NASHIKUBO,,37.050396,138.374516
清里区梨平,キヨサトクナシダイラ,KIYOSATOKU NASHIDAIRA,,37.037272,138.394422
清里区東戸野,キヨサトクヒガシトノ,KIYOSATOKU HIGASHITONO,,37.066482,138.363596
清里区東福島,キヨサトクヒガシフクシマ,KIYOSATOKU HIGASHIFUKUSHIMA,,37.06338,138.33067
清里区平成,キヨサトクヘイセイ,KIYOSATOKU HEISEI,,37.077755,138.326445
清里区馬屋,キヨサトクマヤ,KIYOSATOKU MAYA,,37.060778,138.318272
清里区水草,キヨサトクミズクサ,KIYOSATOKU MIZUKUSA,,37.05772,138.379299
清里区南田中,キヨサトクミナミタナカ,KIYOSATOKU MINAMITANAKA,,37.073287,138.320608
清里区みらい,キヨサトクミライ,KIYOSATOKU MIRAI,,37.076721,138.311755
清里区武士,キヨサトクモノノフ,KIYOSATOKU MONONOFU,,37.07901,138.316814
清里区弥生,キヨサトクヤヨイ,KIYOSATOKU YAYOI,,37.080847,138.325766
頸城区青野,クビキクアオノ,KUBIKIKU AONO,,37.190461,138.32631
頸城区天ケ崎,クビキクアマガサキ,KUBIKIKU AMAGASAKI,,37.190747,138.351917
頸城区飯田,クビキクイイダ,KUBIKIKU IIDA,,37.189095,138.332836
頸城区五十嵐,クビキクイガラシ,KUBIKIKU IGARASHI,,37.188378,138.317885
頸城区石神,クビキクイシガミ,KUBIKIKU ISHIGAMI,,37.171046,138.369937
頸城区市村,クビキクイチムラ,KUBIKIKU ICHIMURA,,37.175418,138.305174
頸城区浮島,クビキクウキシマ,KUBIKIKU UKISHIMA,,37.1873,138.294325
頸城区美しが丘,クビキクウツクシガオカ,KUBIKIKU UTSUKUSHIGAOKA,,37.172895,138.30545
頸城区鵜ノ木,クビキクウノキ,KUBIKIKU UNOKI,,37.180237,138.341026
頸城区榎井,クビキクエノイ,KUBIKIKU ENOI,,37.19652,138.302597
頸城区大潟,クビキクオオガタ,KUBIKIKU OGATA,,37.195697,138.353031
頸城区大蒲生田,クビキクオオカモダ,KUBIKIKU OKAMODA,,37.183693,138.377723
頸城区大坂井,クビキクオオサカイ,KUBIKIKU OSAKAI,,37.193582,138.338761
頸城区大谷内,クビキクオオヤチ,KUBIKIKU OYACHI,,37.202654,138.329321
頸城区岡田,クビキクオカダ,KUBIKIKU OKADA,,37.203581,138.34441
頸城区柿野,クビキクカキノ,KUBIKIKU KAKINO,,37.181948,138.334011
頸城区潟口,クビキクカタグチ,KUBIKIKU KATAGUCHI,,37.190782,138.328973
頸城区片津,クビキクカタヅ,KUBIKIKU KATAZU,,37.19319,138.34412
頸城区上池田,クビキクカミイケダ,KUBIKIKU KAMIIKEDA,,37.193266,138.353952
頸城区上神原,クビキクカミカナハラ,KUBIKIKU KAMIKANAHARA,,37.180364,138.320009
頸城区上三分一,クビキクカミサンブイチ,KUBIKIKU KAMISAMBUICHI,,37.177276,138.289195
頸城区上増田,クビキクカミマスダ,KUBIKIKU KAMIMASUDA,,37.193401,138.358006
頸城区上柳町,クビキクカミヤナギマチ,KUBIKIKU KAMIYANAGIMACHI,,37.206158,138.339071
頸城区上吉,クビキクカミヨシ,KUBIKIKU KAMIYOSHI,,37.183001,138.286578
頸城区川袋,クビキクカワブクロ,KUBIKIKU KAWABUKURO,,37.184226,138.338271
頸城区北方,クビキクキタカタ,KUBIKIKU KITAKATA,,37.191232,138.323216
頸城区北福崎,クビキクキタフクザキ,KUBIKIKU KITAFUKUZAKI,,37.180634,138.324897
頸城区北四ツ屋,クビキクキタヨツヤ,KUBIKIKU KITAYOTSUYA,,37.186045,138.304092
頸城区島田,クビキクシマダ,KUBIKIKU SHIMADA,,37.193176,138.311222
頸城区下池田,クビキクシモイケダ,KUBIKIKU SHIMOIKEDA,,37.201512,138.349158
頸城区下神原,クビキクシモカナハラ,KUBIKIKU SHIMOKANAHARA,,37.178639,138.316249
頸城区下三分一,クビキクシモサンブイチ,KUBIKIKU SHIMOSAMBUICHI,,37.179715,138.294006
頸城区下千原,クビキクシモチハラ,KUBIKIKU SHIMOCHIHARA,,37.187584,138.322335
頸城区下中島,クビキクシモナカジマ,KUBIKIKU SHIMONAKAJIMA,,37.201346,138.301058
頸城区下中村,クビキクシモナカムラ,KUBIKIKU SHIMONAKAMURA,,37.186335,138.336556
頸城区下増田,クビキクシモマスダ,KUBIKIKU SHIMOMASUDA,,37.208725,138.356848
頸城区下柳町,クビキクシモヤナギマチ,KUBIKIKU SHIMOYANAGIMACHI,,37.208778,138.328005
頸城区下吉,クビキクシモヨシ,KUBIKIKU SHIMOYOSHI,,37.184559,138.280735
頸城区下米岡,クビキクシモヨネオカ,KUBIKIKU SHIMOYONEOKA,,37.197023,138.292993
頸城区城野腰,クビキクジョウノコシ,KUBIKIKU JONOKOSHI,,37.206722,138.309074
頸城区諏訪,クビキクスワ,KUBIKIKU SUWA,,37.186236,138.325104
頸城区立崎,クビキクタテサキ,KUBIKIKU TATESAKI,,37.178219,138.344513
頸城区田中,クビキクタナカ,KUBIKIKU TANAKA,,37.189771,138.340753
頸城区千原,クビキクチハラ,KUBIKIKU CHIHARA,,37.186477,138.323536
頸城区手島,クビキクテシマ,KUBIKIKU TESHIMA,,37.200498,138.369293
頸城区手宮,クビキクテミヤ,KUBIKIKU TEMIYA,,37.201623,138.313272
頸城区寺田,クビキクテラダ,KUBIKIKU TERADA,,37.20319,138.33658
頸城区塔ケ崎,クビキクトウガサキ,KUBIKIKU TOGASAKI,,37.176878,138.372981
頸城区戸口野,クビキクトグチノ,KUBIKIKU TOGUCHINO,,37.190972,138.332153
頸城区富田,クビキクトミタ,KUBIKIKU TOMITA,,37.201653,138.336551
頸城区中城,クビキクナカジョウ,KUBIKIKU NAKAJO,,37.185947,138.343231
頸城区中増田,クビキクナカマスダ,KUBIKIKU NAKAMASUDA,,37.203207,138.359691
頸城区中柳町,クビキクナカヤナギマチ,KUBIKIKU NAKAYANAGIMACHI,,37.201837,138.338374
頸城区西福島,クビキクニシフクジマ,KUBIKIKU NISHIFUKUJIMA,,37.181915,138.275597
頸城区西湊,クビキクニシミナト,KUBIKIKU NISHIMINATO,,37.19435,138.341022
頸城区仁野分,クビキクニノブ,KUBIKIKU NINOBU,,37.18277,138.352688
頸城区望ケ丘,クビキクノゾミガオカ,KUBIKIKU NOZOMIGAOKA,,37.172005,138.308798
頸城区花ケ崎,クビキクハナガサキ,KUBIKIKU HANAGASAKI,,37.174311,138.362288
頸城区姥谷内,クビキクバヤチ,KUBIKIKU BAYACHI,,37.192602,138.347434
頸城区東俣,クビキクヒガシマタ,KUBIKIKU HIGASHIMATA,,37.189249,138.33501
頸城区日根津,クビキクヒネヅ,KUBIKIKU HINEZU,,37.185306,138.36508
頸城区百間町,クビキクヒャクケンマチ,KUBIKIKU HYAKUKEMMACHI,,37.184536,138.329679
頸城区舟津,クビキクフナツ,KUBIKIKU FUNATSU,,37.199949,138.31772
頸城区松橋,クビキクマツハシ,KUBIKIKU MATSUHASHI,,37.202027,138.307803
頸城区松橋新田,クビキクマツハシシンデン,KUBIKIKU MATSUHASHISHINDEN,,37.203717,138.303348
頸城区松本,クビキクマツモト,KUBIKIKU MATSUMOTO,,37.181431,138.289843
頸城区宮原,クビキクミヤハラ,KUBIKIKU MIYAHARA,,37.194879,138.329328
頸城区宮本,クビキクミヤモト,KUBIKIKU MIYAMOTO,,37.192925,138.318676
頸城区森下,クビキクモリシタ,KUBIKIKU MORISHITA,,37.199333,138.321234
頸城区森本,クビキクモリモト,KUBIKIKU MORIMOTO,,37.175658,138.3503
頸城区矢住,クビキクヤズミ,KUBIKIKU YAZUMI,,37.195789,138.381697
頸城区柳町新田,クビキクヤナギマチシンデン,KUBIKIKU YANAGIMACHISHINDEN,,37.203004,138.336892
高土町一丁目,コウドチョウ 1,KODOCHO 1,,37.123334,138.25271
高土町二丁目,コウドチョウ 2,KODOCHO 2,,37.123572,138.258189
高土町三丁目,コウドチョウ 3,KODOCHO 3,,37.126036,138.254302
高土町受地,,,,37.125874,138.257507
国府一丁目,コクフ 1,KOKUFU 1,,37.163891,138.225799
国府二丁目,コクフ 2,KOKUFU 2,,37.159494,138.218819
国府三丁目,コクフ 3,KOKUFU 3,,37.158457,138.223274
国府四丁目,コクフ 4,KOKUFU 4,,37.16247,138.229757
五智一丁目,ゴチ 1,GOCHI 1,,37.168441,138.234682
五智二丁目,ゴチ 2,GOCHI 2,,37.172078,138.231503
五智三丁目,ゴチ 3,GOCHI 3,,37.167473,138.228442
五智四丁目,ゴチ 4,GOCHI 4,,37.170974,138.226698
五智五丁目,ゴチ 5,GOCHI 5,,37.169036,138.223484
五智六丁目,ゴチ 6,GOCHI 6,,37.165678,138.218044
五智新町,ゴチシンマチ,GOCHISHIMMACHI,,37.165759,138.231221
御殿山町,ゴテンヤマチョウ,GOTENYAMACHO,,37.116999,138.229077
子安新田,コヤスシンデン,KOYASUSHINDEN,,37.10962,138.272642
幸町,サイワイチョウ,SAIWAICHO,,37.122035,138.246881
栄町一丁目,サカエチョウ 1,SAKAECHO 1,,37.163897,138.244089
栄町二丁目,サカエチョウ 2,SAKAECHO 2,,37.163575,138.240571
栄町,サカエチョウ,SAKAECHO,,37.124917,138.248159
桜町,サクラチョウ,SAKURACHO,,37.097032,138.279926
佐内町,サナイチョウ,SANAICHO,,37.177426,138.266426
三和区今保,サンワクイマポ,SANWAKU IMAPO,,37.121064,138.365755
三和区大,サンワクオオ,SANWAKU O,,37.113313,138.37097
三和区岡田,サンワクオカダ,SANWAKU OKADA,,37.125788,138.380468
三和区沖柳,サンワクオキヤナギ,SANWAKU OKIYANAGI,,37.159257,138.339597
三和区鴨井,サンワクカモイ,SANWAKU KAMOI,,37.108489,138.345925
三和区川浦,サンワクカワウラ,SANWAKU KAWAURA,,37.112994,138.329866
三和区神田,サンワクカンダ,SANWAKU KANDA,,37.1479,138.3644
三和区北代,サンワクキタダイ,SANWAKU KITADAI,,37.139052,138.3732
三和区窪,サンワククボ,SANWAKU KUBO,,37.101849,138.33969
三和区桑曽根,サンワククワゾネ,SANWAKU KUWAZONE,,37.124928,138.392846
三和区越柳,サンワクコシヤナギ,SANWAKU KOSHIYANAGI,,37.157024,138.349379
三和区米子,サンワクコメコ,SANWAKU KOMEKO,,37.144782,138.328902
三和区下新保,サンワクシモシンボ,SANWAKU SHIMOSHIMBO,,37.130483,138.369299
三和区下田島,サンワクシモタジマ,SANWAKU SHIMOTAJIMA,,37.126576,138.368211
三和区所山田,サンワクショヤマダ,SANWAKU SHOYAMADA,,37.119947,138.378871
三和区神明町,サンワクシンメイチョウ,SANWAKU SHIMMEICHO,,37.115355,138.321737
三和区末野,サンワクスエノ,SANWAKU SUENO,,37.160217,138.370229
三和区末野新田,サンワクスエノシンデン,SANWAKU SUENOSHINDEN,,37.163356,138.364588
三和区塔ノ輪,サンワクトウノワ,SANWAKU TONOWA,,37.140677,138.361005
三和区中野,サンワクナカノ,SANWAKU NAKANO,,37.10496,138.338699
三和区払沢,サンワクハライザワ,SANWAKU HARAIZAWA,,37.140795,138.389188
三和区番町,サンワクバンマチ,SANWAKU BAMMACHI,,37.117129,138.319665
三和区日和町,サンワクヒヨリチョウ,SANWAKU HIYORICHO,,37.119484,138.320624
三和区広井,サンワクヒロイ,SANWAKU HIROI,,37.15258,138.330293
三和区法花寺,サンワクホッケイジ,SANWAKU HOKKEIJI,,37.102861,138.344545
三和区水科,サンワクミズシナ,SANWAKU MIZUSHINA,,37.096865,138.34945
三和区水吉,サンワクミズヨシ,SANWAKU MIZUYOSHI,,37.102604,138.357859
三和区三村新田,サンワクミムラシンデン,SANWAKU MIMURASHINDEN,,37.123922,138.359974
三和区宮崎新田,サンワクミヤザキシンデン,SANWAKU MIYAZAKISHINDEN,,37.100702,138.372374
三和区山高津,サンワクヤマタカツ,SANWAKU YAMATAKATSU,,37.132607,138.384635
三和区山腰新田,サンワクヤマノコシシンデン,SANWAKU YAMANOKOSHISHINDEN,,37.153582,138.371843
昭和町一丁目,ショウワマチ 1,SHOWAMACHI 1,,37.118288,138.235387
昭和町二丁目,ショウワマチ 2,SHOWAMACHI 2,,37.122492,138.235842
新光町一丁目,シンコウチョウ 1,SHINKOCHO 1,,37.152448,138.236959
新光町二丁目,シンコウチョウ 2,SHINKOCHO 2,,37.151591,138.240464
新光町三丁目,シンコウチョウ 3,SHINKOCHO 3,,37.157963,138.239896
新南町,シンナンチョウ,SHINNANCHO,,37.104926,138.269228
新町,シンマチ,SHIMMACHI,,37.129992,138.250224
住吉町,スミヨシチョウ,SUMIYOSHICHO,,37.176306,138.246182
大学前,ダイガクマエ,DAIGAKUMAE,,37.134779,138.229856
大豆一丁目,ダイズ 1,DAIZU 1,,37.149963,138.225054
大豆二丁目,ダイズ 2,DAIZU 2,,37.153265,138.224829
中央一丁目,チュウオウ 1,CHUO 1,,37.173652,138.244527
中央二丁目,チュウオウ 2,CHUO 2,,37.176636,138.243008
中央三丁目,チュウオウ 3,CHUO 3,,37.18017,138.245619
中央四丁目,チュウオウ 4,CHUO 4,,37.178512,138.240973
中央五丁目,チュウオウ 5,CHUO 5,,37.176611,138.238462
寺町一丁目,テラマチ 1,TERAMACHI 1,,37.101327,138.238064
寺町二丁目,テラマチ 2,TERAMACHI 2,,37.108951,138.239135
寺町三丁目,テラマチ 3,TERAMACHI 3,,37.116337,138.23921
田園,デンエン,DENEN,,37.150357,138.279913
東雲町一丁目,トウウンチョウ 1,TOUNCHO 1,,37.169266,138.247385
東雲町二丁目,トウウンチョウ 2,TOUNCHO 2,,37.168097,138.24219
中郷区板橋,ナカゴウクイタバシ,NAKAGOKU ITABASHI,,37.004216,138.240324
中郷区市屋,ナカゴウクイチヤ,NAKAGOKU ICHIYA,,36.962778,138.22642
中郷区稲荷山,ナカゴウクイナリヤマ,NAKAGOKU INARIYAMA,,36.9461,138.22032
中郷区江口,ナカゴウクエグチ,NAKAGOKU EGUCHI,,36.952804,138.216055
中郷区岡川,ナカゴウクオカカワ,NAKAGOKU OKAKAWA,,36.958666,138.206379
中郷区岡沢,ナカゴウクオカザワ,NAKAGOKU OKAZAWA,,36.976591,138.192487
中郷区片貝,ナカゴウクカタカイ,NAKAGOKU KATAKAI,,36.964808,138.233425
中郷区坂本,ナカゴウクサカモト,NAKAGOKU SAKAMOTO,,36.988393,138.234257
中郷区二本木,ナカゴウクニホンギ,NAKAGOKU NIHONGI,,36.978297,138.236264
中郷区八斗蒔,ナカゴウクハツトウマキ,NAKAGOKU HATSUTOMAKI,,36.976293,138.217529
中郷区福崎,ナカゴウクフクザキ,NAKAGOKU FUKUZAKI,,36.95216,138.225448
中郷区福田,ナカゴウクフクダ,NAKAGOKU FUKUDA,,36.993926,138.213762
中郷区藤沢,ナカゴウクフジサワ,NAKAGOKU FUJISAWA,,36.996207,138.237488
中郷区松崎,ナカゴウクマツザキ,NAKAGOKU MATSUZAKI,,36.969961,138.225318
中郷区宮野原,ナカゴウクミヤノハラ,NAKAGOKU MIYANOHARA,,36.956168,138.233814
中郷区四ツ屋,ナカゴウクヨツヤ,NAKAGOKU YOTSUYA,,36.96606,138.137412
中通町,ナカドオリマチ,NAKADORIMACHI,,37.096654,138.241745
仲町一丁目,ナカマチ 1,NAKAMACHI 1,,37.102776,138.241206
仲町二丁目,ナカマチ 2,NAKAMACHI 2,,37.107442,138.242074
仲町三丁目,ナカマチ 3,NAKAMACHI 3,,37.111315,138.242624
仲町四丁目,ナカマチ 4,NAKAMACHI 4,,37.114598,138.242957
仲町五丁目,ナカマチ 5,NAKAMACHI 5,,37.116518,138.242795
仲町六丁目,ナカマチ 6,NAKAMACHI 6,,37.118256,138.243533
中門前一丁目,ナカモンゼン 1,NAKAMONZEN 1,,37.15023,138.213442
中門前二丁目,ナカモンゼン 2,NAKAMONZEN 2,,37.153321,138.216791
中門前三丁目,ナカモンゼン 3,NAKAMONZEN 3,,37.156165,138.218732
名立区赤野俣,ナダチクアカノマタ,NADACHIKU AKANOMATA,,37.147916,138.092101
名立区池田,ナダチクイケダ,NADACHIKU IKEDA,,37.115781,138.110574
名立区大菅,ナダチクオオスガ,NADACHIKU OSUGA,,37.14915,138.105045
名立区小田島,ナダチクオダジマ,NADACHIKU ODAJIMA,,37.087857,138.091843
名立区折居,ナダチクオリイ,NADACHIKU ORII,,37.119696,138.094757
名立区折戸,ナダチクオリト,NADACHIKU ORITO,,37.103587,138.102535
名立区桂谷,ナダチクカツラダニ,NADACHIKU KATSURADANI,,37.108945,138.097486
名立区車路,ナダチククルマジ,NADACHIKU KURUMAJI,,37.142474,138.110505
名立区杉野瀬,ナダチクスギノセ,NADACHIKU SUGINOSE,,37.13195,138.114393
名立区瀬戸,ナダチクセト,NADACHIKU SETO,,37.053657,138.10226
名立区躰畑,ナダチクタイバタケ,NADACHIKU TAIBATAKE,,37.13458,138.095554
名立区谷口,ナダチクタニグチ,NADACHIKU TANIGUCHI,,37.140799,138.093827
名立区田野上,ナダチクタノウエ,NADACHIKU TANOE,,37.133035,138.103451
名立区坪山,ナダチクツボヤマ,NADACHIKU TSUBOYAMA,,37.152264,138.087222
名立区峠,ナダチクトウゲ,NADACHIKU TOGE,,37.120485,138.111872
名立区名立大町,ナダチクナダチオオマチ,NADACHIKU NADACHIOMACHI,,37.144787,138.080359
名立区名立小泊,ナダチクナダチコドマリ,NADACHIKU NADACHIKODOMARI,,37.164451,138.09239
名立区濁沢,ナダチクニゴリサワ,NADACHIKU NIGORISAWA,,37.124907,138.11457
名立区西蒲生田,ナダチクニシカモウダ,NADACHIKU NISHIKAMODA,,37.075827,138.093377
名立区東蒲生田,ナダチクヒガシカモウダ,NADACHIKU HIGASHIKAMODA,,37.087923,138.104392
名立区東飛山,ナダチクヒガシヒヤマ,NADACHIKU HIGASHIHIYAMA,,37.023767,138.112558
名立区平谷,ナダチクヒラタニ,NADACHIKU HIRATANI,,37.099467,138.086964
名立区丸田,ナダチクマルダ,NADACHIKU MARUDA,,37.126588,138.094005
名立区森,ナダチクモリ,NADACHIKU MORI,,37.111915,138.097516
西城町一丁目,ニシシロチョウ 1,NISHISHIROCHO 1,,37.112512,138.252677
西城町二丁目,ニシシロチョウ 2,NISHISHIROCHO 2,,37.112147,138.250405
西城町三丁目,ニシシロチョウ 3,NISHISHIROCHO 3,,37.113248,138.248386
西城町四丁目,ニシシロチョウ 4,NISHISHIROCHO 4,,37.117088,138.249678
西本町一丁目,ニシホンチョウ 1,NISHIHONCHO 1,,37.170718,138.240333
西本町二丁目,ニシホンチョウ 2,NISHIHONCHO 2,,37.168575,138.237961
西本町三丁目,ニシホンチョウ 3,NISHIHONCHO 3,,37.171516,138.236516
西本町四丁目,ニシホンチョウ 4,NISHIHONCHO 4,,37.173909,138.237702
東城町一丁目,ヒガシシロチョウ 1,HIGASHISHIROCHO 1,,37.101678,138.259828
東城町二丁目,ヒガシシロチョウ 2,HIGASHISHIROCHO 2,,37.105069,138.263493
東城町三丁目,ヒガシシロチョウ 3,HIGASHISHIROCHO 3,,37.111151,138.263902
東本町一丁目,ヒガシホンチョウ 1,HIGASHIHONCHO 1,,37.119868,138.247302
東本町二丁目,ヒガシホンチョウ 2,HIGASHIHONCHO 2,,37.120426,138.250574
東本町三丁目,ヒガシホンチョウ 3,HIGASHIHONCHO 3,,37.120921,138.253757
東本町四丁目,ヒガシホンチョウ 4,HIGASHIHONCHO 4,,37.120708,138.258623
東本町五丁目,ヒガシホンチョウ 5,HIGASHIHONCHO 5,,37.119513,138.262585
日之出町,ヒノデチョウ,HINODECHO,,37.181016,138.270935
福田町,,,,37.174388,138.2721
藤新田一丁目,フジシンデン 1,FUJISHINDEN 1,,37.139254,138.232276
藤新田二丁目,フジシンデン 2,FUJISHINDEN 2,,37.13883,138.226984
平成町,ヘイセイチョウ,HEISEICHO,,37.120829,138.28249
本町一丁目,ホンチョウ 1,HONCHO 1,,37.103421,138.243406
本町二丁目,ホンチョウ 2,HONCHO 2,,37.106819,138.243789
本町三丁目,ホンチョウ 3,HONCHO 3,,37.109971,138.244291
本町四丁目,ホンチョウ 4,HONCHO 4,,37.112065,138.244601
本町五丁目,ホンチョウ 5,HONCHO 5,,37.114369,138.244914
本町六丁目,ホンチョウ 6,HONCHO 6,,37.116836,138.245255
本町七丁目,ホンチョウ 7,HONCHO 7,,37.119442,138.245663
牧区荒井,マキクアライ,MAKIKU ARAI,,37.077777,138.374308
牧区池舟,マキクイケフネ,MAKIKU IKEFUNE,,37.09802,138.379751
牧区泉,マキクイズミ,MAKIKU IZUMI,,37.09125,138.407324
牧区今清水,マキクイマシミズ,MAKIKU IMASHIMIZU,,37.084492,138.413416
牧区岩神,マキクイワガミ,MAKIKU IWAGAMI,,37.07036,138.403291
牧区宇津俣,マキクウツノマタ,MAKIKU UTSUNOMATA,,37.027649,138.449199
牧区大月,マキクオオツキ,MAKIKU OTSUKI,,37.104881,138.399446
牧区小川,マキクオガワ,MAKIKU OGAWA,,37.079821,138.40304
牧区落田,マキクオチダ,MAKIKU OCHIDA,,37.085984,138.386
牧区樫谷,マキクカシダニ,MAKIKU KASHIDANI,,37.089339,138.395787
牧区片町,マキクカタマチ,MAKIKU KATAMACHI,,37.104365,138.426204
牧区上昆子,マキクカミビリゴ,MAKIKU KAMIBIRIGO,,37.06164,138.388514
牧区上牧,マキクカミマキ,MAKIKU KAMIMAKI,,37.029397,138.409226
牧区神谷,マキクカミヤ,MAKIKU KAMIYA,,37.102648,138.408853
牧区川井沢,マキクカワイザワ,MAKIKU KAWAIZAWA,,37.102611,138.388882
牧区倉下,マキククラシタ,MAKIKU KURASHITA,,37.047698,138.397141
牧区国川,マキクコクガワ,MAKIKU KOKUGAWA,,37.079491,138.389465
牧区桜滝,マキクサクラタキ,MAKIKU SAKURATAKI,,37.060658,138.399672
牧区下昆子,マキクシモビリゴ,MAKIKU SHIMOBIRIGO,,37.066938,138.385099
牧区下湯谷,マキクシモユウヤ,MAKIKU SHIMOYUYA,,37.055107,138.389818
牧区切光,マキクセッコウ,MAKIKU SEKKO,,37.082844,138.422096
牧区平山,マキクタイラヤマ,MAKIKU TAIRAYAMA,,37.10713,138.41869
牧区高尾,マキクタカオ,MAKIKU TAKAO,,37.065628,138.422321
牧区高谷,マキクタカタニ,MAKIKU TAKATANI,,37.083302,138.435124
牧区田島,マキクタジマ,MAKIKU TAJIMA,,37.069076,138.391349
牧区棚広,マキクタナヒロ,MAKIKU TANAHIRO,,37.050269,138.410916
牧区棚広新田,マキクタナヒロシンデン,MAKIKU TANAHIROSHINDEN,,37.052798,138.425903
牧区坪山,マキクツボヤマ,MAKIKU TSUBOYAMA,,37.120259,138.398437
牧区七森,マキクナナモリ,MAKIKU NANAMORI,,37.097195,138.417811
牧区原,マキクハラ,MAKIKU HARA,,37.053512,138.396466
牧区東松ノ木,マキクヒガシマツノキ,MAKIKU HIGASHIMATSUNOKI,,37.072593,138.380626
牧区平方,マキクヒラカタ,MAKIKU HIRAKATA,,37.116143,138.406523
牧区府殿,マキクフドノ,MAKIKU FUDONO,,37.036157,138.416516
牧区宮口,マキクミヤグチ,MAKIKU MIYAGUCHI,,37.09113,138.360692
牧区柳島,マキクヤナギシマ,MAKIKU YANAGISHIMA,,37.078066,138.384335
牧区山口,マキクヤマグチ,MAKIKU YAMAGUCHI,,37.087051,138.374972
牧区吉坪,マキクヨシツボ,MAKIKU YOSHITSUBO,,37.09575,138.429954
三ツ屋町,ミツヤチョウ,MITSUYACHO,,37.17277,138.265821
港町一丁目,ミナトチョウ 1,MINATOCHO 1,,37.183406,138.247986
港町二丁目,ミナトチョウ 2,MINATOCHO 2,,37.184521,138.258593
南城町一丁目,ミナミシロチョウ 1,MINAMISHIROCHO 1,,37.103794,138.248782
南城町二丁目,ミナミシロチョウ 2,MINAMISHIROCHO 2,,37.102818,138.254589
南城町三丁目,ミナミシロチョウ 3,MINAMISHIROCHO 3,,37.105485,138.256553
南城町四丁目,ミナミシロチョウ 4,MINAMISHIROCHO 4,,37.106945,138.260456
南新町,ミナミシンマチ,MINAMISHIMMACHI,,37.098918,138.246377
南高田町,ミナミタカダマチ,MINAMITAKADAMACHI,,37.095405,138.246223
南本町一丁目,ミナミホンチョウ 1,MINAMIHONCHO 1,,37.095138,138.252364
南本町二丁目,ミナミホンチョウ 2,MINAMIHONCHO 2,,37.099233,138.252913
南本町三丁目,ミナミホンチョウ 3,MINAMIHONCHO 3,,37.099836,138.242474
本城町,モトシロチョウ,MOTOSHIROCHO,,37.110108,138.256478
安江一丁目,ヤスエ 1,YASUE 1,,37.172078,138.262564
安江二丁目,ヤスエ 2,YASUE 2,,37.168933,138.26281
安江三丁目,ヤスエ 3,YASUE 3,,37.166715,138.263255
安塚区石橋,ヤスヅカクイシバシ,YASUZUKAKU ISHIBASHI,,37.117725,138.443464
安塚区板尾,ヤスヅカクイタオ,YASUZUKAKU ITAO,,37.140918,138.436167
安塚区円平坊,ヤスヅカクエンタイラボウ,YASUZUKAKU ENTAIRABO,,37.080959,138.469363
安塚区大原,ヤスヅカクオオハラ,YASUZUKAKU OHARA,,37.10139,138.464843
安塚区上方,ヤスヅカクカミガタ,YASUZUKAKU KAMIGATA,,37.123974,138.452324
安塚区上船倉,ヤスヅカクカミフナクラ,YASUZUKAKU KAMIFUNAKURA,,37.084262,138.496474
安塚区切越,ヤスヅカクキリコシ,YASUZUKAKU KIRIKOSHI,,37.089221,138.448816
安塚区小黒,ヤスヅカクコグロ,YASUZUKAKU KOGURO,,37.097927,138.452926
安塚区信濃坂,ヤスヅカクシナノザカ,YASUZUKAKU SHINANOZAKA,,37.069742,138.481057
安塚区下船倉,ヤスヅカクシモフナクラ,YASUZUKAKU SHIMOFUNAKURA,,37.077511,138.489299
安塚区菅沼,ヤスヅカクスガヌマ,YASUZUKAKU SUGANUMA,,37.076535,138.451379
安塚区須川,ヤスヅカクスガワ,YASUZUKAKU SUGAWA,,37.048077,138.489387
安塚区芹田,ヤスヅカクセリダ,YASUZUKAKU SERIDA,,37.109083,138.449974
安塚区袖山,ヤスヅカクソデヤマ,YASUZUKAKU SODEYAMA,,37.148586,138.436491
安塚区高沢,ヤスヅカクタカサワ,YASUZUKAKU TAKASAWA,,37.087777,138.480597
安塚区樽田,ヤスヅカクタルダ,YASUZUKAKU TARUDA,,37.099204,138.479681
安塚区戸沢,ヤスヅカクトザワ,YASUZUKAKU TOZAWA,,37.090038,138.462132
安塚区二本木,ヤスヅカクニホンギ,YASUZUKAKU NIHONGI,,37.080278,138.479197
安塚区坊金,ヤスヅカクボウガネ,YASUZUKAKU BOGANE,,37.132989,138.46857
安塚区朴の木,,,,37.061008,138.44106
安塚区細野,ヤスヅカクホソノ,YASUZUKAKU HOSONO,,37.123135,138.48223
安塚区本郷,ヤスヅカクホンゴウ,YASUZUKAKU HONGO,,37.117581,138.456232
安塚区牧野,ヤスヅカクマキノ,YASUZUKAKU MAKINO,,37.133214,138.437672
安塚区松崎,ヤスヅカクマツザキ,YASUZUKAKU MATSUZAKI,,37.146199,138.445741
安塚区真荻平,ヤスヅカクモオギタイラ,YASUZUKAKU MOGITAIRA,,37.046579,138.458879
安塚区安塚,ヤスヅカクヤスヅカ,YASUZUKAKU YASUZUKA,,37.137479,138.448995
安塚区行野,ヤスヅカクユクノ,YASUZUKAKU YUKUNO,,37.108345,138.480316
安塚区和田,ヤスヅカクワダ,YASUZUKAKU WADA,,37.111776,138.461719
八千浦,ヤチホ,YACHIHO,,37.205301,138.276478
大和一丁目,ヤマト 1,YAMATO 1,,37.081536,138.253483
大和二丁目,ヤマト 2,YAMATO 2,,37.083532,138.250613
大和三丁目,ヤマト 3,YAMATO 3,,37.090178,138.250071
大和四丁目,ヤマト 4,YAMATO 4,,37.08943,138.25557
大和五丁目,ヤマト 5,YAMATO 5,,37.080237,138.245701
大和六丁目,ヤマト 6,YAMATO 6,,37.084723,138.242446
山屋敷町,ヤマヤシキマチ,YAMAYASHIKIMACHI,,37.135447,138.223875
吉川区赤沢,ヨシカワクアカサワ,YOSHIKAWAKU AKASAWA,,37.236216,138.437362
吉川区石谷,ヨシカワクイシダニ,YOSHIKAWAKU ISHIDANI,,37.197841,138.503059
吉川区泉,ヨシカワクイズミ,YOSHIKAWAKU IZUMI,,37.227334,138.445373
吉川区泉谷,ヨシカワクイズミダニ,YOSHIKAWAKU IZUMIDANI,,37.212681,138.436067
吉川区入河沢,ヨシカワクイリコウゾウ,YOSHIKAWAKU IRIKOZO,,37.199831,138.436597
吉川区岩沢,ヨシカワクイワサワ,YOSHIKAWAKU IWASAWA,,37.193286,138.45174
吉川区大賀,ヨシカワクオオガ,YOSHIKAWAKU OGA,,37.183752,138.471892
吉川区大滝,,,,37.219953,138.378852
吉川区尾神,ヨシカワクオカミ,YOSHIKAWAKU OKAMI,,37.207202,138.495855
吉川区小苗代,ヨシカワクオナワシロ,YOSHIKAWAKU ONAWASHIRO,,37.228209,138.416737
吉川区伯母ケ沢,ヨシカワクオバガサワ,YOSHIKAWAKU OBAGASAWA,,37.22418,138.464613
吉川区梶,ヨシカワクカジ,YOSHIKAWAKU KAJI,,37.223979,138.371855
吉川区片田,ヨシカワクカタタ,YOSHIKAWAKU KATATA,,37.216326,138.412519
吉川区上名木,ヨシカワクカミナギ,YOSHIKAWAKU KAMINAGI,,37.190184,138.499543
吉川区川崎,ヨシカワクカワサキ,YOSHIKAWAKU KAWASAKI,,37.220768,138.428886
吉川区川谷,ヨシカワクカワダニ,YOSHIKAWAKU KAWADANI,,37.203206,138.521662
吉川区神田町,ヨシカワクカンダマチ,YOSHIKAWAKU KANDAMACHI,,37.226589,138.383875
吉川区顕法寺,ヨシカワクケンポウジ,YOSHIKAWAKU KEMPOJI,,37.204668,138.406342
吉川区河沢,ヨシカワクコウゾウ,YOSHIKAWAKU KOZO,,37.204376,138.418125
吉川区国田,ヨシカワクコクタ,YOSHIKAWAKU KOKUTA,,37.185087,138.436953
吉川区後生寺,ヨシカワクゴショウジ,YOSHIKAWAKU GOSHOJI,,37.225543,138.455242
吉川区米山,ヨシカワクコメヤマ,YOSHIKAWAKU KOMEYAMA,,37.19963,138.447992
吉川区下町,ヨシカワクシタマチ,YOSHIKAWAKU SHITAMACHI,,37.222401,138.408313
吉川区十町歩,ヨシカワクジッチョウブ,YOSHIKAWAKU JITCHOBU,,37.203227,138.412984
吉川区下小沢,ヨシカワクシモオザワ,YOSHIKAWAKU SHIMOZAWA,,37.215192,138.445081
吉川区下中条,ヨシカワクシモチュウジョウ,YOSHIKAWAKU SHIMOCHUJO,,37.236967,138.420145
吉川区下八幡,ヨシカワクシモハチマン,YOSHIKAWAKU SHIMOHACHIMAN,,37.221107,138.3727
吉川区下深沢,ヨシカワクシモフカサワ,YOSHIKAWAKU SHIMOFUKASAWA,,37.214171,138.408703
吉川区代石,ヨシカワクタイシ,YOSHIKAWAKU TAISHI,,37.237022,138.406761
吉川区大乗寺,ヨシカワクダイジョウジ,YOSHIKAWAKU DAIJOJI,,37.231251,138.399462
吉川区高沢入,ヨシカワクタカサワイリ,YOSHIKAWAKU TAKASAWAIRI,,37.201652,138.471193
吉川区竹直,ヨシカワクタケナオ,YOSHIKAWAKU TAKENAO,,37.236471,138.384827
吉川区田尻,ヨシカワクタジリ,YOSHIKAWAKU TAJIRI,,37.216307,138.387877
吉川区坪野,ヨシカワクツボノ,YOSHIKAWAKU TSUBONO,,37.212462,138.480477
吉川区坪野内,ヨシカワクツボノウチ,YOSHIKAWAKU TSUBONOCHI,,37.217591,138.367212
吉川区天林寺,ヨシカワクテンリンジ,YOSHIKAWAKU TENRINJI,,37.209417,138.424311
吉川区東寺,ヨシカワクトウジ,YOSHIKAWAKU TOJI,,37.216517,138.462053
吉川区杜氏の郷,ヨシカワクトウジノサト,YOSHIKAWAKU TOJINOSATO,,37.241567,138.37674
吉川区土尻,ヨシカワクドジリ,YOSHIKAWAKU DOJIRI,,37.214785,138.42818
吉川区長沢,ヨシカワクナガサワ,YOSHIKAWAKU NAGASAWA,,37.229849,138.377942
吉川区長峰,ヨシカワクナガミネ,YOSHIKAWAKU NAGAMINE,,37.244596,138.369313
吉川区中谷内,ヨシカワクナカヤチ,YOSHIKAWAKU NAKAYACHI,,37.209279,138.409318
吉川区名木山,ヨシカワクナギヤマ,YOSHIKAWAKU NAGIYAMA,,37.187815,138.491076
吉川区西野島,ヨシカワクニシノシマ,YOSHIKAWAKU NISHINOSHIMA,,37.212955,138.374958
吉川区原之町,ヨシカワクハラノマチ,YOSHIKAWAKU HARANOMACHI,,37.228286,138.393839
吉川区東田中,ヨシカワクヒガシタナカ,YOSHIKAWAKU HIGASHITANAKA,,37.196152,138.423762
吉川区東鳥越,ヨシカワクヒガシトリゴエ,YOSHIKAWAKU HIGASHITORIGOE,,37.21943,138.417261
吉川区平等寺,ヨシカワクビョウドウジ,YOSHIKAWAKU BYODOJI,,37.213155,138.473401
吉川区町田,ヨシカワクマチダ,YOSHIKAWAKU MACHIDA,,37.20116,138.389919
吉川区山方,ヨシカワクヤマガタ,YOSHIKAWAKU YAMAGATA,,37.214526,138.398555
吉川区山口,ヨシカワクヤマグチ,YOSHIKAWAKU YAMAGUCHI,,37.205674,138.413245
吉川区山直海,ヨシカワクヤマノウミ,YOSHIKAWAKU YAMANOMI,,37.189208,138.45685
吉川区山中,ヨシカワクヤマナカ,YOSHIKAWAKU YAMANAKA,,37.201476,138.459302
吉川区吉井,ヨシカワクヨシイ,YOSHIKAWAKU YOSHII,,37.206603,138.449426
吉川区六万部,ヨシカワクロクマンブ,YOSHIKAWAKU ROKUMAMBU,,37.209323,138.388813
米町,ヨネマチ,YONEMACHI,,37.138285,138.315374
三和区浮島,サンワクウキシマ,SANWAKU UKISHIMA,,37.131909,138.351628
三和区島倉,サンワクシマクラ,SANWAKU SHIMAKURA,,37.135236,138.354034
三和区井ノ口,サンワクイノクチ,SANWAKU INOKUCHI,,37.124868,138.351139
三和区田,サンワクタ,SANWAKU TA,,37.115739,138.342406
三和区野,サンワクノ,SANWAKU NO,,37.123962,138.326563
三和区下中,サンワクシモナカ,SANWAKU SHIMONAKA,,37.126804,138.33647
三和区稲原,サンワクイナハラ,SANWAKU INAHARA,,37.132031,138.329568
三和区岡木,サンワクオカギ,SANWAKU OKAGI,,37.137035,138.326527
三和区下広田,サンワクシモヒロタ,SANWAKU SHIMOHIROTA,,37.150513,138.334353
三和区本郷,サンワクホンゴウ,SANWAKU HONGO,,37.147656,138.347548
三和区錦,サンワクニシキ,SANWAKU NISHIKI,,37.139638,138.342779
三和区柳林,サンワクヤナギバヤシ,SANWAKU YANAGIBAYASHI,,37.133853,138.339603
三和区上広田,サンワクカミヒロタ,SANWAKU KAMIHIROTA,,37.143325,138.33603
大字土橋,,,,37.12925,138.244162
北本町三丁目,キタホンチョウ 3,KITAHONCHO 3,,37.125298,138.243083
吉川区長坂,ヨシカワクナガサカ,YOSHIKAWAKU NAGASAKA,,37.182988,138.418822
頸城区玄僧,クビキクゲンゾウ,KUBIKIKU GENZO,,37.185673,138.398392
吉川区福平,ヨシカワクフクダイラ,YOSHIKAWAKU FUKUDAIRA,,37.190691,138.420759
吉川区道之下,ヨシカワクドウノシタ,YOSHIKAWAKU DONOSHITA,,37.194537,138.408578
下門前,シモモンゼン,SHIMOMONZEN,外川原,37.160354,138.248039
大字塩屋新田,,,下之曲り,37.162261,138.249244
大字大道福田,,,中小割,37.150857,138.24961
藤野新田,フジノシンデン,FUJINOSHINDEN,屋敷付,37.151461,138.251418
大字西田中,,,久ノ田,37.060107,138.258044
大字下源入,,,新田々,37.166613,138.258506
富岡,トミオカ,TOMIOKA,宮下,37.144209,138.260769
富岡,トミオカ,TOMIOKA,五田所,37.143333,138.261929
大潟区上小船津浜,オオガタクカミコブナツハマ,OGATAKU KAMIKOBUNATSUHAMA,上小,37.218045,138.315597
