name,name_kana,name_romaji,nickname,latitude,longitude
相生町,アイオイチョウ,AIOICHO,,37.044229,136.966663
青葉台町,アオバダイマチ,AOBADAIMACHI,,37.021354,136.941814
青山町,アオヤママチ,AOYAMAMACHI,,37.047151,136.913655
旭町,アサヒマチ,ASAHIMACHI,,37.026467,136.914976
麻生町,アソウマチ,ASOMACHI,,37.011201,137.014983
阿良町,アラマチ,ARAMACHI,,37.047593,136.963247
新屋町,アラヤマチ,ARAYAMACHI,,37.063928,136.896163
飯川町,イガワマチ,IGAWAMACHI,,37.004521,136.9366
生駒町,イコマチョウ,IKOMACHO,,37.046245,136.965362
石崎町,イシザキマチ,ISHIZAKIMACHI,,37.078718,136.931643
石崎町香島一丁目,1,1,,37.082797,136.926828
石崎町香島二丁目,2,2,,37.080837,136.925057
石崎町香島三丁目,3,3,,37.079885,136.923946
一本杉町,イッポンスギマチ,IPPONSUGIMACHI,,37.047114,136.962538
今町,イママチ,IMAMACHI,,37.043548,136.969152
魚町,ウオマチ,UOMACHI,,37.048879,136.961185
後畠町,ウシロバタケマチ,USHIROBATAKEMACHI,,37.025366,136.970734
鵜浦町,ウノウラマチ,UNORAMACHI,,37.093962,137.042352
馬出町,ウマダシマチ,UMADASHIMACHI,,37.046046,136.960855
上野ヶ丘町,,,,37.059911,136.883507
江曽町,エソマチ,ESOMACHI,,36.999372,136.943155
江泊町,エノトマリマチ,ENOTOMARIMACHI,,37.065202,137.04167
大田新町,オオタシンマチ,OTASHIMMACHI,,37.051145,136.998909
大田町,オオタマチ,OTAMACHI,,37.061889,137.013544
大津町,オオツマチ,OTSUMACHI,,37.062833,136.845889
大手町,オオテマチ,OTEMACHI,,37.044415,136.965358
大泊町,オオトマリマチ,OTOMARIMACHI,,36.965914,137.0162
大野木町,オオノギマチ,ONOGIMACHI,,37.076971,137.045851
岡町,オカマチ,OKAMACHI,,37.059656,137.022743
奥原町,オクハラマチ,OKUHARAMACHI,,37.074303,136.914856
小栗町,オグリマチ,OGURIMACHI,,37.021405,137.014873
垣吉町,カキヨシマチ,KAKIYOSHIMACHI,,37.058674,136.898509
鍜冶町,,,,37.043862,136.970544
上府中町,カミフチュウマチ,KAMIFUCHUMACHI,,37.041323,136.969626
亀山町,カメヤマチョウ,KAMEYAMACHO,,37.046199,136.963387
川尻町,カワシリマチ,KAWASHIRIMACHI,,37.069944,136.894953
川原町,カワラマチ,KAWARAMACHI,,37.042497,136.96938
北藤橋町,キタフジハシマチ,KITAFUJIHASHIMACHI,,37.044061,136.962232
木町,キマチ,KIMACHI,,37.04832,136.962945
熊淵町,クマブチマチ,KUMABUCHIMACHI,,36.985434,137.001549
黒崎町,クロサキマチ,KUROSAKIMACHI,,36.98997,137.036739
小池川原町,コイケガワラマチ,KOIKEGAWARAMACHI,,37.020403,136.971326
柑子町,コウジマチ,KOJIMACHI,,37.027832,137.028575
光陽台,コウヨウダイ,KOYODAI,,37.083487,136.924475
郡町,コオリマチ,KORIMACHI,,37.044981,136.973345
国下町,コクガマチ,KOKUGAMACHI,,37.011151,136.954417
国分町,コクブマチ,KOKUBUMACHI,,37.030864,136.952926
小島町,コジママチ,KOJIMAMACHI,,37.050128,136.952767
寿町,コトブキチョウ,KOTOBUKICHO,,37.050525,136.965313
小丸山台一丁目,コマルヤマダイ 1,KOMARUYAMADAI 1,,37.045466,136.955252
小丸山台二丁目,コマルヤマダイ 2,KOMARUYAMADAI 2,,37.046476,136.952234
小丸山台三丁目,コマルヤマダイ 3,KOMARUYAMADAI 3,,37.045975,136.94991
米町,コメマチ,KOMEMACHI,,37.047555,136.964758
栄町,サカエマチ,SAKAEMACHI,,37.033776,136.959257
作事町,サクジマチ,SAKUJIMACHI,,37.045475,136.967595
桜町,サクラマチ,SAKURAMACHI,,37.051588,136.962653
佐野町,サノマチ,SANOMACHI,,37.029355,137.005054
佐味町,サミマチ,SAMIMACHI,,37.042259,137.002715
沢野町,サワノマチ,SAWANOMACHI,,37.047063,137.026364
山王町,サンノウマチ,SANNOMACHI,,37.04128,136.972467
七原町,シツハラマチ,SHITSUHARAMACHI,,37.025009,136.868977
清水平町,シミズダイラマチ,SHIMIZUDAIRAMACHI,,37.022663,137.024938
下町,シモマチ,SHIMOMACHI,,37.012821,136.936369
昭和町,ショウワマチ,SHOWAMACHI,,37.049365,136.966688
白浜町,シラハママチ,SHIRAHAMAMACHI,,37.067895,136.875058
白馬町,シロウママチ,SHIROMAMACHI,,37.020724,136.927118
白銀町,シロガネチョウ,SHIROGANECHO,,37.049507,136.962395
新保町,シンボマチ,SHIMBOMACHI,,37.062203,136.923665
神明町,シンメイチョウ,SHIMMEICHO,,37.042644,136.965358
菅沢町,,,,36.995363,137.016001
杉森町,スギモリマチ,SUGIMORIMACHI,,37.04918,136.887792
須能町,,,,37.00594,137.002533
泉南台,センナンダイ,SENNANDAI,,37.078029,136.921771
袖ケ江町,ソデガエチョウ,SODEGAECHO,,37.043135,136.967475
外林町,ソトバヤシマチ,SOTOBAYASHIMACHI,,37.034019,137.030216
祖浜町,ソハママチ,SOHAMAMACHI,,37.069364,136.931207
高田町,タカタマチ,TAKATAMACHI,,37.053132,136.897524
竹町,タケマチ,TAKEMACHI,,37.026771,136.976904
橘町,タチバナチョウ,TACHIBANACHO,,37.044798,136.96772
田鶴浜町,タツルハママチ,TATSURUHAMAMACHI,,37.062039,136.888483
多根町,タネマチ,TANEMACHI,,36.985694,136.97222
千野町,チノマチ,CHINOMACHI,,37.006906,136.966878
つつじが浜,ツツジガハマ,TSUTSUJIGAHAMA,,37.053275,136.95992
津向町,ツムギマチ,TSUMUGIMACHI,,37.060242,136.952978
天神川原町,テンジンカワラマチ,TENJINKAWARAMACHI,,37.031795,136.971637
東浜町,トウノハママチ,TONOHAMAMACHI,,36.973112,137.036646
常盤町,トキワマチ,TOKIWAMACHI,,37.049063,136.963302
所口町,トコログチマチ,TOKOROGUCHIMACHI,,37.037924,136.964588
殿町,トノマチ,TONOMACHI,,37.048047,137.019756
富岡町,トミオカチョウ,TOMIOKACHO,,37.050246,136.960632
中島町上畠,ナカジママチウワバタケ,NAKAJIMAMACHI UWABATAKE,,37.131722,136.813516
中島町大平,ナカジママチオオダイラ,NAKAJIMAMACHI ODAIRA,,37.141889,136.787217
中島町奥吉田,ナカジママチオクヨシタ,NAKAJIMAMACHI OKUYOSHITA,,37.097054,136.843622
中島町小牧,ナカジママチオマキ,NAKAJIMAMACHI OMAKI,,37.146094,136.858036
中島町笠師,ナカジママチカサシ,NAKAJIMAMACHI KASASHI,,37.088521,136.831038
中島町鹿島台,ナカジママチカシマダイ,NAKAJIMAMACHI KASHIMADAI,,37.127507,136.881068
中島町河崎,ナカジママチカワザキ,NAKAJIMAMACHI KAWAZAKI,,37.106952,136.842313
中島町河内,ナカジママチカワチ,NAKAJIMAMACHI KAWACHI,,37.175413,136.822943
中島町上町,ナカジママチカンマチ,NAKAJIMAMACHI KAMMACHI,,37.126579,136.843597
中島町北免田,ナカジママチキタメンデン,NAKAJIMAMACHI KITAMENDEN,,37.126784,136.817848
中島町北免田上畠町屋鳥越入会地,,,,37.13483,136.793545
中島町呉竹,,,,37.194421,136.819027
中島町崎山,ナカジママチサキヤマ,NAKAJIMAMACHI SAKIYAMA,,37.105263,136.853035
中島町塩津,ナカジママチシオツ,NAKAJIMAMACHI SHIOTSU,,37.080622,136.847213
中島町瀬嵐,ナカジママチセアラシ,NAKAJIMAMACHI SEARASHI,,37.117485,136.879831
中島町外,ナカジママチソデ,NAKAJIMAMACHI SODE,,37.157689,136.867409
中島町外原,ナカジママチソドハラ,NAKAJIMAMACHI SODOHARA,,37.115811,136.784378
中島町田岸,ナカジママチタギシ,NAKAJIMAMACHI TAGISHI,,37.162593,136.872745
中島町土川,ナカジママチツチカワ,NAKAJIMAMACHI TSUCHIKAWA,,37.109252,136.808037
中島町豊田,ナカジママチトヨタ,NAKAJIMAMACHI TOYOTA,,37.096802,136.816649
中島町豊田町,ナカジママチトヨタマチ,NAKAJIMAMACHI TOYOTAMACHI,,37.104258,136.829701
中島町鳥越,ナカジママチトリゴエ,NAKAJIMAMACHI TORIGOE,,37.143852,136.802821
中島町長浦,ナカジママチナガウラ,NAKAJIMAMACHI NAGAURA,,37.129717,136.894635
中島町中島,ナカジママチナカジマ,NAKAJIMAMACHI NAKAJIMA,,37.120362,136.858219
中島町西谷内,ナカジママチニシヤチ,NAKAJIMAMACHI NISHIYACHI,,37.166753,136.803629
中島町西谷内藤瀬河内入会地,,,,37.150636,136.831311
中島町浜田,ナカジママチハマダ,NAKAJIMAMACHI HAMADA,,37.113017,136.839445
中島町深浦,ナカジママチフカウラ,NAKAJIMAMACHI FUKAURA,,37.136357,136.884706
中島町藤瀬,ナカジママチフジノセ,NAKAJIMAMACHI FUJINOSE,,37.142741,136.8228
中島町筆染,ナカジママチフデソメ,NAKAJIMAMACHI FUDESOME,,37.102439,136.860528
中島町古江,ナカジママチフルエ,NAKAJIMAMACHI FURUE,,37.152258,136.79753
中島町別所,ナカジママチベッショ,NAKAJIMAMACHI BESSHO,,37.17226,136.845094
中島町町屋,ナカジママチマチヤ,NAKAJIMAMACHI MACHIYA,,37.136702,136.806993
中島町町屋上畠北免田入会地,,,,37.129242,136.79129
中島町宮前,ナカジママチミヤノマエ,NAKAJIMAMACHI MIYANOMAE,,37.129598,136.835809
中島町谷内,ナカジママチヤチ,NAKAJIMAMACHI YACHI,,37.137867,136.841165
中島町山戸田,ナカジママチヤマトダ,NAKAJIMAMACHI YAMATODA,,37.12398,136.824807
中島町横田,ナカジママチヨコタ,NAKAJIMAMACHI YOKOTA,,37.138321,136.830494
中島町横見,ナカジママチヨコミ,NAKAJIMAMACHI YOKOMI,,37.170792,136.870703
中挟町,,,,37.005422,136.951358
なぎの浦,ナギノウラ,NAGINORA,,37.054923,136.957525
西下町,ニシシモマチ,NISHISHIMOMACHI,,37.041775,136.891863
西藤橋町,ニシフジハシマチ,NISHIFUJIHASHIMACHI,,37.043688,136.95774
塗師町,ヌシマチ,NUSHIMACHI,,37.044789,136.969237
能登島えの目町,ノトジマエノメマチ,NOTOJIMA ENOMEMACHI,,37.152822,137.041603
能登島小浦町,ノトジマオウラマチ,,,37.135406,137.040486
能登島久木町,ノトジマクキマチ,NOTOJIMA KUKIMACHI,,37.149313,136.912756
能登島向田町,ノトジマコウダマチ,NOTOJIMA KODAMACHI,,37.129614,137.002003
能登島佐波町,ノトジマサナミマチ,NOTOJIMA SANAMIMACHI,,37.115051,136.982562
能登島須曽町,ノトジマスソマチ,NOTOJIMA SUSOMACHI,,37.108407,136.964229
能登島田尻町,ノトジマタジリマチ,NOTOJIMA TAJIRIMACHI,,37.1467,136.907476
能登島通町,ノトジマトオリマチ,NOTOJIMA TORIMACHI,,37.135721,136.907461
能登島長崎町,ノトジマナガサキマチ,NOTOJIMA NAGASAKIMACHI,,37.142368,137.034101
能登島閨町,ノトジマネヤマチ,NOTOJIMA NEYAMACHI,,37.13622,136.936162
能登島野崎町,ノトジマノザキマチ,NOTOJIMA NOZAKIMACHI,,37.126617,137.034835
能登島祖母ケ浦町,ノトジマバガウラマチ,NOTOJIMA BAGAURAMACHI,,37.151301,137.026326
能登島八ケ崎町,ノトジマハチガサキマチ,NOTOJIMA HACHIGASAKIMACHI,,37.156839,137.035815
能登島半浦町,ノトジマハンノウラマチ,NOTOJIMA HANNORAMACHI,,37.114085,136.94586
能登島日出ケ島町,ノトジマヒデガシママチ,NOTOJIMA HIDEGASHIMAMACHI,,37.117617,137.028476
能登島百万石町,ノトジマヒャクマンゴクマチ,NOTOJIMA HYAKUMANGOKUMACHI,,37.140271,136.914206
能登島二穴町,ノトジマフタアナマチ,NOTOJIMA FUTAANAMACHI,,37.119411,137.016998
能登島別所町,ノトジマベッショマチ,NOTOJIMA BESSHOMACHI,,37.121674,136.963007
能登島曲町,ノトジママガリマチ,NOTOJIMA MAGARIMACHI,,37.137689,136.979515
能登島南町,ノトジマミナミマチ,NOTOJIMA MINAMIMACHI,,37.135773,136.959415
能登島無関町,ノトジマムセキマチ,NOTOJIMA MUSEKIMACHI,,37.136826,136.94876
八田町,ハッタマチ,HATTAMACHI,,36.997474,136.960315
花園町,ハナゾノマチ,HANAZONOMACHI,,36.982449,137.043951
東三階町,ヒガシミカイマチ,HIGASHIMIKAIMACHI,,37.021407,136.914857
東山町,ヒガシヤママチ,HIGASHIYAMAMACHI,,37.057235,136.904697
桧物町,ヒモノマチ,HIMONOMACHI,,37.045296,136.965262
深見町,フカミマチ,FUKAMIMACHI,,37.058577,136.86689
藤野町,フジノマチ,FUJINOMACHI,,37.029098,136.969435
藤橋町,フジハシマチ,FUJIHASHIMACHI,,37.041154,136.941183
府中町,フチュウマチ,FUCHUMACHI,,37.047459,136.968611
舟尾町,フノオマチ,FUNOMACHI,,37.068077,136.905635
古府町,フルコマチ,FURUKOMACHI,,37.015361,136.970497
古城町,フルシロマチ,FURUSHIROMACHI,,37.013729,136.978955
古屋敷町,フルヤシキマチ,FURUYASHIKIMACHI,,37.02343,136.975325
細口町,ホソグチマチ,HOSOGUCHIMACHI,,37.029414,136.936711
松百町,マットウマチ,MATTOMACHI,,37.061844,136.943295
松本町,マツモトチョウ,MATSUMOTOCHO,,37.049099,136.959409
万行町,マンギョウマチ,MANGYOMACHI,,37.032828,136.990047
三島町,ミシマチョウ,MISHIMACHO,,37.04836,136.965358
御祓町,ミソギチョウ,MISOGICHO,,37.042815,136.963605
湊町一丁目,ミナトチョウ 1,MINATOCHO 1,,37.045947,136.97027
湊町二丁目,ミナトチョウ 2,MINATOCHO 2,,37.04579,136.97191
南ケ丘町,ミナミガオカマチ,MINAMIGAOKAMACHI,,37.018995,136.963679
南藤橋町,ミナミフジハシマチ,MINAMIFUJIHASHIMACHI,,37.041983,136.960996
三引町,ミビキマチ,MIBIKIMACHI,,37.054094,136.876622
三室町,ミムロマチ,MIMUROMACHI,,37.092983,137.022957
本府中町,モトフチュウマチ,MOTOFUCHUMACHI,,37.036566,136.970248
矢田新町,ヤタシンマチ,YATASHIMMACHI,,37.04861,136.979996
矢田町,ヤタマチ,YATAMACHI,,37.027428,136.983357
山崎町,ヤマザキマチ,YAMAZAKIMACHI,,36.975605,137.012767
大和町,ヤマトマチ,YAMATOMACHI,,37.042505,136.977021
八幡町,ヤワタマチ,YAWATAMACHI,,37.018275,136.94811
湯川町,ユガワマチ,YUGAWAMACHI,,37.075755,137.029741
吉田町,ヨシタマチ,YOSHITAMACHI,,37.03451,136.870626
若林町,ワカバヤシマチ,WAKABAYASHIMACHI,,37.002706,136.927887
和倉町,ワクラマチ,WAKURAMACHI,,37.084833,136.914215
和倉町ひばり一丁目,ワクラマチヒバリ 1,WAKURAMACHIHIBARI 1,,37.086987,136.924315
和倉町ひばり二丁目,ワクラマチヒバリ 2,WAKURAMACHIHIBARI 2,,37.084966,136.923682
和倉町ひばり三丁目,ワクラマチヒバリ 3,WAKURAMACHIHIBARI 3,,37.083159,136.919989
佐々波町,サザナミマチ,SAZANAMIMACHI,,37.008624,137.036139
庵町,イオリマチ,IORIMACHI,,37.03893,137.038361
直津町,タダツマチ,TADATSUMACHI,,37.049452,136.921517
赤浦町,アカウラマチ,AKAURAMACHI,,37.051434,136.937172
赤浦新町,,,,37.056986,136.931029
池崎町,イケザキマチ,IKEZAKIMACHI,,37.037379,136.914258
盤若野町,ハンニャノマチ,HANNYANOMACHI,,37.030723,136.907608
町屋町,マチヤマチ,MACHIYAMACHI,,37.03202,136.900677
満仁町,マニマチ,MANIMACHI,,37.040749,136.899463
温井町,ヌクイマチ,NUKUIMACHI,,37.034427,136.896773
西三階町,ニシミカイマチ,NISHIMIKAIMACHI,,37.022678,136.89868
伊久留町,イクロマチ,IKUROMACHI,,37.027598,136.883353
