name,name_kana,name_romaji,nickname,latitude,longitude
飯田町,イイダマチ,IIDAMACHI,,37.438626,137.264129
石神町,イシガミマチ,ISHIGAMIMACHI,,37.49404,137.232294
岩坂町,イワサカマチ,IWASAKAMACHI,,37.469732,137.268197
上戸町北方,ウエドマチキタガタ,UEDOMACHI KITAGATA,,37.436881,137.249658
上戸町寺社,ウエドマチジシャ,UEDOMACHI JISHA,,37.430578,137.233402
上戸町南方,ウエドマチミナミガタ,UEDOMACHI MINAMIGATA,,37.427375,137.195088
大谷町,オオタニマチ,OTANIMACHI,,37.483637,137.176224
折戸町,オリトマチ,ORITOMACHI,,37.518881,137.277351
片岩町,カタイワマチ,KATAIWAMACHI,,37.47873,137.137743
唐笠町,カラカサマチ,KARAKASAMACHI,,37.499718,137.264358
川浦町,カワウラマチ,KAWAURAMACHI,,37.515083,137.297849
熊谷町,クマンタニマチ,KUMANTANIMACHI,,37.448696,137.284229
笹波町,ササナミマチ,SASANAMIMACHI,,37.50273,137.231679
清水町,シミズマチ,SHIMIZUMACHI,,37.475618,137.124962
正院町飯塚,ショウインマチイイヅカ,SHOIMMACHI IIZUKA,,37.467048,137.296787
正院町岡田,ショウインマチオカタ,SHOIMMACHI OKATA,,37.480074,137.271185
正院町川尻,ショウインマチカワシリ,SHOIMMACHI KAWASHIRI,,37.447826,137.302192
正院町小路,ショウインマチコウジ,SHOIMMACHI KOJI,,37.452682,137.290834
正院町正院,ショウインマチショウイン,SHOIMMACHI SHOIN,,37.44464,137.290488
正院町平床,ショウインマチヒラトコ,SHOIMMACHI HIRATOKO,,37.459574,137.305324
高屋町,タカヤマチ,TAKAYAMACHI,,37.511272,137.244054
蛸島町,タコジママチ,TAKOJIMAMACHI,,37.44558,137.320389
長橋町,ナガハシマチ,NAGAHASHIMACHI,,37.489443,137.148692
仁江町,ニエマチ,NIEMACHI,,37.474674,137.110113
野々江町,ノノエマチ,NONOEMACHI,,37.447177,137.273776
狼煙新町,ノロシシンマチ,NOROSHISHIMMACHI,,37.516245,137.32323
狼煙町,ノロシマチ,NOROSHIMACHI,,37.521555,137.307517
東山中町,ヒガシヤマナカマチ,HIGASHIYAMANAKAMACHI,,37.495596,137.284248
宝立町鵜飼,ホウリュウマチウカイ,HORYUMACHI UKAI,,37.401395,137.240903
宝立町鵜島,ホウリュウマチウシマ,HORYUMACHI USHIMA,,37.396651,137.239341
宝立町大町泥木,ホウリュウマチオオマチドロノキ,HORYUMACHI OMACHIDORONOKI,,37.400371,137.146893
宝立町柏原,ホウリュウマチカシハラ,HORYUMACHI KASHIHARA,,37.397386,137.198593
宝立町春日野,ホウリュウマチカスガノ,HORYUMACHI KASUGANO,,37.41367,137.215966
宝立町黒峰,ホウリュウマチクロミネ,HORYUMACHI KUROMINE,,37.39,137.194935
宝立町金峰寺,ホウリュウマチコンポウジ,HORYUMACHI KOMPOJI,,37.402814,137.235495
宝立町宗玄,ホウリュウマチソウゲン,HORYUMACHI SOGEN,,37.374419,137.227994
宝立町馬渡,ホウリュウマチマワタリ,HORYUMACHI MAWATARI,,37.3744,137.181715
宝立町南黒丸,ホウリュウマチミナミクロマル,HORYUMACHI MINAMIKUROMARU,,37.389374,137.234387
真浦町,マウラマチ,MAURAMACHI,,37.465722,137.097077
馬緤町,マツナギマチ,MATSUNAGIMACHI,,37.496944,137.201118
三崎町粟津,ミサキマチアワヅ,MISAKIMACHI AWAZU,,37.493675,137.321927
三崎町宇治,ミサキマチウジ,MISAKIMACHI UJI,,37.470474,137.338416
三崎町大屋,ミサキマチオオヤ,MISAKIMACHI OYA,,37.493927,137.305329
三崎町高波,ミサキマチコウナミ,MISAKIMACHI KONAMI,,37.463399,137.352431
三崎町小泊,ミサキマチコドマリ,MISAKIMACHI KODOMARI,,37.450735,137.350889
三崎町寺家,ミサキマチジケ,MISAKIMACHI JIKE,,37.502033,137.336147
三崎町杉山,ミサキマチスギヤマ,MISAKIMACHI SUGIYAMA,,37.479303,137.307837
三崎町内方,ミサキマチナイホウ,MISAKIMACHI NAIHO,,37.46486,137.3346
三崎町二本松,ミサキマチニホンマツ,MISAKIMACHI NIHOMMATSU,,37.459606,137.314965
三崎町引砂,ミサキマチヒキスナ,MISAKIMACHI HIKISUNA,,37.466556,137.346229
三崎町伏見,ミサキマチフシミ,MISAKIMACHI FUSHIMI,,37.457502,137.345167
三崎町細屋,ミサキマチホソヤ,MISAKIMACHI HOSOYA,,37.455528,137.323269
三崎町本,ミサキマチホン,MISAKIMACHI HON,,37.466157,137.323535
三崎町雲津,ミサキマチモヅ,MISAKIMACHI MOZU,,37.448503,137.33825
三崎町森腰,ミサキマチモリコシ,MISAKIMACHI MORIKOSHI,,37.476733,137.336701
若山町宇都山,ワカヤママチウツヤマ,WAKAYAMAMACHI UTSUYAMA,,37.472211,137.206558
若山町上黒丸,ワカヤママチカミクロマル,WAKAYAMAMACHI KAMIKUROMARU,,37.45054,137.169872
若山町上正力,ワカヤママチカミショウリキ,WAKAYAMAMACHI KAMISHORIKI,,37.466629,137.182833
若山町上山,ワカヤママチカミヤマ,WAKAYAMAMACHI KAMIYAMA,,37.445815,137.149254
若山町北山,ワカヤママチキタヤマ,WAKAYAMAMACHI KITAYAMA,,37.449951,137.135319
若山町経念,ワカヤママチキョウネン,WAKAYAMAMACHI KYONEN,,37.458473,137.250786
若山町白滝,ワカヤママチシラタキ,WAKAYAMAMACHI SHIRATAKI,,37.435328,137.164336
若山町鈴内,ワカヤママチスズナイ,WAKAYAMAMACHI SUZUNAI,,37.471259,137.247195
若山町出田,ワカヤママチスッタ,WAKAYAMAMACHI SUTTA,,37.448193,137.255286
若山町洲巻,ワカヤママチスマキ,WAKAYAMAMACHI SUMAKI,,37.435348,137.149945
若山町大坊,ワカヤママチダイボウ,WAKAYAMAMACHI DAIBO,,37.463747,137.202451
若山町中,ワカヤママチナカ,WAKAYAMAMACHI NAKA,,37.453492,137.196453
若山町中田,ワカヤママチナカダ,WAKAYAMAMACHI NAKADA,,37.448299,137.236421
若山町延武,ワカヤママチノブタケ,WAKAYAMAMACHI NOBUTAKE,,37.465058,137.222927
若山町火宮,ワカヤママチヒミヤ,WAKAYAMAMACHI HIMIYA,,37.470472,137.226922
若山町広栗,ワカヤママチヒログリ,WAKAYAMAMACHI HIROGURI,,37.454846,137.262995
若山町二子,ワカヤママチフタゴ,WAKAYAMAMACHI FUTAGO,,37.459409,137.170415
若山町古蔵,ワカヤママチフルクラ,WAKAYAMAMACHI FURUKURA,,37.464524,137.238843
若山町南山,ワカヤママチミナミヤマ,WAKAYAMAMACHI MINAMIYAMA,,37.438983,137.174043
若山町向,ワカヤママチムカイ,WAKAYAMAMACHI MUKAI,,37.451574,137.224896
若山町宗末,ワカヤママチムネスエ,WAKAYAMAMACHI MUNESUE,,37.452559,137.179989
若山町吉ケ池,ワカヤママチヨシガイケ,WAKAYAMAMACHI YOSHIGAIKE,,37.462416,137.153097
