name,name_kana,name_romaji,nickname,latitude,longitude
相生町,アイオイチョウ,AIOICHO,,37.044229,136.966663
青葉台町,アオバダイマチ,AOBADAIMACHI,,37.021354,136.941814
青山町,アオヤママチ,AOYAMAMACHI,,37.047151,136.913655
旭町,アサヒマチ,ASAHIMACHI,,37.026467,136.914976
麻生町,アソウマチ,ASOMACHI,,37.011201,137.014983
阿良町,アラマチ,ARAMACHI,,37.047593,136.963247
新屋町,アラヤマチ,ARAYAMACHI,,37.063928,136.896163
飯川町,イガワマチ,IGAWAMACHI,,37.004521,136.9366
生駒町,イコマチョウ,IKOMACHO,,37.046245,136.965362
石崎町,イシザキマチ,ISHIZAKIMACHI,,37.078718,136.931643
石崎町香島一丁目, 1, 1,,37.082797,136.926828
石崎町香島二丁目, 2, 2,,37.080837,136.925057
石崎町香島三丁目, 3, 3,,37.079885,136.923946
一本杉町,イッポンスギマチ,IPPONSUGIMACHI,,37.047114,136.962538
今町,イママチ,IMAMACHI,,37.043548,136.969152
魚町,ウオマチ,UOMACHI,,37.048879,136.961185
後畠町,ウシロバタケマチ,USHIROBATAKEMACHI,,37.025366,136.970734
鵜浦町,ウノウラマチ,UNORAMACHI,,37.093962,137.042352
馬出町,ウマダシマチ,UMADASHIMACHI,,37.046046,136.960855
上野ヶ丘町,,,,37.059911,136.883507
江曽町,エソマチ,ESOMACHI,,36.999372,136.943155
江泊町,エノトマリマチ,ENOTOMARIMACHI,,37.065202,137.04167
大田新町,オオタシンマチ,OTASHIMMACHI,,37.051145,136.998909
大田町,オオタマチ,OTAMACHI,,37.061889,137.013544
大津町,オオツマチ,OTSUMACHI,,37.062833,136.845889
大手町,オオテマチ,OTEMACHI,,37.044415,136.965358
大泊町,オオトマリマチ,OTOMARIMACHI,,36.965914,137.0162
大野木町,オオノギマチ,ONOGIMACHI,,37.076971,137.045851
岡町,オカマチ,OKAMACHI,,37.059656,137.022743
奥原町,オクハラマチ,OKUHARAMACHI,,37.074303,136.914856
小栗町,オグリマチ,OGURIMACHI,,37.021405,137.014873
垣吉町,カキヨシマチ,KAKIYOSHIMACHI,,37.058674,136.898509
鍜冶町,,,,37.043862,136.970544
上府中町,カミフチュウマチ,KAMIFUCHUMACHI,,37.041323,136.969626
亀山町,カメヤマチョウ,KAMEYAMACHO,,37.046199,136.963387
川尻町,カワシリマチ,KAWASHIRIMACHI,,37.069944,136.894953
川原町,カワラマチ,KAWARAMACHI,,37.042497,136.96938
北藤橋町,キタフジハシマチ,KITAFUJIHASHIMACHI,,37.044061,136.962232
木町,キマチ,KIMACHI,,37.04832,136.962945
熊淵町,クマブチマチ,KUMABUCHIMACHI,,36.985434,137.001549
黒崎町,クロサキマチ,KUROSAKIMACHI,,36.98997,137.036739
小池川原町,コイケガワラマチ,KOIKEGAWARAMACHI,,37.020403,136.971326
柑子町,コウジマチ,KOJIMACHI,,37.027832,137.028575
光陽台,コウヨウダイ,KOYODAI,,37.083487,136.924475
郡町,コオリマチ,KORIMACHI,,37.044981,136.973345
国下町,コクガマチ,KOKUGAMACHI,,37.011151,136.954417
国分町,コクブマチ,KOKUBUMACHI,,37.030864,136.952926
小島町,コジママチ,KOJIMAMACHI,,37.050128,136.952767
寿町,コトブキチョウ,KOTOBUKICHO,,37.050525,136.965313
小丸山台一丁目,コマルヤマダイ 1,KOMARUYAMADAI 1,,37.045466,136.955252
小丸山台二丁目,コマルヤマダイ 2,KOMARUYAMADAI 2,,37.046476,136.952234
小丸山台三丁目,コマルヤマダイ 3,KOMARUYAMADAI 3,,37.045975,136.94991
米町,コメマチ,KOMEMACHI,,37.047555,136.964758
栄町,サカエマチ,SAKAEMACHI,,37.033776,136.959257
作事町,サクジマチ,SAKUJIMACHI,,37.045475,136.967595
桜町,サクラマチ,SAKURAMACHI,,37.051588,136.962653
佐野町,サノマチ,SANOMACHI,,37.029355,137.005054
佐味町,サミマチ,SAMIMACHI,,37.042259,137.002715
沢野町,サワノマチ,SAWANOMACHI,,37.047063,137.026364
山王町,サンノウマチ,SANNOMACHI,,37.04128,136.972467
七原町,シツハラマチ,SHITSUHARAMACHI,,37.025009,136.868977
清水平町,シミズダイラマチ,SHIMIZUDAIRAMACHI,,37.022663,137.024938
下町,シモマチ,SHIMOMACHI,,37.012821,136.936369
昭和町,ショウワマチ,SHOWAMACHI,,37.049365,136.966688
白浜町,シラハママチ,SHIRAHAMAMACHI,,37.067895,136.875058
白馬町,シロウママチ,SHIROMAMACHI,,37.020724,136.927118
白銀町,シロガネチョウ,SHIROGANECHO,,37.049507,136.962395
新保町,シンボマチ,SHIMBOMACHI,,37.062203,136.923665
神明町,シンメイチョウ,SHIMMEICHO,,37.042644,136.965358
菅沢町,,,,36.995363,137.016001
杉森町,スギモリマチ,SUGIMORIMACHI,,37.04918,136.887792
須能町,,,,37.00594,137.002533
泉南台,センナンダイ,SENNANDAI,,37.078029,136.921771
袖ケ江町,ソデガエチョウ,SODEGAECHO,,37.043135,136.967475
外林町,ソトバヤシマチ,SOTOBAYASHIMACHI,,37.034019,137.030216
祖浜町,ソハママチ,SOHAMAMACHI,,37.069364,136.931207
高田町,タカタマチ,TAKATAMACHI,,37.053132,136.897524
竹町,タケマチ,TAKEMACHI,,37.026771,136.976904
橘町,タチバナチョウ,TACHIBANACHO,,37.044798,136.96772
田鶴浜町,タツルハママチ,TATSURUHAMAMACHI,,37.062039,136.888483
多根町,タネマチ,TANEMACHI,,36.985694,136.97222
千野町,チノマチ,CHINOMACHI,,37.006906,136.966878
つつじが浜,ツツジガハマ,TSUTSUJIGAHAMA,,37.053275,136.95992
津向町,ツムギマチ,TSUMUGIMACHI,,37.060242,136.952978
天神川原町,テンジンカワラマチ,TENJINKAWARAMACHI,,37.031795,136.971637
東浜町,トウノハママチ,TONOHAMAMACHI,,36.973112,137.036646
常盤町,トキワマチ,TOKIWAMACHI,,37.049063,136.963302
所口町,トコログチマチ,TOKOROGUCHIMACHI,,37.037924,136.964588
殿町,トノマチ,TONOMACHI,,37.048047,137.019756
富岡町,トミオカチョウ,TOMIOKACHO,,37.050246,136.960632
中島町上畠,ナカジママチウワバタケ,NAKAJIMAMACHI UWABATAKE,,37.131722,136.813516
中島町大平,ナカジママチオオダイラ,NAKAJIMAMACHI ODAIRA,,37.141889,136.787217
中島町奥吉田,ナカジママチオクヨシタ,NAKAJIMAMACHI OKUYOSHITA,,37.097054,136.843622
中島町小牧,ナカジママチオマキ,NAKAJIMAMACHI OMAKI,,37.146094,136.858036
中島町笠師,ナカジママチカサシ,NAKAJIMAMACHI KASASHI,,37.088521,136.831038
中島町鹿島台,ナカジママチカシマダイ,NAKAJIMAMACHI KASHIMADAI,,37.127507,136.881068
中島町河崎,ナカジママチカワザキ,NAKAJIMAMACHI KAWAZAKI,,37.106952,136.842313
中島町河内,ナカジママチカワチ,NAKAJIMAMACHI KAWACHI,,37.175413,136.822943
中島町上町,ナカジママチカンマチ,NAKAJIMAMACHI KAMMACHI,,37.126579,136.843597
中島町北免田,ナカジママチキタメンデン,NAKAJIMAMACHI KITAMENDEN,,37.126784,136.817848
中島町北免田上畠町屋鳥越入会地,,,,37.13483,136.793545
中島町呉竹,,,,37.194421,136.819027
中島町崎山,ナカジママチサキヤマ,NAKAJIMAMACHI SAKIYAMA,,37.105263,136.853035
中島町塩津,ナカジママチシオツ,NAKAJIMAMACHI SHIOTSU,,37.080622,136.847213
中島町瀬嵐,ナカジママチセアラシ,NAKAJIMAMACHI SEARASHI,,37.117485,136.879831
中島町外,ナカジママチソデ,NAKAJIMAMACHI SODE,,37.157689,136.867409
中島町外原,ナカジママチソドハラ,NAKAJIMAMACHI SODOHARA,,37.115811,136.784378
中島町田岸,ナカジママチタギシ,NAKAJIMAMACHI TAGISHI,,37.162593,136.872745
中島町土川,ナカジママチツチカワ,NAKAJIMAMACHI TSUCHIKAWA,,37.109252,136.808037
中島町豊田,ナカジママチトヨタ,NAKAJIMAMACHI TOYOTA,,37.096802,136.816649
中島町豊田町,ナカジママチトヨタマチ,NAKAJIMAMACHI TOYOTAMACHI,,37.104258,136.829701
中島町鳥越,ナカジママチトリゴエ,NAKAJIMAMACHI TORIGOE,,37.143852,136.802821
中島町長浦,ナカジママチナガウラ,NAKAJIMAMACHI NAGAURA,,37.129717,136.894635
中島町中島,ナカジママチナカジマ,NAKAJIMAMACHI NAKAJIMA,,37.120362,136.858219
中島町西谷内,ナカジママチニシヤチ,NAKAJIMAMACHI NISHIYACHI,,37.166753,136.803629
中島町西谷内藤瀬河内入会地,,,,37.150636,136.831311
中島町浜田,ナカジママチハマダ,NAKAJIMAMACHI HAMADA,,37.113017,136.839445
中島町深浦,ナカジママチフカウラ,NAKAJIMAMACHI FUKAURA,,37.136357,136.884706
中島町藤瀬,ナカジママチフジノセ,NAKAJIMAMACHI FUJINOSE,,37.142741,136.8228
中島町筆染,ナカジママチフデソメ,NAKAJIMAMACHI FUDESOME,,37.102439,136.860528
中島町古江,ナカジママチフルエ,NAKAJIMAMACHI FURUE,,37.152258,136.79753
中島町別所,ナカジママチベッショ,NAKAJIMAMACHI BESSHO,,37.17226,136.845094
中島町町屋,ナカジママチマチヤ,NAKAJIMAMACHI MACHIYA,,37.136702,136.806993
中島町町屋上畠北免田入会地,,,,37.129242,136.79129
中島町宮前,ナカジママチミヤノマエ,NAKAJIMAMACHI MIYANOMAE,,37.129598,136.835809
中島町谷内,ナカジママチヤチ,NAKAJIMAMACHI YACHI,,37.137867,136.841165
中島町山戸田,ナカジママチヤマトダ,NAKAJIMAMACHI YAMATODA,,37.12398,136.824807
中島町横田,ナカジママチヨコタ,NAKAJIMAMACHI YOKOTA,,37.138321,136.830494
中島町横見,ナカジママチヨコミ,NAKAJIMAMACHI YOKOMI,,37.170792,136.870703
中挟町,,,,37.005422,136.951358
なぎの浦,ナギノウラ,NAGINORA,,37.054923,136.957525
西下町,ニシシモマチ,NISHISHIMOMACHI,,37.041775,136.891863
西藤橋町,ニシフジハシマチ,NISHIFUJIHASHIMACHI,,37.043688,136.95774
塗師町,ヌシマチ,NUSHIMACHI,,37.044789,136.969237
能登島えの目町,ノトジマエノメマチ,NOTOJIMA ENOMEMACHI,,37.152822,137.041603
能登島小浦町,ノトジマオウラマチ,NOTOJIMA ORAMACHI,,37.135406,137.040486
能登島久木町,ノトジマクキマチ,NOTOJIMA KUKIMACHI,,37.149313,136.912756
能登島向田町,ノトジマコウダマチ,NOTOJIMA KODAMACHI,,37.129614,137.002003
能登島佐波町,ノトジマサナミマチ,NOTOJIMA SANAMIMACHI,,37.115051,136.982562
能登島須曽町,ノトジマスソマチ,NOTOJIMA SUSOMACHI,,37.108407,136.964229
能登島田尻町,ノトジマタジリマチ,NOTOJIMA TAJIRIMACHI,,37.1467,136.907476
能登島通町,ノトジマトオリマチ,NOTOJIMA TORIMACHI,,37.135721,136.907461
能登島長崎町,ノトジマナガサキマチ,NOTOJIMA NAGASAKIMACHI,,37.142368,137.034101
能登島閨町,ノトジマネヤマチ,NOTOJIMA NEYAMACHI,,37.13622,136.936162
能登島野崎町,ノトジマノザキマチ,NOTOJIMA NOZAKIMACHI,,37.126617,137.034835
能登島祖母ケ浦町,ノトジマバガウラマチ,NOTOJIMA BAGAURAMACHI,,37.151301,137.026326
能登島八ケ崎町,ノトジマハチガサキマチ,NOTOJIMA HACHIGASAKIMACHI,,37.156839,137.035815
能登島半浦町,ノトジマハンノウラマチ,NOTOJIMA HANNORAMACHI,,37.114085,136.94586
能登島日出ケ島町,ノトジマヒデガシママチ,NOTOJIMA HIDEGASHIMAMACHI,,37.117617,137.028476
能登島百万石町,ノトジマヒャクマンゴクマチ,NOTOJIMA HYAKUMANGOKUMACHI,,37.140271,136.914206
能登島二穴町,ノトジマフタアナマチ,NOTOJIMA FUTAANAMACHI,,37.119411,137.016998
能登島別所町,ノトジマベッショマチ,NOTOJIMA BESSHOMACHI,,37.121674,136.963007
能登島曲町,ノトジママガリマチ,NOTOJIMA MAGARIMACHI,,37.137689,136.979515
能登島南町,ノトジマミナミマチ,NOTOJIMA MINAMIMACHI,,37.135773,136.959415
能登島無関町,ノトジマムセキマチ,NOTOJIMA MUSEKIMACHI,,37.136826,136.94876
八田町,ハッタマチ,HATTAMACHI,,36.997474,136.960315
花園町,ハナゾノマチ,HANAZONOMACHI,,36.982449,137.043951
東三階町,ヒガシミカイマチ,HIGASHIMIKAIMACHI,,37.021407,136.914857
東山町,ヒガシヤママチ,HIGASHIYAMAMACHI,,37.057235,136.904697
桧物町,ヒモノマチ,HIMONOMACHI,,37.045296,136.965262
深見町,フカミマチ,FUKAMIMACHI,,37.058577,136.86689
藤野町,フジノマチ,FUJINOMACHI,,37.029098,136.969435
藤橋町,フジハシマチ,FUJIHASHIMACHI,,37.041154,136.941183
府中町,フチュウマチ,FUCHUMACHI,,37.047459,136.968611
舟尾町,フノオマチ,FUNOMACHI,,37.068077,136.905635
古府町,フルコマチ,FURUKOMACHI,,37.015361,136.970497
古城町,フルシロマチ,FURUSHIROMACHI,,37.013729,136.978955
古屋敷町,フルヤシキマチ,FURUYASHIKIMACHI,,37.02343,136.975325
細口町,ホソグチマチ,HOSOGUCHIMACHI,,37.029414,136.936711
松百町,マットウマチ,MATTOMACHI,,37.061844,136.943295
松本町,マツモトチョウ,MATSUMOTOCHO,,37.049099,136.959409
万行町,マンギョウマチ,MANGYOMACHI,,37.032828,136.990047
三島町,ミシマチョウ,MISHIMACHO,,37.04836,136.965358
御祓町,ミソギチョウ,MISOGICHO,,37.042815,136.963605
湊町一丁目,ミナトチョウ 1,MINATOCHO 1,,37.045947,136.97027
湊町二丁目,ミナトチョウ 2,MINATOCHO 2,,37.04579,136.97191
南ケ丘町,ミナミガオカマチ,MINAMIGAOKAMACHI,,37.018995,136.963679
南藤橋町,ミナミフジハシマチ,MINAMIFUJIHASHIMACHI,,37.041983,136.960996
三引町,ミビキマチ,MIBIKIMACHI,,37.054094,136.876622
三室町,ミムロマチ,MIMUROMACHI,,37.092983,137.022957
本府中町,モトフチュウマチ,MOTOFUCHUMACHI,,37.036566,136.970248
矢田新町,ヤタシンマチ,YATASHIMMACHI,,37.04861,136.979996
矢田町,ヤタマチ,YATAMACHI,,37.027428,136.983357
山崎町,ヤマザキマチ,YAMAZAKIMACHI,,36.975605,137.012767
大和町,ヤマトマチ,YAMATOMACHI,,37.042505,136.977021
八幡町,ヤワタマチ,YAWATAMACHI,,37.018275,136.94811
湯川町,ユガワマチ,YUGAWAMACHI,,37.075755,137.029741
吉田町,ヨシタマチ,YOSHITAMACHI,,37.03451,136.870626
若林町,ワカバヤシマチ,WAKABAYASHIMACHI,,37.002706,136.927887
和倉町,ワクラマチ,WAKURAMACHI,,37.084833,136.914215
和倉町ひばり一丁目,ワクラマチヒバリ 1,WAKURAMACHIHIBARI 1,,37.086987,136.924315
和倉町ひばり二丁目,ワクラマチヒバリ 2,WAKURAMACHIHIBARI 2,,37.084966,136.923682
和倉町ひばり三丁目,ワクラマチヒバリ 3,WAKURAMACHIHIBARI 3,,37.083159,136.919989
佐々波町,サザナミマチ,SAZANAMIMACHI,,37.008624,137.036139
庵町,イオリマチ,IORIMACHI,,37.03893,137.038361
直津町,タダツマチ,TADATSUMACHI,,37.049452,136.921517
赤浦町,アカウラマチ,AKAURAMACHI,,37.051434,136.937172
赤浦新町,,,,37.056986,136.931029
池崎町,イケザキマチ,IKEZAKIMACHI,,37.037379,136.914258
盤若野町,ハンニャノマチ,HANNYANOMACHI,,37.030723,136.907608
町屋町,マチヤマチ,MACHIYAMACHI,,37.03202,136.900677
満仁町,マニマチ,MANIMACHI,,37.040749,136.899463
温井町,ヌクイマチ,NUKUIMACHI,,37.034427,136.896773
西三階町,ニシミカイマチ,NISHIMIKAIMACHI,,37.022678,136.89868
伊久留町,イクロマチ,IKUROMACHI,,37.027598,136.883353
奥原町,オクハラマチ,OKUHARAMACHI,ク,37.084157,136.904591
奥原町,オクハラマチ,OKUHARAMACHI,マ,37.084755,136.906207
奥原町,オクハラマチ,OKUHARAMACHI,三,37.08717,136.906555
青山町,アオヤママチ,AOYAMAMACHI,い,37.045473,136.91322
和倉町,ワクラマチ,WAKURAMACHI,六,37.088916,136.910163
和倉町,ワクラマチ,WAKURAMACHI,タ,37.089227,136.908641
直津町,タダツマチ,TADATSUMACHI,ワ,37.051435,136.921398
奥原町,オクハラマチ,OKUHARAMACHI,下,37.074081,136.91507
和倉町,ワクラマチ,WAKURAMACHI,レ,37.087538,136.912439
奥原町,オクハラマチ,OKUHARAMACHI,ナ,37.06923,136.912303
奥原町,オクハラマチ,OKUHARAMACHI,タ,37.070153,136.913633
和倉町,ワクラマチ,WAKURAMACHI,ヨ,37.089182,136.914204
奥原町,オクハラマチ,OKUHARAMACHI,上,37.073024,136.916535
和倉町,ワクラマチ,WAKURAMACHI,ツ,37.085786,136.914498
和倉町,ワクラマチ,WAKURAMACHI,ソ,37.087006,136.914652
和倉町,ワクラマチ,WAKURAMACHI,カ,37.087636,136.915338
直津町,タダツマチ,TADATSUMACHI,子,37.056971,136.91583
直津町,タダツマチ,TADATSUMACHI,カ,37.050261,136.920693
和倉町,ワクラマチ,WAKURAMACHI,ナ,37.086068,136.915978
和倉町,ワクラマチ,WAKURAMACHI,ワ,37.088743,136.916735
和倉町,ワクラマチ,WAKURAMACHI,ラ,37.087032,136.916715
和倉町,ワクラマチ,WAKURAMACHI,ク,37.085648,136.917321
和倉町,ワクラマチ,WAKURAMACHI,三,37.084855,136.918225
和倉町,ワクラマチ,WAKURAMACHI,ヲ,37.08815,136.918163
和倉町,ワクラマチ,WAKURAMACHI,二,37.084487,136.919947
和倉町,ワクラマチ,WAKURAMACHI,和歌崎,37.088537,136.920199
和倉町,ワクラマチ,WAKURAMACHI,ホ,37.084299,136.919637
和倉町,ワクラマチ,WAKURAMACHI,ニ,37.085974,136.921924
石崎町,イシザキマチ,ISHIZAKIMACHI,ヌ,37.080233,136.922087
奥原町,オクハラマチ,OKUHARAMACHI,ロ,37.07142,136.920798
和倉町,ワクラマチ,WAKURAMACHI,ル,37.087301,136.921304
祖浜町,ソハママチ,SOHAMAMACHI,三,37.0725,136.922776
和倉町,ワクラマチ,WAKURAMACHI,リ,37.085621,136.921506
石崎町,イシザキマチ,ISHIZAKIMACHI,タ,37.076228,136.924406
直津町,タダツマチ,TADATSUMACHI,ニ,37.054319,136.925032
石崎町,イシザキマチ,ISHIZAKIMACHI,ヨ,37.077077,136.926533
石崎町,イシザキマチ,ISHIZAKIMACHI,レ,37.074535,136.927594
祖浜町,ソハママチ,SOHAMAMACHI,弐,37.072486,136.92547
新保町,シンボマチ,SHIMBOMACHI,マ,37.06484,136.931463
祖浜町,ソハママチ,SOHAMAMACHI,ヲ,37.071423,136.926426
祖浜町,ソハママチ,SOHAMAMACHI,カ,37.072053,136.928404
石崎町,イシザキマチ,ISHIZAKIMACHI,ワ,37.080701,136.929578
石崎町,イシザキマチ,ISHIZAKIMACHI,甲,37.082295,136.927835
赤浦新町,,,リ,37.05604,136.92958
石崎町,イシザキマチ,ISHIZAKIMACHI,乙,37.082868,136.933067
石崎町,イシザキマチ,ISHIZAKIMACHI,チ,37.085497,136.930058
石崎町,イシザキマチ,ISHIZAKIMACHI,テ,37.073441,136.930776
石崎町,イシザキマチ,ISHIZAKIMACHI,ケ,37.085147,136.934807
石崎町,イシザキマチ,ISHIZAKIMACHI,ウ,37.072228,136.93138
石崎町,イシザキマチ,ISHIZAKIMACHI,ツ,37.077523,136.931396
赤浦町,アカウラマチ,AKAURAMACHI,カ,37.055491,136.933793
石崎町,イシザキマチ,ISHIZAKIMACHI,ニ,37.076874,136.933301
石崎町,イシザキマチ,ISHIZAKIMACHI,ロ,37.074844,136.934492
石崎町,イシザキマチ,ISHIZAKIMACHI,ホ,37.078417,136.93268
石崎町,イシザキマチ,ISHIZAKIMACHI,ハ,37.077336,136.93447
石崎町,イシザキマチ,ISHIZAKIMACHI,丙,37.079766,136.934018
祖浜町,ソハママチ,SOHAMAMACHI,ハ,37.070924,136.935361
赤浦町,アカウラマチ,AKAURAMACHI,ム,37.056849,136.934522
祖浜町,ソハママチ,SOHAMAMACHI,ロ,37.068992,136.934403
石崎町,イシザキマチ,ISHIZAKIMACHI,一,37.077865,136.935081
石崎町,イシザキマチ,ISHIZAKIMACHI,丁,37.080012,136.935136
石崎町,イシザキマチ,ISHIZAKIMACHI,イ,37.073175,136.934769
新保町,シンボマチ,SHIMBOMACHI,ソ,37.068264,136.936829
松百町,マットウマチ,MATTOMACHI,三,37.065351,136.940887
赤浦町,アカウラマチ,AKAURAMACHI,ワ,37.050998,136.936633
新保町,シンボマチ,SHIMBOMACHI,レ,37.068288,136.935198
祖浜町,ソハママチ,SOHAMAMACHI,イ,37.070648,136.936057
新保町,シンボマチ,SHIMBOMACHI,タ,37.067169,136.936216
赤浦町,アカウラマチ,AKAURAMACHI,ヌ,37.051476,136.940075
石崎町,イシザキマチ,ISHIZAKIMACHI,マ,37.081113,136.939459
赤浦町,アカウラマチ,AKAURAMACHI,ウ,37.05919,136.937517
松百町,マットウマチ,MATTOMACHI,ワ,37.067125,136.937989
新保町,シンボマチ,SHIMBOMACHI,カ,37.069034,136.937352
松百町,マットウマチ,MATTOMACHI,ヲ,37.066146,136.937813
松百町,マットウマチ,MATTOMACHI,ヌ,37.065069,136.939238
松百町,マットウマチ,MATTOMACHI,カ,37.066471,136.940103
松百町,マットウマチ,MATTOMACHI,リ,37.063923,136.942121
松百町,マットウマチ,MATTOMACHI,二,37.066546,136.942123
小島町,コジママチ,KOJIMAMACHI,六,37.049796,136.948399
松百町,マットウマチ,MATTOMACHI,六,37.058663,136.9432
松百町,マットウマチ,MATTOMACHI,八,37.06376,136.943976
松百町,マットウマチ,MATTOMACHI,一,37.060706,136.942987
小島町,コジママチ,KOJIMAMACHI,九,37.048376,136.94827
松百町,マットウマチ,MATTOMACHI,七,37.061606,136.946241
津向町,ツムギマチ,TSUMUGIMACHI,ヘ,37.056712,136.948186
小島町,コジママチ,KOJIMAMACHI,五,37.052067,136.949944
津向町,ツムギマチ,TSUMUGIMACHI,ホ,37.055719,136.952652
津向町,ツムギマチ,TSUMUGIMACHI,松山,37.05769,136.95078
津向町,ツムギマチ,TSUMUGIMACHI,ニ,37.050417,136.950749
小島町,コジママチ,KOJIMAMACHI,三,37.056298,136.951264
小島町,コジママチ,KOJIMAMACHI,チ,37.048175,136.952237
津向町,ツムギマチ,TSUMUGIMACHI,ト,37.056932,136.954506
小島町,コジママチ,KOJIMAMACHI,西部,37.045191,136.951967
小島町,コジママチ,KOJIMAMACHI,十,37.050008,136.952039
小島町,コジママチ,KOJIMAMACHI,リ,37.050245,136.952554
小島町,コジママチ,KOJIMAMACHI,レ,37.05531,136.953234
津向町,ツムギマチ,TSUMUGIMACHI,ロ,37.047913,136.953976
小島町,コジママチ,KOJIMAMACHI,ホ,37.051609,136.957225
松百町,マットウマチ,MATTOMACHI,五,37.056487,136.945768
和倉町,ワクラマチ,WAKURAMACHI,一,37.089995,136.916631
奥原町,オクハラマチ,OKUHARAMACHI,十一,37.076941,136.920447
奥原町,オクハラマチ,OKUHARAMACHI,十,37.074984,136.919254
奥原町,オクハラマチ,OKUHARAMACHI,ア,37.077666,136.91732
奥原町,オクハラマチ,OKUHARAMACHI,ヌ,37.072821,136.915664
奥原町,オクハラマチ,OKUHARAMACHI,十二,37.073185,136.918566
奥原町,オクハラマチ,OKUHARAMACHI,十三,37.068321,136.912682
奥原町,オクハラマチ,OKUHARAMACHI,リ,37.073246,136.917355
和倉町,ワクラマチ,WAKURAMACHI,子,37.085233,136.915835
和倉町,ワクラマチ,WAKURAMACHI,五,37.085914,136.912017
奥原町,オクハラマチ,OKUHARAMACHI,ワ,37.075348,136.916097
石崎町,イシザキマチ,ISHIZAKIMACHI,カ,37.078502,136.931457
石崎町,イシザキマチ,ISHIZAKIMACHI,ソ,37.076308,136.930764
祖浜町,ソハママチ,SOHAMAMACHI,五,37.070164,136.933346
松百町,マットウマチ,MATTOMACHI,四,37.064677,136.936107
松百町,マットウマチ,MATTOMACHI,チ,37.062714,136.941761
松百町,マットウマチ,MATTOMACHI,イ,37.06137,136.944428
赤浦町,アカウラマチ,AKAURAMACHI,え,37.058335,136.940976
赤浦町,アカウラマチ,AKAURAMACHI,五,37.054053,136.936035
赤浦町,アカウラマチ,AKAURAMACHI,ヨ,37.054382,136.931098
直津町,タダツマチ,TADATSUMACHI,ヨ,37.048508,136.924434
石崎町,イシザキマチ,ISHIZAKIMACHI,ヲ,37.080153,136.928729
石崎町,イシザキマチ,ISHIZAKIMACHI,コ,37.079845,136.928996
石崎町,イシザキマチ,ISHIZAKIMACHI,エ,37.074985,136.930499
赤浦町,アカウラマチ,AKAURAMACHI,ラ,37.058984,136.929807
赤浦町,アカウラマチ,AKAURAMACHI,ノ,37.061088,136.935567
赤浦町,アカウラマチ,AKAURAMACHI,オ,37.062114,136.935006
津向町,ツムギマチ,TSUMUGIMACHI,チ,37.059385,136.947796
小島町,コジママチ,KOJIMAMACHI,ル,37.052707,136.954011
小島町,コジママチ,KOJIMAMACHI,ロ,37.04697,136.955459
小島町,コジママチ,KOJIMAMACHI,ナ,37.064417,136.955181
小島町,コジママチ,KOJIMAMACHI,ヌ,37.052332,136.955535
津向町,ツムギマチ,TSUMUGIMACHI,和田,37.062914,136.95803
津向町,ツムギマチ,TSUMUGIMACHI,イ,37.047688,136.955433
小島町,コジママチ,KOJIMAMACHI,大開地,37.053547,136.956361
津向町,ツムギマチ,TSUMUGIMACHI,浜高,37.066153,136.95919
小島町,コジママチ,KOJIMAMACHI,イ,37.044406,136.95669
小島町,コジママチ,KOJIMAMACHI,ト,37.047918,136.95633
小島町,コジママチ,KOJIMAMACHI,ヘ,37.049806,136.956492
小島町,コジママチ,KOJIMAMACHI,ハ,37.047177,136.958545
小島町,コジママチ,KOJIMAMACHI,十七,37.044397,136.957047
西藤橋町,ニシフジハシマチ,NISHIFUJIHASHIMACHI,カ,37.044532,136.957594
松本町,マツモトチョウ,MATSUMOTOCHO,ニ,37.048826,136.958969
西藤橋町,ニシフジハシマチ,NISHIFUJIHASHIMACHI,御貸屋山,37.044897,136.95934
馬出町,ウマダシマチ,UMADASHIMACHI,ハ,37.045201,136.959902
小島町,コジママチ,KOJIMAMACHI,ニ,37.048011,136.958464
馬出町,ウマダシマチ,UMADASHIMACHI,七十五,37.045989,136.960367
馬出町,ウマダシマチ,UMADASHIMACHI,ソ,37.047076,136.96011
馬出町,ウマダシマチ,UMADASHIMACHI,ツ,37.046793,136.961589
北藤橋町,キタフジハシマチ,KITAFUJIHASHIMACHI,ロ,37.044221,136.962277
馬出町,ウマダシマチ,UMADASHIMACHI,ナ,37.046207,136.962239
御祓町,ミソギチョウ,MISOGICHO,子,37.044381,136.963108
御祓町,ミソギチョウ,MISOGICHO,ホ,37.04403,136.963122
御祓町,ミソギチョウ,MISOGICHO,イ,37.043393,136.964191
馬出町,ウマダシマチ,UMADASHIMACHI,イ,37.045482,136.963593
袖ケ江町,ソデガエチョウ,SODEGAECHO,イ,37.043921,136.967344
郡町,コオリマチ,KORIMACHI,二,37.044997,136.973525
矢田新町,ヤタシンマチ,YATASHIMMACHI,チ,37.044761,136.97549
矢田新町,ヤタシンマチ,YATASHIMMACHI,イ,37.045922,136.975655
大和町,ヤマトマチ,YAMATOMACHI,チ,37.043668,136.97569
矢田新町,ヤタシンマチ,YATASHIMMACHI,ハ,37.047527,136.977159
矢田新町,ヤタシンマチ,YATASHIMMACHI,ニ,37.049073,136.976792
矢田新町,ヤタシンマチ,YATASHIMMACHI,ロ,37.047116,136.979157
大和町,ヤマトマチ,YAMATOMACHI,ト,37.04345,136.977462
矢田町,ヤタマチ,YATAMACHI,一,37.043733,136.98027
矢田町,ヤタマチ,YATAMACHI,ロ,37.046561,136.978949
矢田新町,ヤタシンマチ,YATASHIMMACHI,ホ,37.047705,136.979706
矢田新町,ヤタシンマチ,YATASHIMMACHI,六十八,37.047578,136.978352
矢田町,ヤタマチ,YATAMACHI,と,37.044991,136.978608
矢田新町,ヤタシンマチ,YATASHIMMACHI,六十七,37.048611,136.979321
矢田新町,ヤタシンマチ,YATASHIMMACHI,乙,37.049267,136.980493
矢田新町,ヤタシンマチ,YATASHIMMACHI,ト,37.045336,136.981279
矢田町,ヤタマチ,YATAMACHI,二,37.040902,136.980404
万行町,マンギョウマチ,MANGYOMACHI,二,37.044886,136.983833
万行町,マンギョウマチ,MANGYOMACHI,一,37.047788,136.984931
万行町,マンギョウマチ,MANGYOMACHI,六,37.044887,136.987565
万行町,マンギョウマチ,MANGYOMACHI,四,37.046814,136.985386
万行町,マンギョウマチ,MANGYOMACHI,三,37.045412,136.986536
万行町,マンギョウマチ,MANGYOMACHI,五,37.048718,136.98851
万行町,マンギョウマチ,MANGYOMACHI,七十六,37.045205,136.989245
佐味町,サミマチ,SAMIMACHI,一,37.04975,136.990669
万行町,マンギョウマチ,MANGYOMACHI,十一,37.043951,136.990015
佐味町,サミマチ,SAMIMACHI,イ,37.048921,136.992384
万行町,マンギョウマチ,MANGYOMACHI,十,37.044266,136.99204
佐味町,サミマチ,SAMIMACHI,ロ,37.049143,136.993649
万行町,マンギョウマチ,MANGYOMACHI,八,37.044474,136.992932
佐味町,サミマチ,SAMIMACHI,ハ,37.050759,136.993744
佐味町,サミマチ,SAMIMACHI,三十,37.046892,136.996123
佐味町,サミマチ,SAMIMACHI,タ,37.044413,136.994947
佐味町,サミマチ,SAMIMACHI,三,37.052165,136.99463
佐味町,サミマチ,SAMIMACHI,森山,37.046535,136.994371
佐味町,サミマチ,SAMIMACHI,ニ,37.050409,136.995651
佐味町,サミマチ,SAMIMACHI,二十八,37.045438,136.995843
佐味町,サミマチ,SAMIMACHI,ホ,37.052257,136.995382
佐味町,サミマチ,SAMIMACHI,三十二,37.044546,136.995746
佐味町,サミマチ,SAMIMACHI,二十九,37.047413,136.996938
大田町,オオタマチ,OTAMACHI,イ,37.053893,136.997076
佐味町,サミマチ,SAMIMACHI,十,37.047698,136.998211
矢田町,ヤタマチ,YATAMACHI,ニ,37.045918,136.978201
矢田新町,ヤタシンマチ,YATASHIMMACHI,ヘ,37.04875,136.979766
矢田町,ヤタマチ,YATAMACHI,ハ,37.046007,136.980769
西藤橋町,ニシフジハシマチ,NISHIFUJIHASHIMACHI,ハ,37.044069,136.959612
西藤橋町,ニシフジハシマチ,NISHIFUJIHASHIMACHI,ニ,37.044702,136.958092
西藤橋町,ニシフジハシマチ,NISHIFUJIHASHIMACHI,レ,37.044895,136.958766
北藤橋町,キタフジハシマチ,KITAFUJIHASHIMACHI,子,37.044255,136.961511
津向町,ツムギマチ,TSUMUGIMACHI,ハ,37.052991,136.954487
松百町,マットウマチ,MATTOMACHI,ト,37.060121,136.945025
津向町,ツムギマチ,TSUMUGIMACHI,野中,37.063182,136.954768
小島町,コジママチ,KOJIMAMACHI,四,37.054377,136.948583
白馬町,シロウママチ,SHIROMAMACHI,三十六,37.023862,136.933504
下町,シモマチ,SHIMOMACHI,己,37.016791,136.934546
藤橋町,フジハシマチ,FUJIHASHIMACHI,キ,37.03975,136.939372
細口町,ホソグチマチ,HOSOGUCHIMACHI,マイダリ山,37.034617,136.935735
飯川町,イガワマチ,IGAWAMACHI,き,37.004438,136.934633
白馬町,シロウママチ,SHIROMAMACHI,五十七,37.023681,136.937295
白馬町,シロウママチ,SHIROMAMACHI,三十四,37.021814,136.934606
白馬町,シロウママチ,SHIROMAMACHI,七十,37.02069,136.935676
飯川町,イガワマチ,IGAWAMACHI,け,37.004926,136.936386
飯川町,イガワマチ,IGAWAMACHI,せ,37.006481,136.936122
白馬町,シロウママチ,SHIROMAMACHI,ヲ,37.021169,136.9348
下町,シモマチ,SHIMOMACHI,巳,37.011249,136.935523
下町,シモマチ,SHIMOMACHI,コ,37.008983,136.935904
下町,シモマチ,SHIMOMACHI,ケ,37.011235,136.936965
白馬町,シロウママチ,SHIROMAMACHI,五十九,37.022883,136.937758
下町,シモマチ,SHIMOMACHI,マ,37.0134,136.938076
下町,シモマチ,SHIMOMACHI,オ,37.012214,136.938326
飯川町,イガワマチ,IGAWAMACHI,く,37.004322,136.937661
白馬町,シロウママチ,SHIROMAMACHI,五十六,37.025687,136.938559
下町,シモマチ,SHIMOMACHI,ヤ,37.010378,136.938251
国分町,コクブマチ,KOKUBUMACHI,ム,37.036996,136.943824
飯川町,イガワマチ,IGAWAMACHI,十一,37.004329,136.939522
飯川町,イガワマチ,IGAWAMACHI,こ,37.007869,136.939709
下町,シモマチ,SHIMOMACHI,井,37.013162,136.93979
飯川町,イガワマチ,IGAWAMACHI,し,37.009676,136.939156
下町,シモマチ,SHIMOMACHI,丙,37.014951,136.93877
青葉台町,アオバダイマチ,AOBADAIMACHI,甲,37.021727,136.939159
飯川町,イガワマチ,IGAWAMACHI,ケ,37.005424,136.939228
細口町,ホソグチマチ,HOSOGUCHIMACHI,に,37.028459,136.94025
下町,シモマチ,SHIMOMACHI,庚,37.015636,136.939766
飯川町,イガワマチ,IGAWAMACHI,十三,37.007047,136.940981
飯川町,イガワマチ,IGAWAMACHI,十二,37.006026,136.939921
飯川町,イガワマチ,IGAWAMACHI,四十九,37.005988,136.93936
白馬町,シロウママチ,SHIROMAMACHI,五十八,37.024302,136.940516
下町,シモマチ,SHIMOMACHI,ク,37.011633,136.939826
下町,シモマチ,SHIMOMACHI,ム,37.010838,136.9401
下町,シモマチ,SHIMOMACHI,ウ,37.01158,136.941427
下町,シモマチ,SHIMOMACHI,タ,37.016258,136.941079
下町,シモマチ,SHIMOMACHI,ヨ,37.018002,136.94205
飯川町,イガワマチ,IGAWAMACHI,さ,37.009088,136.941998
下町,シモマチ,SHIMOMACHI,レ,37.01306,136.941048
細口町,ホソグチマチ,HOSOGUCHIMACHI,ろ,37.026575,136.942573
細口町,ホソグチマチ,HOSOGUCHIMACHI,へ,37.029248,136.941872
下町,シモマチ,SHIMOMACHI,子,37.012133,136.942183
細口町,ホソグチマチ,HOSOGUCHIMACHI,い,37.027863,136.946783
下町,シモマチ,SHIMOMACHI,ソ,37.011757,136.942821
江曽町,エソマチ,ESOMACHI,ウ,37.005345,136.94259
下町,シモマチ,SHIMOMACHI,ナ,37.010444,136.943234
下町,シモマチ,SHIMOMACHI,ツ,37.012057,136.943644
飯川町,イガワマチ,IGAWAMACHI,一,37.007101,136.942623
下町,シモマチ,SHIMOMACHI,ラ,37.00894,136.943317
下町,シモマチ,SHIMOMACHI,ヌ,37.015697,136.942943
下町,シモマチ,SHIMOMACHI,ル,37.016997,136.94368
八幡町,ヤワタマチ,YAWATAMACHI,カ,37.022769,136.947999
細口町,ホソグチマチ,HOSOGUCHIMACHI,ニ,37.028267,136.943303
江曽町,エソマチ,ESOMACHI,ム,37.006506,136.942739
下町,シモマチ,SHIMOMACHI,ホ,37.01322,136.943221
江曽町,エソマチ,ESOMACHI,ラ,37.006582,136.943357
細口町,ホソグチマチ,HOSOGUCHIMACHI,ハ,37.028618,136.944172
江曽町,エソマチ,ESOMACHI,ナ,37.008094,136.94385
八幡町,ヤワタマチ,YAWATAMACHI,る,37.018537,136.945027
下町,シモマチ,SHIMOMACHI,ニ,37.011033,136.94422
下町,シモマチ,SHIMOMACHI,ヘ,37.01311,136.945474
飯川町,イガワマチ,IGAWAMACHI,九十四,37.009213,136.944214
江曽町,エソマチ,ESOMACHI,ル,37.007936,136.944423
細口町,ホソグチマチ,HOSOGUCHIMACHI,源田山,37.025405,136.945039
下町,シモマチ,SHIMOMACHI,ロ,37.011484,136.945505
江曽町,エソマチ,ESOMACHI,ワ,37.005544,136.946306
江曽町,エソマチ,ESOMACHI,ヌ,37.009078,136.946057
細口町,ホソグチマチ,HOSOGUCHIMACHI,ロ,37.0273,136.94529
国分町,コクブマチ,KOKUBUMACHI,ア,37.03119,136.948464
国分町,コクブマチ,KOKUBUMACHI,テ,37.030068,136.947646
江曽町,エソマチ,ESOMACHI,ハ,37.011368,136.946995
八幡町,ヤワタマチ,YAWATAMACHI,ち,37.02298,136.947573
八幡町,ヤワタマチ,YAWATAMACHI,と,37.020767,136.947001
国分町,コクブマチ,KOKUBUMACHI,エ,37.029243,136.947972
国分町,コクブマチ,KOKUBUMACHI,ラ,37.035782,136.951127
国分町,コクブマチ,KOKUBUMACHI,シ,37.035458,136.949002
八幡町,ヤワタマチ,YAWATAMACHI,ヲ,37.020495,136.948111
国分町,コクブマチ,KOKUBUMACHI,ヤ,37.025521,136.950257
八幡町,ヤワタマチ,YAWATAMACHI,ろ,37.015315,136.94913
八幡町,ヤワタマチ,YAWATAMACHI,ワ,37.022666,136.948374
藤橋町,フジハシマチ,FUJIHASHIMACHI,戌,37.038745,136.953097
八幡町,ヤワタマチ,YAWATAMACHI,ル,37.018326,136.94877
中挟町,,,ワ,37.006521,136.950119
八幡町,ヤワタマチ,YAWATAMACHI,ヘ,37.019611,136.949838
中挟町,,,ヲ,37.007898,136.94966
八幡町,ヤワタマチ,YAWATAMACHI,ハ,37.017413,136.949216
国下町,コクガマチ,KOKUGAMACHI,チ,37.013299,136.949776
国分町,コクブマチ,KOKUBUMACHI,ウ,37.032607,136.949744
八幡町,ヤワタマチ,YAWATAMACHI,ロ,37.013685,136.950223
国下町,コクガマチ,KOKUGAMACHI,ト,37.012632,136.950617
国分町,コクブマチ,KOKUBUMACHI,メ,37.042738,136.951095
八幡町,ヤワタマチ,YAWATAMACHI,ニ,37.015735,136.951027
中挟町,,,レ,37.008089,136.950796
八幡町,ヤワタマチ,YAWATAMACHI,ホ,37.022971,136.949319
国分町,コクブマチ,KOKUBUMACHI,井,37.032586,136.953017
藤橋町,フジハシマチ,FUJIHASHIMACHI,酉,37.040305,136.953482
国下町,コクガマチ,KOKUGAMACHI,ハ,37.009931,136.95161
中挟町,,,い,37.009059,136.951883
国分町,コクブマチ,KOKUBUMACHI,ト,37.029787,136.953826
国下町,コクガマチ,KOKUGAMACHI,を,37.016892,136.952338
国下町,コクガマチ,KOKUGAMACHI,ル,37.015131,136.952602
藤橋町,フジハシマチ,FUJIHASHIMACHI,亥,37.036817,136.954945
国分町,コクブマチ,KOKUBUMACHI,ノ,37.034087,136.954228
千野町,チノマチ,CHINOMACHI,レ,37.015465,136.952551
千野町,チノマチ,CHINOMACHI,に,37.017898,136.95423
千野町,チノマチ,CHINOMACHI,い,37.014873,136.954155
国分町,コクブマチ,KOKUBUMACHI,ナ,37.035384,136.954363
国下町,コクガマチ,KOKUGAMACHI,わ,37.016192,136.953257
国下町,コクガマチ,KOKUGAMACHI,い,37.013641,136.954303
千野町,チノマチ,CHINOMACHI,ろ,37.016891,136.954313
八田町,ハッタマチ,HATTAMACHI,は,37.007203,136.954966
藤橋町,フジハシマチ,FUJIHASHIMACHI,申,37.040168,136.955706
国下町,コクガマチ,KOKUGAMACHI,か,37.016839,136.954791
国下町,コクガマチ,KOKUGAMACHI,子,37.01145,136.955444
八田町,ハッタマチ,HATTAMACHI,ヨ,37.007408,136.956073
国下町,コクガマチ,KOKUGAMACHI,ム,37.01198,136.956628
国分町,コクブマチ,KOKUBUMACHI,ル,37.029091,136.956763
国分町,コクブマチ,KOKUBUMACHI,ワ,37.029837,136.95662
藤橋町,フジハシマチ,FUJIHASHIMACHI,未,37.04239,136.957044
千野町,チノマチ,CHINOMACHI,は,37.018262,136.957257
所口町,トコログチマチ,TOKOROGUCHIMACHI,リ,37.042726,136.95605
国分町,コクブマチ,KOKUBUMACHI,ツ,37.033002,136.956189
千野町,チノマチ,CHINOMACHI,ナ,37.013681,136.957587
千野町,チノマチ,CHINOMACHI,ほ,37.020622,136.956282
国分町,コクブマチ,KOKUBUMACHI,カ,37.031187,136.958313
国下町,コクガマチ,KOKUGAMACHI,ほ,37.009525,136.956948
千野町,チノマチ,CHINOMACHI,へ,37.019979,136.957674
千野町,チノマチ,CHINOMACHI,ラ,37.015435,136.957524
藤橋町,フジハシマチ,FUJIHASHIMACHI,巳,37.040618,136.958594
国分町,コクブマチ,KOKUBUMACHI,レ,37.034315,136.95777
千野町,チノマチ,CHINOMACHI,二十,37.015689,136.958157
古府町,フルコマチ,FURUKOMACHI,に,37.022732,136.958181
千野町,チノマチ,CHINOMACHI,ぬ,37.009021,136.958507
藤橋町,フジハシマチ,FUJIHASHIMACHI,辰,37.038089,136.959828
古府町,フルコマチ,FURUKOMACHI,ぬ,37.028595,136.961533
古府町,フルコマチ,FURUKOMACHI,い,37.022444,136.958986
藤橋町,フジハシマチ,FUJIHASHIMACHI,午,37.041741,136.958254
千野町,チノマチ,CHINOMACHI,ム,37.013575,136.958752
千野町,チノマチ,CHINOMACHI,井,37.016785,136.959194
千野町,チノマチ,CHINOMACHI,と,37.018929,136.959651
国分町,コクブマチ,KOKUBUMACHI,ヲ,37.029025,136.959719
西藤橋町,ニシフジハシマチ,NISHIFUJIHASHIMACHI,エ,37.043018,136.960996
国分町,コクブマチ,KOKUBUMACHI,ヨ,37.02986,136.959059
藤橋町,フジハシマチ,FUJIHASHIMACHI,卯,37.035894,136.95879
古府町,フルコマチ,FURUKOMACHI,ほ,37.025321,136.95946
国分町,コクブマチ,KOKUBUMACHI,タ,37.03242,136.959898
千野町,チノマチ,CHINOMACHI,セ,37.011478,136.959866
千野町,チノマチ,CHINOMACHI,ウ,37.014246,136.959567
藤橋町,フジハシマチ,FUJIHASHIMACHI,ラ,37.036627,136.959694
千野町,チノマチ,CHINOMACHI,シ,37.013668,136.96022
藤橋町,フジハシマチ,FUJIHASHIMACHI,ナ,37.035026,136.959585
古府町,フルコマチ,FURUKOMACHI,ろ,37.021987,136.960029
古府町,フルコマチ,FURUKOMACHI,へ,37.024348,136.961058
所口町,トコログチマチ,TOKOROGUCHIMACHI,チ,37.041296,136.959566
千野町,チノマチ,CHINOMACHI,二十一,37.014893,136.960032
千野町,チノマチ,CHINOMACHI,モ,37.012572,136.960402
藤橋町,フジハシマチ,FUJIHASHIMACHI,子,37.035926,136.960223
南藤橋町,ミナミフジハシマチ,MINAMIFUJIHASHIMACHI,巳,37.041021,136.960331
古府町,フルコマチ,FURUKOMACHI,わ,37.033576,136.961161
藤橋町,フジハシマチ,FUJIHASHIMACHI,寅,37.035966,136.960828
千野町,チノマチ,CHINOMACHI,ミ,37.014886,136.960594
古府町,フルコマチ,FURUKOMACHI,り,37.027049,136.961183
千野町,チノマチ,CHINOMACHI,ス,37.011568,136.960974
所口町,トコログチマチ,TOKOROGUCHIMACHI,ヘ,37.038613,136.960789
古府町,フルコマチ,FURUKOMACHI,は,37.022123,136.961383
古府町,フルコマチ,FURUKOMACHI,お,37.03039,136.962394
南藤橋町,ミナミフジハシマチ,MINAMIFUJIHASHIMACHI,午,37.041754,136.960897
千野町,チノマチ,CHINOMACHI,メ,37.013755,136.961553
南藤橋町,ミナミフジハシマチ,MINAMIFUJIHASHIMACHI,子,37.042818,136.961796
藤橋町,フジハシマチ,FUJIHASHIMACHI,レ,37.038336,136.962312
千野町,チノマチ,CHINOMACHI,ト,37.01504,136.961534
藤橋町,フジハシマチ,FUJIHASHIMACHI,丑,37.03988,136.962741
所口町,トコログチマチ,TOKOROGUCHIMACHI,ホ,37.039414,136.961594
所口町,トコログチマチ,TOKOROGUCHIMACHI,ニ,37.041438,136.961535
古府町,フルコマチ,FURUKOMACHI,コ,37.020511,136.961931
古府町,フルコマチ,FURUKOMACHI,三ケ塚,37.020804,136.961671
古府町,フルコマチ,FURUKOMACHI,ち,37.026902,136.96327
古府町,フルコマチ,FURUKOMACHI,ム,37.02478,136.962097
古府町,フルコマチ,FURUKOMACHI,と,37.025184,136.964275
藤橋町,フジハシマチ,FUJIHASHIMACHI,ソ,37.037506,136.963084
千野町,チノマチ,CHINOMACHI,二十二,37.015358,136.965014
古府町,フルコマチ,FURUKOMACHI,よ,37.030443,136.963457
本府中町,モトフチュウマチ,MOTOFUCHUMACHI,ヌ,37.033641,136.964965
千野町,チノマチ,CHINOMACHI,マ,37.017662,136.96634
古府町,フルコマチ,FURUKOMACHI,タ,37.029361,136.96333
古府町,フルコマチ,FURUKOMACHI,南谷,37.021692,136.966977
藤橋町,フジハシマチ,FUJIHASHIMACHI,ト,37.04092,136.963325
古府町,フルコマチ,FURUKOMACHI,サ,37.02287,136.963659
古府町,フルコマチ,FURUKOMACHI,ヌ,37.029693,136.964001
所口町,トコログチマチ,TOKOROGUCHIMACHI,ハ,37.038424,136.963992
所口町,トコログチマチ,TOKOROGUCHIMACHI,甲,37.04096,136.963843
所口町,トコログチマチ,TOKOROGUCHIMACHI,イ,37.039567,136.964039
古府町,フルコマチ,FURUKOMACHI,ワ,37.028701,136.964298
神明町,シンメイチョウ,SHIMMEICHO,ホ,37.041521,136.965294
本府中町,モトフチュウマチ,MOTOFUCHUMACHI,ホ,37.040308,136.96472
古府町,フルコマチ,FURUKOMACHI,か,37.032911,136.964672
古府町,フルコマチ,FURUKOMACHI,る,37.027872,136.965261
古府町,フルコマチ,FURUKOMACHI,た,37.032327,136.966136
古府町,フルコマチ,FURUKOMACHI,ラ,37.024336,136.964839
古府町,フルコマチ,FURUKOMACHI,ヲ,37.028494,136.965667
古府町,フルコマチ,FURUKOMACHI,キ,37.023272,136.96526
天神川原町,テンジンカワラマチ,TENJINKAWARAMACHI,ル,37.036392,136.964745
古府町,フルコマチ,FURUKOMACHI,笠松,37.022243,136.965577
神明町,シンメイチョウ,SHIMMEICHO,ロ,37.042639,136.965967
神明町,シンメイチョウ,SHIMMEICHO,イ,37.043255,136.964646
天神川原町,テンジンカワラマチ,TENJINKAWARAMACHI,ヌ,37.034999,136.965706
所口町,トコログチマチ,TOKOROGUCHIMACHI,ロ,37.035936,136.965693
古府町,フルコマチ,FURUKOMACHI,そ,37.029453,136.965858
本府中町,モトフチュウマチ,MOTOFUCHUMACHI,ヘ,37.038839,136.965092
本府中町,モトフチュウマチ,MOTOFUCHUMACHI,チ,37.036877,136.967637
古府町,フルコマチ,FURUKOMACHI,ね,37.023575,136.965922
古府町,フルコマチ,FURUKOMACHI,赤坂,37.01981,136.966466
古府町,フルコマチ,FURUKOMACHI,モ,37.01944,136.967351
藤野町,フジノマチ,FUJINOMACHI,ハ,37.028208,136.966835
本府中町,モトフチュウマチ,MOTOFUCHUMACHI,ト,37.038405,136.96789
古府町,フルコマチ,FURUKOMACHI,つ,37.025706,136.966993
本府中町,モトフチュウマチ,MOTOFUCHUMACHI,ニ,37.040573,136.967874
本府中町,モトフチュウマチ,MOTOFUCHUMACHI,ハ,37.04184,136.96695
袖ケ江町,ソデガエチョウ,SODEGAECHO,ハ,37.042765,136.968071
古府町,フルコマチ,FURUKOMACHI,ら,37.019066,136.967253
古府町,フルコマチ,FURUKOMACHI,れ,37.031186,136.966361
古府町,フルコマチ,FURUKOMACHI,な,37.020376,136.966903
藤野町,フジノマチ,FUJINOMACHI,ニ,37.02679,136.968336
藤野町,フジノマチ,FUJINOMACHI,リ,37.029672,136.971881
本府中町,モトフチュウマチ,MOTOFUCHUMACHI,ル,37.035414,136.967933
藤野町,フジノマチ,FUJINOMACHI,ロ,37.030953,136.967552
藤野町,フジノマチ,FUJINOMACHI,イ,37.032172,136.968907
古府町,フルコマチ,FURUKOMACHI,エ,37.020561,136.968024
本府中町,モトフチュウマチ,MOTOFUCHUMACHI,ヲ,37.033486,136.968136
後畠町,ウシロバタケマチ,USHIROBATAKEMACHI,チ,37.02628,136.968325
小池川原町,コイケガワラマチ,KOIKEGAWARAMACHI,チ,37.021673,136.968982
後畠町,ウシロバタケマチ,USHIROBATAKEMACHI,リ,37.025686,136.969198
上府中町,カミフチュウマチ,KAMIFUCHUMACHI,セ,37.041715,136.969346
藤野町,フジノマチ,FUJINOMACHI,ホ,37.029734,136.969635
本府中町,モトフチュウマチ,MOTOFUCHUMACHI,ワ,37.035707,136.969913
天神川原町,テンジンカワラマチ,TENJINKAWARAMACHI,ヲ,37.033305,136.970536
天神川原町,テンジンカワラマチ,TENJINKAWARAMACHI,ホ,37.031099,136.970199
上府中町,カミフチュウマチ,KAMIFUCHUMACHI,ス,37.041124,136.970302
小池川原町,コイケガワラマチ,KOIKEGAWARAMACHI,ヌ,37.021667,136.969905
古屋敷町,フルヤシキマチ,FURUYASHIKIMACHI,カ,37.023546,136.973609
後畠町,ウシロバタケマチ,USHIROBATAKEMACHI,後畠山,37.026164,136.970993
本府中町,モトフチュウマチ,MOTOFUCHUMACHI,ソ,37.039658,136.970576
本府中町,モトフチュウマチ,MOTOFUCHUMACHI,レ,37.038043,136.970432
本府中町,モトフチュウマチ,MOTOFUCHUMACHI,ヒ,37.039375,136.970528
小池川原町,コイケガワラマチ,KOIKEGAWARAMACHI,ル,37.021398,136.97085
小池川原町,コイケガワラマチ,KOIKEGAWARAMACHI,ホ,37.019547,136.971514
古屋敷町,フルヤシキマチ,FURUYASHIKIMACHI,イ,37.022218,136.970526
上府中町,カミフチュウマチ,KAMIFUCHUMACHI,ソ,37.041054,136.970626
山王町,サンノウマチ,SANNOMACHI,ス,37.042713,136.970655
古屋敷町,フルヤシキマチ,FURUYASHIKIMACHI,ニ,37.02227,136.971254
本府中町,モトフチュウマチ,MOTOFUCHUMACHI,カ,37.035158,136.972107
本府中町,モトフチュウマチ,MOTOFUCHUMACHI,ヨ,37.037527,136.971295
天神川原町,テンジンカワラマチ,TENJINKAWARAMACHI,カ,37.034547,136.97111
本府中町,モトフチュウマチ,MOTOFUCHUMACHI,ム,37.032056,136.97108
山王町,サンノウマチ,SANNOMACHI,一,37.042951,136.971183
郡町,コオリマチ,KORIMACHI,一,37.043265,136.972096
後畠町,ウシロバタケマチ,USHIROBATAKEMACHI,ヲ,37.026714,136.971611
山王町,サンノウマチ,SANNOMACHI,ソ,37.041205,136.971352
山王町,サンノウマチ,SANNOMACHI,シ,37.04172,136.972032
天神川原町,テンジンカワラマチ,TENJINKAWARAMACHI,ハ,37.031148,136.972368
山王町,サンノウマチ,SANNOMACHI,ツ,37.040915,136.972717
天神川原町,テンジンカワラマチ,TENJINKAWARAMACHI,ロ,37.031567,136.972975
本府中町,モトフチュウマチ,MOTOFUCHUMACHI,タ,37.038204,136.971588
天神川原町,テンジンカワラマチ,TENJINKAWARAMACHI,ニ,37.030033,136.972683
山王町,サンノウマチ,SANNOMACHI,ミ,37.042638,136.972856
本府中町,モトフチュウマチ,MOTOFUCHUMACHI,テ,37.035395,136.974401
本府中町,モトフチュウマチ,MOTOFUCHUMACHI,ア,37.03833,136.973656
古屋敷町,フルヤシキマチ,FURUYASHIKIMACHI,ル,37.022495,136.973681
後畠町,ウシロバタケマチ,USHIROBATAKEMACHI,イ,37.027512,136.973584
本府中町,モトフチュウマチ,MOTOFUCHUMACHI,天神山,37.031581,136.974358
藤野町,フジノマチ,FUJINOMACHI,ヘ,37.029688,136.972152
古屋敷町,フルヤシキマチ,FURUYASHIKIMACHI,ワ,37.023307,136.974426
本府中町,モトフチュウマチ,MOTOFUCHUMACHI,エ,37.033888,136.974508
古屋敷町,フルヤシキマチ,FURUYASHIKIMACHI,ヨ,37.024762,136.97524
古屋敷町,フルヤシキマチ,FURUYASHIKIMACHI,ラントウ,37.025352,136.974587
竹町,タケマチ,TAKEMACHI,大天神山,37.028715,136.975324
大和町,ヤマトマチ,YAMATOMACHI,リ,37.041004,136.974701
大和町,ヤマトマチ,YAMATOMACHI,タ,37.040059,136.974315
矢田町,ヤタマチ,YATAMACHI,三,37.039273,136.976944
古屋敷町,フルヤシキマチ,FURUYASHIKIMACHI,ヲ,37.023067,136.975477
矢田町,ヤタマチ,YATAMACHI,子,37.038551,136.974946
矢田町,ヤタマチ,YATAMACHI,四,37.034693,136.976912
竹町,タケマチ,TAKEMACHI,ワ,37.026199,136.975099
竹町,タケマチ,TAKEMACHI,ヲ,37.026237,136.975655
竹町,タケマチ,TAKEMACHI,ヨ,37.026418,136.976235
矢田町,ヤタマチ,YATAMACHI,メ,37.030683,136.976658
竹町,タケマチ,TAKEMACHI,リ,37.028353,136.976993
古城町,フルシロマチ,FURUSHIROMACHI,ロ,37.022468,136.975952
大和町,ヤマトマチ,YAMATOMACHI,ヌ,37.042172,136.977107
矢田町,ヤタマチ,YATAMACHI,ヌ,37.041288,136.976141
竹町,タケマチ,TAKEMACHI,タ,37.025055,136.976444
古屋敷町,フルヤシキマチ,FURUYASHIKIMACHI,タ,37.024623,136.976664
矢田町,ヤタマチ,YATAMACHI,ソ,37.038034,136.976731
竹町,タケマチ,TAKEMACHI,ヘ,37.02781,136.977549
矢田町,ヤタマチ,YATAMACHI,ユ,37.033525,136.977111
竹町,タケマチ,TAKEMACHI,ハ,37.026729,136.978569
矢田町,ヤタマチ,YATAMACHI,ミ,37.029106,136.977999
矢田町,ヤタマチ,YATAMACHI,サ,37.0327,136.978388
古屋敷町,フルヤシキマチ,FURUYASHIKIMACHI,レ,37.024236,136.97783
大和町,ヤマトマチ,YAMATOMACHI,ル,37.041972,136.979092
矢田町,ヤタマチ,YATAMACHI,ヰ,37.03466,136.979047
矢田町,ヤタマチ,YATAMACHI,三十一,37.031369,136.979012
古屋敷町,フルヤシキマチ,FURUYASHIKIMACHI,ソ,37.025091,136.978093
矢田町,ヤタマチ,YATAMACHI,五,37.029248,136.980762
矢田町,ヤタマチ,YATAMACHI,レ,37.03751,136.979574
矢田町,ヤタマチ,YATAMACHI,ウ,37.036004,136.979133
竹町,タケマチ,TAKEMACHI,ニ,37.026091,136.978843
竹町,タケマチ,TAKEMACHI,子,37.024833,136.978604
大和町,ヤマトマチ,YAMATOMACHI,ヘ,37.04257,136.978973
竹町,タケマチ,TAKEMACHI,ツ,37.024852,136.979109
竹町,タケマチ,TAKEMACHI,イ,37.026784,136.979714
竹町,タケマチ,TAKEMACHI,ロ,37.026169,136.979851
矢田町,ヤタマチ,YATAMACHI,ノ,37.035387,136.980145
矢田町,ヤタマチ,YATAMACHI,ヒ,37.030858,136.980569
矢田町,ヤタマチ,YATAMACHI,オ,37.0366,136.982348
矢田町,ヤタマチ,YATAMACHI,コ,37.033979,136.980837
矢田町,ヤタマチ,YATAMACHI,二十三号島田,37.028325,136.983144
矢田町,ヤタマチ,YATAMACHI,ヘ,37.041323,136.981481
矢田町,ヤタマチ,YATAMACHI,ク,37.035561,136.982988
矢田町,ヤタマチ,YATAMACHI,ホ,37.041412,136.982973
矢田町,ヤタマチ,YATAMACHI,フ,37.03285,136.98254
矢田町,ヤタマチ,YATAMACHI,ヨ,37.038129,136.98311
矢田町,ヤタマチ,YATAMACHI,二十四号白土,37.02934,136.984209
矢田町,ヤタマチ,YATAMACHI,マ,37.035029,136.984812
矢田町,ヤタマチ,YATAMACHI,ヤ,37.035998,136.984251
万行町,マンギョウマチ,MANGYOMACHI,十四,37.043133,136.984798
万行町,マンギョウマチ,MANGYOMACHI,十五,37.042711,136.985054
矢田町,ヤタマチ,YATAMACHI,ス,37.032017,136.984489
万行町,マンギョウマチ,MANGYOMACHI,二十四,37.038699,136.985767
矢田町,ヤタマチ,YATAMACHI,二十五号雉子曽,37.029618,136.984632
矢田町,ヤタマチ,YATAMACHI,亥,37.029241,136.984701
万行町,マンギョウマチ,MANGYOMACHI,二十二,37.038756,136.986174
万行町,マンギョウマチ,MANGYOMACHI,十六,37.041263,136.986721
万行町,マンギョウマチ,MANGYOMACHI,十七,37.042144,136.985799
万行町,マンギョウマチ,MANGYOMACHI,二十六,37.034512,136.986058
万行町,マンギョウマチ,MANGYOMACHI,二十五,37.036145,136.986574
万行町,マンギョウマチ,MANGYOMACHI,二十九,37.035275,136.989292
万行町,マンギョウマチ,MANGYOMACHI,二十八,37.034657,136.98695
矢田町,ヤタマチ,YATAMACHI,二十六号石蔵,37.027499,136.986682
矢田町,ヤタマチ,YATAMACHI,丑,37.027449,136.987759
万行町,マンギョウマチ,MANGYOMACHI,二十七,37.035344,136.988372
万行町,マンギョウマチ,MANGYOMACHI,二十三,37.036963,136.988069
万行町,マンギョウマチ,MANGYOMACHI,十九,37.040714,136.987764
矢田町,ヤタマチ,YATAMACHI,卯,37.026388,136.987413
万行町,マンギョウマチ,MANGYOMACHI,四十八,37.028359,136.989235
万行町,マンギョウマチ,MANGYOMACHI,十八,37.041838,136.988214
万行町,マンギョウマチ,MANGYOMACHI,三十,37.036283,136.990548
万行町,マンギョウマチ,MANGYOMACHI,二十一,37.037164,136.989803
万行町,マンギョウマチ,MANGYOMACHI,三十二,37.038514,136.990943
万行町,マンギョウマチ,MANGYOMACHI,十二,37.042484,136.989441
万行町,マンギョウマチ,MANGYOMACHI,二十,37.040648,136.990774
万行町,マンギョウマチ,MANGYOMACHI,四十三,37.030903,136.991571
万行町,マンギョウマチ,MANGYOMACHI,七十七,37.042305,136.990976
万行町,マンギョウマチ,MANGYOMACHI,三十一,37.035137,136.992398
万行町,マンギョウマチ,MANGYOMACHI,三十四,37.04173,136.992812
万行町,マンギョウマチ,MANGYOMACHI,六十,37.034638,136.991979
万行町,マンギョウマチ,MANGYOMACHI,五十五,37.031257,136.99229
万行町,マンギョウマチ,MANGYOMACHI,四十一,37.033642,136.992748
万行町,マンギョウマチ,MANGYOMACHI,三十三,37.039152,136.993129
万行町,マンギョウマチ,MANGYOMACHI,四十二,37.032626,136.99261
万行町,マンギョウマチ,MANGYOMACHI,六十一,37.031961,136.992909
万行町,マンギョウマチ,MANGYOMACHI,九,37.043595,136.992911
万行町,マンギョウマチ,MANGYOMACHI,三十八,37.03562,136.99339
万行町,マンギョウマチ,MANGYOMACHI,六十二,37.032355,136.993283
万行町,マンギョウマチ,MANGYOMACHI,三十六,37.040401,136.993642
万行町,マンギョウマチ,MANGYOMACHI,四十,37.03416,136.993329
万行町,マンギョウマチ,MANGYOMACHI,六十四,37.032652,136.99428
万行町,マンギョウマチ,MANGYOMACHI,三十九,37.034739,136.995076
佐味町,サミマチ,SAMIMACHI,三十四,37.04138,136.995414
佐野町,サノマチ,SANOMACHI,ハ,37.034621,136.99536
佐味町,サミマチ,SAMIMACHI,レ,37.042407,136.995899
佐味町,サミマチ,SAMIMACHI,三十三,37.041231,136.996602
佐味町,サミマチ,SAMIMACHI,ヨ,37.043131,136.996416
佐野町,サノマチ,SANOMACHI,中,37.038449,136.99678
佐味町,サミマチ,SAMIMACHI,二十七,37.042534,136.996787
佐野町,サノマチ,SANOMACHI,ノ,37.036234,136.997216
国分町,コクブマチ,KOKUBUMACHI,オ,37.030924,136.953787
本府中町,モトフチュウマチ,MOTOFUCHUMACHI,井,37.037979,136.969324
矢田町,ヤタマチ,YATAMACHI,エ,37.033318,136.979685
神明町,シンメイチョウ,SHIMMEICHO,ト,37.041962,136.96545
上府中町,カミフチュウマチ,KAMIFUCHUMACHI,モ,37.041149,136.968715
本府中町,モトフチュウマチ,MOTOFUCHUMACHI,モ,37.038299,136.968783
矢田町,ヤタマチ,YATAMACHI,カ,37.040399,136.983414
矢田町,ヤタマチ,YATAMACHI,ワ,37.040149,136.982316
後畠町,ウシロバタケマチ,USHIROBATAKEMACHI,ロ,37.027018,136.973133
江曽町,エソマチ,ESOMACHI,井,37.003378,136.94151
江曽町,エソマチ,ESOMACHI,ノ,37.003903,136.943153
江曽町,エソマチ,ESOMACHI,オ,37.002853,136.942357
下町,シモマチ,SHIMOMACHI,ハ,37.010417,136.945329
下町,シモマチ,SHIMOMACHI,イ,37.012264,136.947294
下町,シモマチ,SHIMOMACHI,テ,37.009798,136.934758
飯川町,イガワマチ,IGAWAMACHI,す,37.006471,136.937174
飯川町,イガワマチ,IGAWAMACHI,ユ,37.005631,136.937265
中挟町,,,タ,37.006561,136.951224
中挟町,,,ヨ,37.006276,136.950137
中挟町,,,ろ,37.00938,136.949885
中挟町,,,ホ,37.009686,136.950887
江曽町,エソマチ,ESOMACHI,ロ,37.010919,136.94829
中挟町,,,チ,37.010909,136.949882
中挟町,,,リ,37.012111,136.949343
国下町,コクガマチ,KOKUGAMACHI,リ,37.013457,136.95045
国下町,コクガマチ,KOKUGAMACHI,ろ,37.013207,136.950559
八幡町,ヤワタマチ,YAWATAMACHI,イ,37.013445,136.94951
八幡町,ヤワタマチ,YAWATAMACHI,い,37.013718,136.949154
千野町,チノマチ,CHINOMACHI,貞,37.013522,136.951299
八田町,ハッタマチ,HATTAMACHI,ロ,37.014494,136.951818
八田町,ハッタマチ,HATTAMACHI,い,37.013983,136.952144
国下町,コクガマチ,KOKUGAMACHI,ヲ,37.016175,136.951967
千野町,チノマチ,CHINOMACHI,カ,37.016362,136.956926
千野町,チノマチ,CHINOMACHI,ワ,37.016349,136.957815
千野町,チノマチ,CHINOMACHI,ヨ,37.01781,136.955764
国分町,コクブマチ,KOKUBUMACHI,ロ,37.02211,136.95677
国分町,コクブマチ,KOKUBUMACHI,リ,37.024394,136.957306
千野町,チノマチ,CHINOMACHI,ヲ,37.020211,136.959672
古府町,フルコマチ,FURUKOMACHI,ノ,37.024061,136.962365
古府町,フルコマチ,FURUKOMACHI,ヘ,37.024276,136.962056
古府町,フルコマチ,FURUKOMACHI,ユ,37.024758,136.965532
古府町,フルコマチ,FURUKOMACHI,ナ,37.025701,136.964228
古府町,フルコマチ,FURUKOMACHI,メ,37.025367,136.966078
古府町,フルコマチ,FURUKOMACHI,ミ,37.024361,136.967487
古府町,フルコマチ,FURUKOMACHI,ル,37.02999,136.96649
古府町,フルコマチ,FURUKOMACHI,チ,37.031302,136.966927
本府中町,モトフチュウマチ,MOTOFUCHUMACHI,ナ,37.032836,136.967438
矢田町,ヤタマチ,YATAMACHI,ア,37.031145,136.979494
八幡町,ヤワタマチ,YAWATAMACHI,ヨ,37.0199,136.946854
八幡町,ヤワタマチ,YAWATAMACHI,ほ,37.0219,136.95023
細口町,ホソグチマチ,HOSOGUCHIMACHI,チ,37.031298,136.938251
細口町,ホソグチマチ,HOSOGUCHIMACHI,ト,37.030562,136.942512
細口町,ホソグチマチ,HOSOGUCHIMACHI,ほ,37.029067,136.942596
細口町,ホソグチマチ,HOSOGUCHIMACHI,ホ,37.029659,136.944359
細口町,ホソグチマチ,HOSOGUCHIMACHI,タ,37.026809,136.945793
国分町,コクブマチ,KOKUBUMACHI,ケ,37.028161,136.950325
国分町,コクブマチ,KOKUBUMACHI,コ,37.03138,136.950667
国分町,コクブマチ,KOKUBUMACHI,ク,37.030414,136.951757
江曽町,エソマチ,ESOMACHI,カ,37.005938,136.945586
江曽町,エソマチ,ESOMACHI,タ,37.005088,136.945031
江曽町,エソマチ,ESOMACHI,子,37.009042,136.944913
古府町,フルコマチ,FURUKOMACHI,ロ,37.030799,136.962598
千野町,チノマチ,CHINOMACHI,ヤ,37.018212,136.966719
竹町,タケマチ,TAKEMACHI,ホ,37.025623,136.978444
竹町,タケマチ,TAKEMACHI,ソ,37.025142,136.978888
藤橋町,フジハシマチ,FUJIHASHIMACHI,ア,37.044175,136.944858
藤橋町,フジハシマチ,FUJIHASHIMACHI,西,37.043117,136.949341
藤橋町,フジハシマチ,FUJIHASHIMACHI,ケ,37.043358,136.951853
西藤橋町,ニシフジハシマチ,NISHIFUJIHASHIMACHI,午,37.044079,136.960517
郡町,コオリマチ,KORIMACHI,三,37.044075,136.971991
万行町,マンギョウマチ,MANGYOMACHI,十三,37.04386,136.98477
佐味町,サミマチ,SAMIMACHI,三十七,37.04358,136.996339
藤橋町,フジハシマチ,FUJIHASHIMACHI,テ,37.044207,136.949977
津向町,ツムギマチ,TSUMUGIMACHI,ヲ,37.063561,136.953207
津向町,ツムギマチ,TSUMUGIMACHI,巻口,37.061191,136.950375
飯川町,イガワマチ,IGAWAMACHI,二,37.00405,136.940837
西藤橋町,ニシフジハシマチ,NISHIFUJIHASHIMACHI,テ,37.043874,136.956797
