name,name_kana,name_romaji,nickname,latitude,longitude
大町,オオマチ,OMACHI,,36.52463,137.870628
平,タイラ,TAIRA,,36.498712,137.734753
常盤,トキワ,TOKIWA,,36.459246,137.810561
美麻,ミアサ,MIASA,,36.582199,137.897073
八坂,ヤサカ,YASAKA,,36.504567,137.924824
八坂菖蒲,ヤサカショウブ,YASAKASHOBU,,36.477652,137.915529
社,ヤシロ,YASHIRO,,36.472284,137.875663
