name,name_kana,name_romaji,nickname,latitude,longitude
相生町,アイオイマチ,AIOIMACHI,,36.142345,137.256988
赤保木町,アカホキマチ,AKAHOKIMACHI,,36.160232,137.221315
曙町一丁目,アケボノマチ 1,AKEBONOMACHI 1,,36.147066,137.2662
曙町二丁目,アケボノマチ 2,AKEBONOMACHI 2,,36.147461,137.267459
曙町三丁目,アケボノマチ 3,AKEBONOMACHI 3,,36.148357,137.267558
曙町四丁目,アケボノマチ 4,AKEBONOMACHI 4,,36.148878,137.268941
旭ケ丘町,アサヒガオカマチ,ASAHIGAOKAMACHI,,36.177969,137.242523
朝日町青屋,アサヒチョウアオヤ,ASAHICHO AOYA,,36.113641,137.437922
朝日町上ケ見,アサヒチョウアゲミ,ASAHICHO AGEMI,,36.082663,137.355635
朝日町浅井,アサヒチョウアサイ,ASAHICHO ASAI,,36.078699,137.390594
朝日町一之宿,アサヒチョウイチノシュク,ASAHICHO ICHINOSHUKU,,36.029083,137.393184
朝日町大廣,アサヒチョウオオヒロ,ASAHICHO OHIRO,,36.068605,137.362486
朝日町小瀬ケ洞,アサヒチョウコセガホラ,ASAHICHO KOSEGAHORA,,36.055953,137.405649
朝日町甲,アサヒチョウカブト,ASAHICHO KABUTO,,36.073442,137.328214
朝日町黍生谷,アサヒチョウキビュウダニ,ASAHICHO KIBYUDANI,,36.038346,137.40682
朝日町胡桃島,アサヒチョウクルミシマ,ASAHICHO KURUMISHIMA,,35.964313,137.447018
朝日町黒川,アサヒチョウクロカワ,ASAHICHO KUROKAWA,,36.054672,137.369779
朝日町桑之島,アサヒチョウクワノシマ,ASAHICHO KUWANOSHIMA,,36.005229,137.401299
朝日町小瀬,アサヒチョウコセ,ASAHICHO KOSE,,36.102215,137.338598
朝日町小谷,アサヒチョウコダニ,ASAHICHO KODANI,,36.084075,137.318773
朝日町立岩,アサヒチョウタテイワ,ASAHICHO TATEIWA,,36.104059,137.358825
朝日町寺澤,アサヒチョウテラザワ,ASAHICHO TERAZAWA,,36.085448,137.361747
朝日町寺附,アサヒチョウテラヅキ,ASAHICHO TERAZUKI,,36.076342,137.421602
朝日町西洞,アサヒチョウニシボラ,ASAHICHO NISHIBORA,,36.000207,137.362353
朝日町万石,アサヒチョウマンゴク,ASAHICHO MANGOKU,,36.074845,137.348548
朝日町見座,アサヒチョウミザ,ASAHICHO MIZA,,36.097885,137.323367
朝日町宮之前,アサヒチョウミヤノマエ,ASAHICHO MIYANOMAE,,36.012536,137.403523
朝日町,アサヒチョウアオヤ,ASAHICHO AOYA,,36.143769,137.256237
愛宕町,アタゴマチ,ATAGOMACHI,,36.144704,137.265283
石浦町,イシウラマチ,ISHIURAMACHI,,36.110871,137.253371
石浦町一丁目,イシウラマチ 1,ISHIURAMACHI 1,,36.105686,137.262879
石浦町二丁目,イシウラマチ 2,ISHIURAMACHI 2,,36.112916,137.266277
石浦町三丁目,イシウラマチ 3,ISHIURAMACHI 3,,36.110819,137.263163
石浦町四丁目,イシウラマチ 4,ISHIURAMACHI 4,,36.114805,137.267595
石浦町五丁目,イシウラマチ 5,ISHIURAMACHI 5,,36.11754,137.26406
石浦町六丁目,イシウラマチ 6,ISHIURAMACHI 6,,36.114776,137.260635
石浦町七丁目,イシウラマチ 7,ISHIURAMACHI 7,,36.122718,137.26084
石浦町八丁目,イシウラマチ 8,ISHIURAMACHI 8,,36.114998,137.253165
石浦町九丁目,イシウラマチ 9,ISHIURAMACHI 9,,36.122548,137.258626
一之宮町,イチノミヤマチ,ICHINOMIYAMACHI,,36.052398,137.201261
岩井町,イワイマチ,IWAIMACHI,,36.13335,137.385353
有楽町,ウラマチ,URAMACHI,,36.141576,137.257314
漆垣内町,ウルシガイトウマチ,URUSHIGAITOMACHI,,36.146083,137.295146
上野町,ウワノマチ,UWANOMACHI,,36.168155,137.271346
越後町,エチゴマチ,ECHIGOMACHI,,36.108101,137.234535
江名子町,エナコマチ,ENAKOMACHI,,36.125367,137.280878
大新町一丁目,オオシンマチ 1,OSHIMMACHI 1,,36.146955,137.258137
大新町二丁目,オオシンマチ 2,OSHIMMACHI 2,,36.148347,137.258047
大新町三丁目,オオシンマチ 3,OSHIMMACHI 3,,36.150027,137.25841
大新町四丁目,オオシンマチ 4,OSHIMMACHI 4,,36.151858,137.257275
大新町五丁目,オオシンマチ 5,OSHIMMACHI 5,,36.155992,137.256322
大平町,,,,36.101256,137.229852
大島町,オオジママチ,OJIMAMACHI,,36.114419,137.329525
大洞町,オオボラマチ,OBORAMACHI,,36.156821,137.30412
岡本町一丁目,オカモトマチ 1,OKAMOTOMACHI 1,,36.140362,137.246436
岡本町二丁目,オカモトマチ 2,OKAMOTOMACHI 2,,36.144594,137.246103
岡本町三丁目,オカモトマチ 3,OKAMOTOMACHI 3,,36.148463,137.246281
岡本町四丁目,オカモトマチ 4,OKAMOTOMACHI 4,,36.153002,137.248708
奥飛騨温泉郷赤桶,オクヒダオンセンゴウアカオケ,OKUHIDAONSENGO AKAOKE,,36.245224,137.464346
奥飛騨温泉郷今見,オクヒダオンセンゴウイマミ,OKUHIDAONSENGO IMAMI,,36.256884,137.505375
奥飛騨温泉郷柏当,オクヒダオンセンゴウカシアテ,OKUHIDAONSENGO KASHIATE,,36.23291,137.50604
奥飛騨温泉郷神坂,オクヒダオンセンゴウカンサカ,OKUHIDAONSENGO KANSAKA,,36.30419,137.602285
奥飛騨温泉郷笹嶋,オクヒダオンセンゴウササジマ,OKUHIDAONSENGO SASAJIMA,,36.286572,137.500553
奥飛騨温泉郷田頃家,オクヒダオンセンゴウタゴロケ,OKUHIDAONSENGO TAGOROKE,,36.279266,137.529586
奥飛騨温泉郷蓼之俣,オクヒダオンセンゴウタテノマタ,OKUHIDAONSENGO TATENOMATA,,36.235791,137.484638
奥飛騨温泉郷栃尾,オクヒダオンセンゴウトチオ,OKUHIDAONSENGO TOCHIO,,36.25792,137.52046
奥飛騨温泉郷中尾,オクヒダオンセンゴウナカオ,OKUHIDAONSENGO NAKAO,,36.248069,137.588846
奥飛騨温泉郷一重ヶ根,,,,36.219577,137.556097
奥飛騨温泉郷平湯,オクヒダオンセンゴウヒラユ,OKUHIDAONSENGO HIRAYU,,36.173905,137.56226
奥飛騨温泉郷福地,オクヒダオンセンゴウフクジ,OKUHIDAONSENGO FUKUJI,,36.216723,137.521035
奥飛騨温泉郷村上,オクヒダオンセンゴウムラカミ,OKUHIDAONSENGO MURAKAMI,,36.244983,137.51735
春日町,カスガマチ,KASUGAMACHI,,36.13769,137.266817
片野町,カタノマチ,KATANOMACHI,,36.116479,137.27774
片野町一丁目,カタノマチ 1,KATANOMACHI 1,,36.119889,137.267576
片野町二丁目,カタノマチ 2,KATANOMACHI 2,,36.12188,137.265755
片野町三丁目,カタノマチ 3,KATANOMACHI 3,,36.125384,137.265549
片野町四丁目,カタノマチ 4,KATANOMACHI 4,,36.125331,137.260848
片野町五丁目,カタノマチ 5,KATANOMACHI 5,,36.130441,137.264364
片野町六丁目,カタノマチ 6,KATANOMACHI 6,,36.128235,137.259696
片原町,カタハラマチ,KATAHARAMACHI,,36.141575,137.258886
上一之町,カミ1ノマチ,KAMI1-NOMACHI,,36.141835,137.261385
上岡本町,カミオカモトマチ,KAMIOKAMOTOMACHI,,36.13136,137.230684
上岡本町一丁目,カミオカモトマチ 1,KAMIOKAMOTOMACHI 1,,36.134498,137.235675
上岡本町二丁目,カミオカモトマチ 2,KAMIOKAMOTOMACHI 2,,36.133864,137.228467
上岡本町三丁目,カミオカモトマチ 3,KAMIOKAMOTOMACHI 3,,36.140182,137.24356
上岡本町四丁目,カミオカモトマチ 4,KAMIOKAMOTOMACHI 4,,36.139589,137.240623
上岡本町五丁目,カミオカモトマチ 5,KAMIOKAMOTOMACHI 5,,36.138978,137.236884
上岡本町六丁目,カミオカモトマチ 6,KAMIOKAMOTOMACHI 6,,36.138856,137.23225
上岡本町七丁目,カミオカモトマチ 7,KAMIOKAMOTOMACHI 7,,36.144092,137.241414
上岡本町八丁目,カミオカモトマチ 8,KAMIOKAMOTOMACHI 8,,36.143273,137.236032
上川原町,カミカワハラマチ,KAMIKAWAHARAMACHI,,36.135509,137.257198
上切町,カミギリマチ,KAMIGIRIMACHI,,36.170718,137.227648
上三之町,カミ3ノマチ,KAMI3-NOMACHI,,36.14169,137.259514
上宝町新田,カミタカラチョウアラタ,KAMITAKARACHO ARATA,,36.272786,137.382952
上宝町荒原,カミタカラチョウアラハラ,KAMITAKARACHO ARAHARA,,36.267369,137.273955
上宝町岩井戸,カミタカラチョウイワイド,KAMITAKARACHO IWAIDO,,36.281904,137.390705
上宝町苧生茂,,,,36.241638,137.444278
上宝町金木戸,カミタカラチョウカナキド,KAMITAKARACHO KANAKIDO,,36.345715,137.498564
上宝町葛山,カミタカラチョウクズヤマ,KAMITAKARACHO KUZUYAMA,,36.260936,137.438033
上宝町蔵柱,カミタカラチョウクラバシラ,KAMITAKARACHO KURABASHIRA,,36.267293,137.321754
上宝町在家,カミタカラチョウザイケ,KAMITAKARACHO ZAIKE,,36.269763,137.36885
上宝町下佐谷,カミタカラチョウシモサダニ,KAMITAKARACHO SHIMOSADANI,,36.303608,137.477941
上宝町双六,カミタカラチョウスゴロク,KAMITAKARACHO SUGOROKU,,36.312256,137.390427
上宝町長倉,カミタカラチョウナガクラ,KAMITAKARACHO NAGAKURA,,36.272266,137.416818
上宝町中山,カミタカラチョウナカヤマ,KAMITAKARACHO NAKAYAMA,,36.300839,137.388182
上宝町鼠餅,カミタカラチョウネズモチ,KAMITAKARACHO NEZUMOCHI,,36.244603,137.395932
上宝町本郷,カミタカラチョウホンゴウ,KAMITAKARACHO HONGO,,36.276699,137.35801
上宝町見座,カミタカラチョウミザ,KAMITAKARACHO MIZA,,36.29242,137.38491
上宝町宮原,カミタカラチョウミヤハラ,KAMITAKARACHO MIYAHARA,,36.281683,137.375798
上宝町吉野,カミタカラチョウヨシノ,KAMITAKARACHO YOSHINO,,36.288642,137.343664
上二之町,カミ2ノマチ,KAMI2-NOMACHI,,36.14174,137.260313
川原町,カワハラマチ,KAWAHARAMACHI,,36.138412,137.258837
神田町一丁目,カンダマチ 1,KANDAMACHI 1,,36.146116,137.255862
神田町二丁目,カンダマチ 2,KANDAMACHI 2,,36.149069,137.254631
清見町池本,キヨミチョウイケモト,KIYOMICHO IKEMOTO,,36.163108,137.057923
清見町江黒,キヨミチョウエグロ,KIYOMICHO EGURO,,36.187188,137.05366
清見町大谷,キヨミチョウオオタニ,KIYOMICHO OTANI,,36.149962,137.028505
清見町大原,キヨミチョウオッパラ,KIYOMICHO OPPARA,,35.958317,137.078808
清見町上小鳥,キヨミチョウカミオドリ,KIYOMICHO KAMIODORI,,36.093372,137.066981
清見町坂下,キヨミチョウサカシタ,KIYOMICHO SAKASHITA,,36.088564,137.12657
清見町巣野俣,キヨミチョウスノマタ,KIYOMICHO SUNOMATA,,36.056402,137.099237
清見町夏厩,キヨミチョウナツマヤ,KIYOMICHO NATSUMAYA,,36.146142,137.103638
清見町楢谷,キヨミチョウナラダニ,KIYOMICHO NARADANI,,35.99505,137.063356
清見町二本木,キヨミチョウニホンギ,KIYOMICHO NIHONGI,,36.157284,137.085753
清見町福寄,キヨミチョウフクヨリ,KIYOMICHO FUKUYORI,,36.098713,137.163838
清見町藤瀬,キヨミチョウフジセ,KIYOMICHO FUJISE,,36.099906,137.19226
清見町牧ケ洞,キヨミチョウマキガホラ,KIYOMICHO MAKIGAHORA,,36.147516,137.143162
清見町三日町,キヨミチョウミッカマチ,KIYOMICHO MIKKAMACHI,,36.127362,137.192219
清見町三ツ谷,キヨミチョウミツダニ,KIYOMICHO MITSUDANI,,36.069644,137.163805
清見町森茂,キヨミチョウモリモ,KIYOMICHO MORIMO,,36.168892,136.983633
桐生町一丁目,キリウマチ 1,KIRIUMACHI 1,,36.154408,137.254874
桐生町二丁目,キリウマチ 2,KIRIUMACHI 2,,36.154087,137.253111
桐生町三丁目,キリウマチ 3,KIRIUMACHI 3,,36.15409,137.251398
桐生町四丁目,キリウマチ 4,KIRIUMACHI 4,,36.154917,137.249282
桐生町五丁目,キリウマチ 5,KIRIUMACHI 5,,36.158764,137.253928
桐生町六丁目,キリウマチ 6,KIRIUMACHI 6,,36.158445,137.252169
桐生町七丁目,キリウマチ 7,KIRIUMACHI 7,,36.158356,137.250779
桐生町八丁目,キリウマチ 8,KIRIUMACHI 8,,36.158255,137.24866
久々野町阿多粕,クグノチョウアタガス,KUGUNOCHO ATAGASU,,36.003369,137.325134
久々野町有道,クグノチョウウトウ,KUGUNOCHO UTO,,36.040686,137.337406
久々野町大西,クグノチョウオオニシ,KUGUNOCHO ONISHI,,36.092978,137.288704
久々野町久々野,クグノチョウクグノ,KUGUNOCHO KUGUNO,,36.059069,137.269655
久々野町久須母,クグノチョウクスモ,KUGUNOCHO KUSUMO,,36.057276,137.294946
久々野町小坊,クグノチョウコボウ,KUGUNOCHO KOBO,,36.026398,137.307092
久々野町小屋名,クグノチョウコヤナ,KUGUNOCHO KOYANA,,36.096656,137.30797
久々野町辻,クグノチョウツジ,KUGUNOCHO TSUJI,,36.102942,137.313846
久々野町木賊洞,クグノチョウトクサボラ,KUGUNOCHO TOKUSABORA,,36.019582,137.282391
久々野町長淀,クグノチョウナガトロ,KUGUNOCHO NAGATORO,,36.011428,137.285094
久々野町渚,クグノチョウナギサ,KUGUNOCHO NAGISA,,36.006868,137.261074
久々野町引下,クグノチョウヒキサゲ,KUGUNOCHO HIKISAGE,,36.03097,137.281343
久々野町無数河,クグノチョウムスゴ,KUGUNOCHO MUSUGO,,36.044241,137.251223
久々野町柳島,クグノチョウヤナジマ,KUGUNOCHO YANAJIMA,,36.070056,137.303722
久々野町山梨,クグノチョウヤマナシ,KUGUNOCHO YAMANASHI,,36.080358,137.273362
国府町今,コクフチョウイマ,KOKUFUCHO IMA,,36.215874,137.248319
国府町宇津江,コクフチョウウツエ,KOKUFUCHO UTSUE,,36.197944,137.171693
国府町瓜巣,コクフチョウウリス,KOKUFUCHO URISU,,36.180462,137.186649
国府町漆垣内,コクフチョウウルシガイト,KOKUFUCHO URUSHIGAITO,,36.22302,137.233069
国府町金桶,コクフチョウカネオケ,KOKUFUCHO KANEOKE,,36.19888,137.230864
国府町上広瀬,コクフチョウカミヒロセ,KOKUFUCHO KAMIHIROSE,,36.20361,137.252048
国府町木曽垣内,コクフチョウキソガイト,KOKUFUCHO KISOGAITO,,36.221203,137.216677
国府町桐谷,コクフチョウキリダニ,KOKUFUCHO KIRIDANI,,36.23957,137.223263
国府町三川,コクフチョウサンガワ,KOKUFUCHO SANGAWA,,36.189083,137.264385
国府町鶴巣,コクフチョウツルス,KOKUFUCHO TSURUSU,,36.225208,137.208204
国府町名張,コクフチョウナバリ,KOKUFUCHO NABARI,,36.205395,137.211172
国府町西門前,コクフチョウニシモンゼン,KOKUFUCHO NISHIMONZEN,,36.229472,137.245496
国府町糠塚,コクフチョウヌカヅカ,KOKUFUCHO NUKAZUKA,,36.189546,137.233995
国府町半田,コクフチョウハンダ,KOKUFUCHO HANDA,,36.222774,137.224759
国府町東門前,コクフチョウヒガシモンゼン,KOKUFUCHO HIGASHIMONZEN,,36.226415,137.255698
国府町広瀬町,コクフチョウヒロセマチ,KOKUFUCHO HIROSEMACHI,,36.211772,137.213982
国府町三日町,コクフチョウミッカマチ,KOKUFUCHO MIKKAMACHI,,36.21407,137.221566
国府町蓑輪,コクフチョウミノワ,KOKUFUCHO MINOWA,,36.213946,137.234079
国府町宮地,コクフチョウミヤジ,KOKUFUCHO MIYAJI,,36.230591,137.273375
国府町村山,コクフチョウムラヤマ,KOKUFUCHO MURAYAMA,,36.194248,137.251935
国府町山本,コクフチョウヤマモト,KOKUFUCHO YAMAMOTO,,36.234736,137.207001
国府町八日町,コクフチョウヨウカマチ,KOKUFUCHO YOKAMACHI,,36.236053,137.239787
左京町,サキョウマチ,SAKYOMACHI,,36.147858,137.262794
桜町,サクラマチ,SAKURAMACHI,,36.147535,137.26079
三福寺町,サンフクジマチ,SANFUKUJIMACHI,,36.15624,137.268633
塩屋町,シオヤマチ,SHIOYAMACHI,,36.135599,137.314304
島川原町,シマカワハラマチ,SHIMAKAWAHARAMACHI,,36.140696,137.26441
下一之町,シモ1ノマチ,SHIMO1-NOMACHI,,36.144894,137.260031
下岡本町,シモオカモトマチ,SHIMOKAMOTOMACHI,,36.151665,137.2409
下切町,シモギリマチ,SHIMOGIRIMACHI,,36.180573,137.245524
下三之町,シモ3ノマチ,SHIMO3-NOMACHI,,36.14463,137.258257
下二之町,シモ2ノマチ,SHIMO2-NOMACHI,,36.144788,137.259128
下之切町,シモノキリマチ,SHIMONOKIRIMACHI,,36.149905,137.204482
下林町,シモバヤシマチ,SHIMOBAYASHIMACHI,,36.152546,137.220681
荘川町赤谷,ショウカワチョウアカダニ,SHOKAWACHO AKADANI,,36.086262,136.970583
荘川町新渕,ショウカワチョウアラブチ,SHOKAWACHO ARABUCHI,,36.032101,136.963235
荘川町一色,ショウカワチョウイッシキ,SHOKAWACHO ISSHIKI,,35.966901,136.983421
荘川町岩瀬,ショウカワチョウイワゼ,SHOKAWACHO IWAZE,,36.067009,136.941281
荘川町牛丸,ショウカワチョウウシマル,SHOKAWACHO USHIMARU,,36.05341,136.944195
荘川町尾上郷,ショウカワチョウオガミゴウ,SHOKAWACHO OGAMIGO,,36.055944,136.841603
荘川町海上,ショウカワチョウカイジョウ,SHOKAWACHO KAIJO,,36.091757,136.934564
荘川町黒谷,ショウカワチョウクロダニ,SHOKAWACHO KURODANI,,36.006739,137.023746
荘川町猿丸,ショウカワチョウサルマル,SHOKAWACHO SARUMARU,,36.022497,136.967864
荘川町三谷,ショウカワチョウサンダニ,SHOKAWACHO SANDANI,,36.046803,136.997799
荘川町惣則,ショウカワチョウソウノリ,SHOKAWACHO SONORI,,36.015678,136.97824
荘川町寺河戸,ショウカワチョウテラカワド,SHOKAWACHO TERAKAWADO,,35.981887,137.011151
荘川町中野,ショウカワチョウナカノ,SHOKAWACHO NAKANO,,36.085267,136.942933
荘川町中畑,ショウカワチョウナカハタ,SHOKAWACHO NAKAHATA,,36.042773,136.960763
荘川町野々俣,ショウカワチョウノノマタ,SHOKAWACHO NONOMATA,,36.013292,136.929576
荘川町牧戸,ショウカワチョウマキド,SHOKAWACHO MAKIDO,,36.048057,136.949917
荘川町町屋,ショウカワチョウマチヤ,SHOKAWACHO MACHIYA,,36.004539,136.952703
荘川町三尾河,ショウカワチョウミオゴ,SHOKAWACHO MIOGO,,36.023798,137.015545
荘川町六厩,ショウカワチョウムマヤ,SHOKAWACHO MUMAYA,,36.087395,137.017288
昭和町一丁目,ショウワマチ 1,SHOWAMACHI 1,,36.140685,137.250137
昭和町二丁目,ショウワマチ 2,SHOWAMACHI 2,,36.144701,137.249367
昭和町三丁目,ショウワマチ 3,SHOWAMACHI 3,,36.148453,137.249089
城山,シロヤマ,SHIROYAMA,,36.136095,137.26243
新宮町,シングウマチ,SHINGUMACHI,,36.126344,137.213505
神明町一丁目,シンメイマチ 1,SHIMMEIMACHI 1,,36.135403,137.25845
神明町二丁目,シンメイマチ 2,SHIMMEIMACHI 2,,36.137506,137.259355
神明町三丁目,シンメイマチ 3,SHIMMEIMACHI 3,,36.137642,137.260806
神明町四丁目,シンメイマチ 4,SHIMMEIMACHI 4,,36.139304,137.260703
末広町,スエヒロマチ,SUEHIROMACHI,,36.143763,137.255418
宗猷寺町,ソウユウジマチ,SOYUJIMACHI,,36.141114,137.267072
総和町一丁目,ソウワマチ 1,SOWAMACHI 1,,36.143696,137.254628
総和町二丁目,ソウワマチ 2,SOWAMACHI 2,,36.14602,137.254659
総和町三丁目,ソウワマチ 3,SOWAMACHI 3,,36.149501,137.253645
大門町,ダイモンマチ,DAIMOMMACHI,,36.144062,137.262503
高根町阿多野郷,タカネマチアタノゴウ,TAKANEMACHI ATANOGO,,36.061716,137.535247
高根町池ケ洞,タカネマチイケガホラ,TAKANEMACHI IKEGAHORA,,36.070653,137.48826
高根町猪之鼻,タカネマチイノハナ,TAKANEMACHI INOHANA,,36.020625,137.430983
高根町大古井,タカネマチオオブルイ,TAKANEMACHI OBURUI,,36.033333,137.46995
高根町上ケ洞,タカネマチカミガホラ,TAKANEMACHI KAMIGAHORA,,36.035607,137.493494
高根町黍生,タカネマチキビュウ,TAKANEMACHI KIBYU,,36.057975,137.508951
高根町小日和田,タカネマチコヒワダ,TAKANEMACHI KOHIWADA,,35.986341,137.540062
高根町下之向,タカネマチシモノムカイ,TAKANEMACHI SHIMONOMUKAI,,36.024043,137.456794
高根町留之原,タカネマチトメノハラ,TAKANEMACHI TOMENOHARA,,35.97468,137.523674
高根町中之宿,タカネマチナカノシュク,TAKANEMACHI NAKANOSHUKU,,36.030602,137.443914
高根町中洞,タカネマチナカボラ,TAKANEMACHI NAKABORA,,36.074628,137.453641
高根町野麦,タカネマチノムギ,TAKANEMACHI NOMUGI,,36.060282,137.578927
高根町日影,タカネマチヒカゲ,TAKANEMACHI HIKAGE,,36.003792,137.475436
高根町日和田,タカネマチヒワダ,TAKANEMACHI HIWADA,,35.974234,137.487624
滝町,タキマチ,TAKIMACHI,,36.146164,137.367091
匠ケ丘町,タクミガオカマチ,TAKUMIGAOKAMACHI,,36.140668,137.221734
千島町,チシママチ,CHISHIMAMACHI,,36.122284,137.250979
鉄砲町,テッポウマチ,TEPPOMACHI,,36.145212,137.261436
天性寺町,テンショウジマチ,TENSHOJIMACHI,,36.143579,137.266001
天満町一丁目,テンマンマチ 1,TEMMAMMACHI 1,,36.132763,137.2548
天満町二丁目,テンマンマチ 2,TEMMAMMACHI 2,,36.135278,137.254695
天満町三丁目,テンマンマチ 3,TEMMAMMACHI 3,,36.137337,137.254366
天満町四丁目,テンマンマチ 4,TEMMAMMACHI 4,,36.13946,137.253929
天満町五丁目,テンマンマチ 5,TEMMAMMACHI 5,,36.140924,137.253852
天満町六丁目,テンマンマチ 6,TEMMAMMACHI 6,,36.142015,137.25365
問屋町,トンヤマチ,TONYAMACHI,,36.15908,137.24512
中切町,ナカギリマチ,NAKAGIRIMACHI,,36.175546,137.220419
長坂町,ナガサカマチ,NAGASAKAMACHI,,36.146658,137.271435
中山町,ナカヤママチ,NAKAYAMAMACHI,,36.153485,137.23495
名田町一丁目,ナダマチ 1,NADAMACHI 1,,36.132943,137.255973
名田町二丁目,ナダマチ 2,NADAMACHI 2,,36.13516,137.255975
名田町三丁目,ナダマチ 3,NADAMACHI 3,,36.137319,137.255804
名田町四丁目,ナダマチ 4,NADAMACHI 4,,36.139331,137.254742
名田町五丁目,ナダマチ 5,NADAMACHI 5,,36.140735,137.255737
名田町六丁目,ナダマチ 6,NADAMACHI 6,,36.142056,137.254672
七日町一丁目,ナヌカマチ 1,NANUKAMACHI 1,,36.146857,137.256581
七日町二丁目,ナヌカマチ 2,NANUKAMACHI 2,,36.148697,137.256091
七日町三丁目,ナヌカマチ 3,NANUKAMACHI 3,,36.15088,137.255357
西之一色町一丁目,ニシノイッシキマチ 1,NISHINOISSHIKIMACHI 1,,36.134377,137.250509
西之一色町二丁目,ニシノイッシキマチ 2,NISHINOISSHIKIMACHI 2,,36.136878,137.249548
西之一色町三丁目,ニシノイッシキマチ 3,NISHINOISSHIKIMACHI 3,,36.129692,137.243904
西洞町,ニシボラマチ,NISHIBORAMACHI,,36.143903,137.269302
西町,ニシマチ,NISHIMACHI,,36.13751,137.257602
丹生川町芦谷,ニュウカワチョウアシタニ,NYUKAWACHO ASHITANI,,36.179508,137.403263
丹生川町池之俣,ニュウカワチョウイケノマタ,NYUKAWACHO IKENOMATA,,36.156067,137.503005
丹生川町板殿,ニュウカワチョウイタンド,NYUKAWACHO ITANDO,,36.186455,137.407506
丹生川町岩井谷,ニュウカワチョウイワイタニ,NYUKAWACHO IWAITANI,,36.136323,137.517736
丹生川町瓜田,ニュウカワチョウウリダ,NYUKAWACHO URIDA,,36.184909,137.374313
丹生川町大萱,ニュウカワチョウオオガヤ,NYUKAWACHO OGAYA,,36.190602,137.338881
丹生川町大谷,ニュウカワチョウオオタニ,NYUKAWACHO OTANI,,36.164196,137.369354
丹生川町大沼,ニュウカワチョウオオヌマ,NYUKAWACHO ONUMA,,36.20347,137.327077
丹生川町折敷地,ニュウカワチョウオシキジ,NYUKAWACHO OSHIKIJI,,36.224862,137.370367
丹生川町柏原,ニュウカワチョウカシハラ,NYUKAWACHO KASHIHARA,,36.20891,137.288929
丹生川町北方,ニュウカワチョウキタカタ,NYUKAWACHO KITAKATA,,36.175104,137.319752
丹生川町桐山,ニュウカワチョウキリヤマ,NYUKAWACHO KIRIYAMA,,36.185946,137.311106
丹生川町久手,ニュウカワチョウクテ,NYUKAWACHO KUTE,,36.175573,137.502201
丹生川町小野,ニュウカワチョウコノ,NYUKAWACHO KONO,,36.166115,137.396784
丹生川町根方,ニュウカワチョウゴンボウ,NYUKAWACHO GOMBO,,36.186039,137.391821
丹生川町三之瀬,ニュウカワチョウサンノセ,NYUKAWACHO SANNOSE,,36.206936,137.302844
丹生川町塩屋,ニュウカワチョウシオヤ,NYUKAWACHO SHIOYA,,36.171649,137.440507
丹生川町下保,ニュウカワチョウシモボ,NYUKAWACHO SHIMOBO,,36.186595,137.288271
丹生川町白井,ニュウカワチョウシロイ,NYUKAWACHO SHIROI,,36.176598,137.393471
丹生川町曽手,ニュウカワチョウソデ,NYUKAWACHO SODE,,36.181819,137.446916
丹生川町駄吉,ニュウカワチョウダヨシ,NYUKAWACHO DAYOSHI,,36.159213,137.43021
丹生川町新張,ニュウカワチョウニイバリ,NYUKAWACHO NIIBARI,,36.171844,137.279602
丹生川町旗鉾,ニュウカワチョウハタホコ,NYUKAWACHO HATAHOKO,,36.194246,137.468402
丹生川町日影,ニュウカワチョウヒカゲ,NYUKAWACHO HIKAGE,,36.16892,137.413702
丹生川町日面,ニュウカワチョウヒヨモ,NYUKAWACHO HIYOMO,,36.187158,137.428221
丹生川町坊方,ニュウカワチョウボウカタ,NYUKAWACHO BOKATA,,36.168462,137.326686
丹生川町法力,ニュウカワチョウホウリキ,NYUKAWACHO HORIKI,,36.182745,137.355349
丹生川町細越,ニュウカワチョウホソゴエ,NYUKAWACHO HOSOGOE,,36.178115,137.295421
丹生川町町方,ニュウカワチョウマチカタ,NYUKAWACHO MACHIKATA,,36.164199,137.30555
丹生川町森部,ニュウカワチョウモリブ,NYUKAWACHO MORIBU,,36.229587,137.315233
丹生川町山口,ニュウカワチョウヤマクチ,NYUKAWACHO YAMAKUCHI,,36.158882,137.344272
八軒町一丁目,ハチケンマチ 1,HACHIKEMMACHI 1,,36.138571,137.257584
八軒町二丁目,ハチケンマチ 2,HACHIKEMMACHI 2,,36.138545,137.256504
八軒町三丁目,ハチケンマチ 3,HACHIKEMMACHI 3,,36.138659,137.255566
八幡町,ハチマンマチ,HACHIMAMMACHI,,36.14831,137.259596
初田町一丁目,ハツダマチ 1,HATSUDAMACHI 1,,36.143683,137.253502
初田町二丁目,ハツダマチ 2,HATSUDAMACHI 2,,36.145894,137.253309
初田町三丁目,ハツダマチ 3,HATSUDAMACHI 3,,36.149364,137.2526
花岡町一丁目,ハナオカマチ 1,HANAOKAMACHI 1,,36.143632,137.251988
花岡町二丁目,ハナオカマチ 2,HANAOKAMACHI 2,,36.14569,137.251819
花岡町三丁目,ハナオカマチ 3,HANAOKAMACHI 3,,36.149451,137.251141
花川町,ハナカワマチ,HANAKAWAMACHI,,36.142002,137.255808
花里町一丁目,ハナサトマチ 1,HANASATOMACHI 1,,36.131716,137.251776
花里町二丁目,ハナサトマチ 2,HANASATOMACHI 2,,36.135282,137.253007
花里町三丁目,ハナサトマチ 3,HANASATOMACHI 3,,36.137597,137.252656
花里町四丁目,ハナサトマチ 4,HANASATOMACHI 4,,36.1395,137.252505
花里町五丁目,ハナサトマチ 5,HANASATOMACHI 5,,36.140814,137.252719
花里町六丁目,ハナサトマチ 6,HANASATOMACHI 6,,36.142155,137.252298
馬場町一丁目,ババマチ 1,BABAMACHI 1,,36.140654,137.261852
馬場町二丁目,ババマチ 2,BABAMACHI 2,,36.142947,137.262278
東山町,ヒガシヤママチ,HIGASHIYAMAMACHI,,36.145886,137.26676
日の出町一丁目,ヒノデマチ 1,HINODEMACHI 1,,36.146442,137.272522
日の出町二丁目,ヒノデマチ 2,HINODEMACHI 2,,36.147091,137.273648
日の出町三丁目,ヒノデマチ 3,HINODEMACHI 3,,36.146362,137.274649
吹屋町,フキヤマチ,FUKIYAMACHI,,36.142601,137.263793
冬頭町,フユトウマチ,FUYUTOMACHI,,36.164014,137.241803
本母町,ホノブマチ,HONOBUMACHI,,36.162903,137.248418
堀端町,ホリバタマチ,HORIBATAMACHI,,36.140446,137.26266
本町一丁目,ホンマチ 1,HOMMACHI 1,,36.140377,137.258026
本町二丁目,ホンマチ 2,HOMMACHI 2,,36.141964,137.258044
本町三丁目,ホンマチ 3,HOMMACHI 3,,36.14386,137.25734
本町四丁目,ホンマチ 4,HOMMACHI 4,,36.145524,137.256924
前原町,マエハラマチ,MAEHARAMACHI,,36.15539,137.193863
松倉町,マツクラマチ,MATSUKURAMACHI,,36.111752,137.216522
松之木町,マツノキマチ,MATSUNOKIMACHI,,36.151716,137.281217
松本町,マツモトマチ,MATSUMOTOMACHI,,36.166787,137.25412
緑ケ丘町一丁目,ミドリガオカマチ 1,MIDORIGAOKAMACHI 1,,36.141275,137.231289
緑ケ丘町二丁目,ミドリガオカマチ 2,MIDORIGAOKAMACHI 2,,36.13993,137.233719
森下町一丁目,モリシタマチ 1,MORISHITAMACHI 1,,36.131067,137.259468
森下町二丁目,モリシタマチ 2,MORISHITAMACHI 2,,36.133166,137.258203
山口町,ヤマグチマチ,YAMAGUCHIMACHI,,36.126714,137.298838
山田町,ヤマダマチ,YAMADAMACHI,,36.141775,137.227919
八日町,ヨウカマチ,YOKAMACHI,,36.149954,137.176119
若達町一丁目,ワカタツマチ 1,WAKATATSUMACHI 1,,36.145466,137.263987
若達町二丁目,ワカタツマチ 2,WAKATATSUMACHI 2,,36.145862,137.262935
国府町広瀬町,コクフチョウヒロセマチ,KOKUFUCHO HIROSEMACHI,諏訪前,36.213751,137.207418
