name,name_kana,name_romaji,nickname,latitude,longitude
鵜沼,ウヌマ,UNUMA,,35.422189,136.943092
鵜沼朝日町一丁目,ウヌマアサヒマチ 1,UNUMA ASAHIMACHI 1,,35.391102,136.893193
鵜沼朝日町二丁目,ウヌマアサヒマチ 2,UNUMA ASAHIMACHI 2,,35.391392,136.90025
鵜沼朝日町三丁目,ウヌマアサヒマチ 3,UNUMA ASAHIMACHI 3,,35.387532,136.900571
鵜沼朝日町四丁目,ウヌマアサヒマチ 4,UNUMA ASAHIMACHI 4,,35.392816,136.906734
鵜沼朝日町五丁目,ウヌマアサヒマチ 5,UNUMA ASAHIMACHI 5,,35.389691,136.907182
鵜沼大伊木町一丁目,ウヌマオオイギチョウ 1,UNUMA OIGICHO 1,,35.391086,136.912488
鵜沼大伊木町二丁目,ウヌマオオイギチョウ 2,UNUMA OIGICHO 2,,35.387165,136.90783
鵜沼大伊木町三丁目,ウヌマオオイギチョウ 3,UNUMA OIGICHO 3,,35.384079,136.901326
鵜沼大伊木町四丁目,ウヌマオオイギチョウ 4,UNUMA OIGICHO 4,,35.382162,136.905046
鵜沼大伊木町五丁目,ウヌマオオイギチョウ 5,UNUMA OIGICHO 5,,35.384733,136.910845
鵜沼大伊木町六丁目,ウヌマオオイギチョウ 6,UNUMA OIGICHO 6,,35.382697,136.912929
鵜沼各務原町一丁目,ウヌマカカミガハラチョウ 1,UNUMA KAKAMIGAHARACHO 1,,35.402673,136.89851
鵜沼各務原町二丁目,ウヌマカカミガハラチョウ 2,UNUMA KAKAMIGAHARACHO 2,,35.399986,136.898447
鵜沼各務原町三丁目,ウヌマカカミガハラチョウ 3,UNUMA KAKAMIGAHARACHO 3,,35.401144,136.902828
鵜沼各務原町四丁目,ウヌマカカミガハラチョウ 4,UNUMA KAKAMIGAHARACHO 4,,35.402238,136.907147
鵜沼各務原町五丁目,ウヌマカカミガハラチョウ 5,UNUMA KAKAMIGAHARACHO 5,,35.402525,136.912026
鵜沼各務原町六丁目,ウヌマカカミガハラチョウ 6,UNUMA KAKAMIGAHARACHO 6,,35.398656,136.909785
鵜沼各務原町七丁目,ウヌマカカミガハラチョウ 7,UNUMA KAKAMIGAHARACHO 7,,35.395742,136.900763
鵜沼各務原町八丁目,ウヌマカカミガハラチョウ 8,UNUMA KAKAMIGAHARACHO 8,,35.396297,136.905627
鵜沼各務原町九丁目,ウヌマカカミガハラチョウ 9,UNUMA KAKAMIGAHARACHO 9,,35.395886,136.911805
鵜沼川崎町一丁目,ウヌマカワサキチョウ 1,UNUMA KAWASAKICHO 1,,35.404863,136.879504
鵜沼川崎町二丁目,ウヌマカワサキチョウ 2,UNUMA KAWASAKICHO 2,,35.402324,136.879171
鵜沼川崎町三丁目,ウヌマカワサキチョウ 3,UNUMA KAWASAKICHO 3,,35.401283,136.879967
鵜沼小伊木町一丁目,ウヌマコイギチョウ 1,UNUMA KOIGICHO 1,,35.391922,136.930126
鵜沼小伊木町二丁目,ウヌマコイギチョウ 2,UNUMA KOIGICHO 2,,35.38998,136.933077
鵜沼小伊木町三丁目,ウヌマコイギチョウ 3,UNUMA KOIGICHO 3,,35.390453,136.924095
鵜沼小伊木町四丁目,ウヌマコイギチョウ 4,UNUMA KOIGICHO 4,,35.387073,136.929177
鵜沼台一丁目,ウヌマダイ 1,UNUMADAI 1,,35.407678,136.946837
鵜沼台二丁目,ウヌマダイ 2,UNUMADAI 2,,35.406865,136.94474
鵜沼台三丁目,ウヌマダイ 3,UNUMADAI 3,,35.405966,136.945694
鵜沼台四丁目,ウヌマダイ 4,UNUMADAI 4,,35.404514,136.945455
鵜沼台五丁目,ウヌマダイ 5,UNUMADAI 5,,35.405249,136.947031
鵜沼台六丁目,ウヌマダイ 6,UNUMADAI 6,,35.406696,136.947909
鵜沼台七丁目,ウヌマダイ 7,UNUMADAI 7,,35.404132,136.948088
鵜沼台八丁目,ウヌマダイ 8,UNUMADAI 8,,35.40635,136.9432
鵜沼大安寺町一丁目,ウヌマダイアンジチョウ 1,UNUMA DAIANJICHO 1,,35.419571,136.933264
鵜沼大安寺町二丁目,ウヌマダイアンジチョウ 2,UNUMA DAIANJICHO 2,,35.413805,136.939138
鵜沼西町一丁目,ウヌマニシマチ 1,UNUMA NISHIMACHI 1,,35.404904,136.933618
鵜沼西町二丁目,ウヌマニシマチ 2,UNUMA NISHIMACHI 2,,35.408097,136.938137
鵜沼西町三丁目,ウヌマニシマチ 3,UNUMA NISHIMACHI 3,,35.401228,136.933228
鵜沼西町四丁目,ウヌマニシマチ 4,UNUMA NISHIMACHI 4,,35.3988,136.932978
鵜沼羽場町一丁目,ウヌマハバチョウ 1,UNUMA HABACHO 1,,35.4059,136.918641
鵜沼羽場町二丁目,ウヌマハバチョウ 2,UNUMA HABACHO 2,,35.406017,136.923888
鵜沼羽場町三丁目,ウヌマハバチョウ 3,UNUMA HABACHO 3,,35.402807,136.918282
鵜沼羽場町四丁目,ウヌマハバチョウ 4,UNUMA HABACHO 4,,35.402467,136.92369
鵜沼羽場町五丁目,ウヌマハバチョウ 5,UNUMA HABACHO 5,,35.402666,136.927422
鵜沼羽場町六丁目,ウヌマハバチョウ 6,UNUMA HABACHO 6,,35.400793,136.9189
鵜沼羽場町七丁目,ウヌマハバチョウ 7,UNUMA HABACHO 7,,35.396616,136.916201
鵜沼羽場町八丁目,ウヌマハバチョウ 8,UNUMA HABACHO 8,,35.395452,136.920793
鵜沼東町一丁目,ウヌマヒガシマチ 1,UNUMA HIGASHIMACHI 1,,35.404948,136.93949
鵜沼東町二丁目,ウヌマヒガシマチ 2,UNUMA HIGASHIMACHI 2,,35.404697,136.94195
鵜沼東町三丁目,ウヌマヒガシマチ 3,UNUMA HIGASHIMACHI 3,,35.402541,136.944209
鵜沼東町四丁目,ウヌマヒガシマチ 4,UNUMA HIGASHIMACHI 4,,35.400875,136.938351
鵜沼東町五丁目,ウヌマヒガシマチ 5,UNUMA HIGASHIMACHI 5,,35.40135,136.941138
鵜沼東町六丁目,ウヌマヒガシマチ 6,UNUMA HIGASHIMACHI 6,,35.401057,136.943672
鵜沼東町七丁目,ウヌマヒガシマチ 7,UNUMA HIGASHIMACHI 7,,35.401389,136.94762
鵜沼東町八丁目,ウヌマヒガシマチ 8,UNUMA HIGASHIMACHI 8,,35.402924,136.946139
鵜沼古市場町一丁目,ウヌマフルイチバチョウ 1,UNUMA FURUICHIBACHO 1,,35.395509,136.930729
鵜沼古市場町二丁目,ウヌマフルイチバチョウ 2,UNUMA FURUICHIBACHO 2,,35.395433,136.934863
鵜沼古市場町三丁目,ウヌマフルイチバチョウ 3,UNUMA FURUICHIBACHO 3,,35.392007,136.933407
鵜沼古市場町四丁目,ウヌマフルイチバチョウ 4,UNUMA FURUICHIBACHO 4,,35.393283,136.936442
鵜沼宝積寺町一丁目,ウヌマホウシャクジチョウ 1,UNUMA HOSHAKUJICHO 1,,35.401203,136.956231
鵜沼宝積寺町二丁目,ウヌマホウシャクジチョウ 2,UNUMA HOSHAKUJICHO 2,,35.402173,136.960425
鵜沼宝積寺町三丁目,ウヌマホウシャクジチョウ 3,UNUMA HOSHAKUJICHO 3,,35.406563,136.961826
鵜沼宝積寺町四丁目,ウヌマホウシャクジチョウ 4,UNUMA HOSHAKUJICHO 4,,35.404137,136.959326
鵜沼宝積寺町五丁目,ウヌマホウシャクジチョウ 5,UNUMA HOSHAKUJICHO 5,,35.406637,136.959696
鵜沼宝積寺町六丁目,ウヌマホウシャクジチョウ 6,UNUMA HOSHAKUJICHO 6,,35.409158,136.959802
鵜沼真名越町一丁目,ウヌママナゴシチョウ 1,UNUMA MANAGOSHICHO 1,,35.399653,136.926122
鵜沼真名越町二丁目,ウヌママナゴシチョウ 2,UNUMA MANAGOSHICHO 2,,35.396935,136.925622
鵜沼真名越町三丁目,ウヌママナゴシチョウ 3,UNUMA MANAGOSHICHO 3,,35.39404,136.9248
鵜沼丸子町一丁目,ウヌママルコチョウ 1,UNUMA MARUKOCHO 1,,35.391533,136.917699
鵜沼丸子町二丁目,ウヌママルコチョウ 2,UNUMA MARUKOCHO 2,,35.388246,136.919598
鵜沼丸子町三丁目,ウヌママルコチョウ 3,UNUMA MARUKOCHO 3,,35.388297,136.916431
鵜沼三ツ池町一丁目,ウヌマミツイケチョウ 1,UNUMA MITSUIKECHO 1,,35.404677,136.883092
鵜沼三ツ池町二丁目,ウヌマミツイケチョウ 2,UNUMA MITSUIKECHO 2,,35.401935,136.8853
鵜沼三ツ池町三丁目,ウヌマミツイケチョウ 3,UNUMA MITSUIKECHO 3,,35.401644,136.892102
鵜沼三ツ池町四丁目,ウヌマミツイケチョウ 4,UNUMA MITSUIKECHO 4,,35.39829,136.889301
鵜沼三ツ池町五丁目,ウヌマミツイケチョウ 5,UNUMA MITSUIKECHO 5,,35.399034,136.89541
鵜沼三ツ池町六丁目,ウヌマミツイケチョウ 6,UNUMA MITSUIKECHO 6,,35.394728,136.893745
鵜沼南町一丁目,ウヌマミナミマチ 1,UNUMA MINAMIMACHI 1,,35.397772,136.93826
鵜沼南町二丁目,ウヌマミナミマチ 2,UNUMA MINAMIMACHI 2,,35.397426,136.940676
鵜沼南町三丁目,ウヌマミナミマチ 3,UNUMA MINAMIMACHI 3,,35.395357,136.939543
鵜沼南町四丁目,ウヌマミナミマチ 4,UNUMA MINAMIMACHI 4,,35.392337,136.939773
鵜沼南町五丁目,ウヌマミナミマチ 5,UNUMA MINAMIMACHI 5,,35.396411,136.943041
鵜沼南町六丁目,ウヌマミナミマチ 6,UNUMA MINAMIMACHI 6,,35.393833,136.943333
鵜沼南町七丁目,ウヌマミナミマチ 7,UNUMA MINAMIMACHI 7,,35.395416,136.945462
鵜沼山崎町一丁目,ウヌマヤマザキチョウ 1,UNUMA YAMAZAKICHO 1,,35.399372,136.941019
鵜沼山崎町二丁目,ウヌマヤマザキチョウ 2,UNUMA YAMAZAKICHO 2,,35.398976,136.942899
鵜沼山崎町三丁目,ウヌマヤマザキチョウ 3,UNUMA YAMAZAKICHO 3,,35.398806,136.944928
鵜沼山崎町四丁目,ウヌマヤマザキチョウ 4,UNUMA YAMAZAKICHO 4,,35.398279,136.947241
鵜沼山崎町五丁目,ウヌマヤマザキチョウ 5,UNUMA YAMAZAKICHO 5,,35.398531,136.948816
鵜沼山崎町六丁目,ウヌマヤマザキチョウ 6,UNUMA YAMAZAKICHO 6,,35.400475,136.948797
鵜沼山崎町七丁目,ウヌマヤマザキチョウ 7,UNUMA YAMAZAKICHO 7,,35.399338,136.950995
鵜沼山崎町八丁目,ウヌマヤマザキチョウ 8,UNUMA YAMAZAKICHO 8,,35.39639,136.951068
鵜沼山崎町九丁目,ウヌマヤマザキチョウ 9,UNUMA YAMAZAKICHO 9,,35.396438,136.94782
大佐野町,オオザノチョウ,OZANOCHO,,35.376416,136.841871
大佐野町一丁目,オオザノチョウ 1,OZANOCHO 1,,35.383104,136.837448
大佐野町二丁目,オオザノチョウ 2,OZANOCHO 2,,35.384216,136.841238
大佐野町三丁目,オオザノチョウ 3,OZANOCHO 3,,35.380614,136.84174
大野町一丁目,オオノチョウ 1,ONOCHO 1,,35.389773,136.816904
大野町二丁目,オオノチョウ 2,ONOCHO 2,,35.38948,136.818906
大野町三丁目,オオノチョウ 3,ONOCHO 3,,35.388881,136.821715
大野町四丁目,オオノチョウ 4,ONOCHO 4,,35.388187,136.824556
大野町五丁目,オオノチョウ 5,ONOCHO 5,,35.387683,136.826883
大野町六丁目,オオノチョウ 6,ONOCHO 6,,35.386303,136.818168
大野町七丁目,オオノチョウ 7,ONOCHO 7,,35.385926,136.820841
尾崎北町一丁目,オザキキタマチ 1,OZAKI KITAMACHI 1,,35.426218,136.830627
尾崎北町二丁目,オザキキタマチ 2,OZAKI KITAMACHI 2,,35.426214,136.832723
尾崎北町三丁目,オザキキタマチ 3,OZAKI KITAMACHI 3,,35.426226,136.834745
尾崎北町四丁目,オザキキタマチ 4,OZAKI KITAMACHI 4,,35.426511,136.83773
尾崎北町五丁目,オザキキタマチ 5,OZAKI KITAMACHI 5,,35.425847,136.837613
尾崎北町六丁目,オザキキタマチ 6,OZAKI KITAMACHI 6,,35.424763,136.8352
尾崎北町七丁目,オザキキタマチ 7,OZAKI KITAMACHI 7,,35.424917,136.838066
尾崎西町一丁目,オザキニシマチ 1,OZAKI NISHIMACHI 1,,35.425327,136.82623
尾崎西町二丁目,オザキニシマチ 2,OZAKI NISHIMACHI 2,,35.423088,136.823429
尾崎西町三丁目,オザキニシマチ 3,OZAKI NISHIMACHI 3,,35.423742,136.826487
尾崎西町四丁目,オザキニシマチ 4,OZAKI NISHIMACHI 4,,35.421488,136.826499
尾崎西町五丁目,オザキニシマチ 5,OZAKI NISHIMACHI 5,,35.424033,136.82813
尾崎南町一丁目,オザキミナミマチ 1,OZAKI MINAMIMACHI 1,,35.422102,136.828286
尾崎南町二丁目,オザキミナミマチ 2,OZAKI MINAMIMACHI 2,,35.421965,136.831445
尾崎南町三丁目,オザキミナミマチ 3,OZAKI MINAMIMACHI 3,,35.423796,136.83037
尾崎南町四丁目,オザキミナミマチ 4,OZAKI MINAMIMACHI 4,,35.423797,136.83298
尾崎南町五丁目,オザキミナミマチ 5,OZAKI MINAMIMACHI 5,,35.423508,136.834503
尾崎南町六丁目,オザキミナミマチ 6,OZAKI MINAMIMACHI 6,,35.423155,136.836785
各務,カカミオガセチョウ,KAKAMI OGASECHO,,35.425504,136.926423
各務おがせ町一丁目,カカミオガセチョウ 1,KAKAMI OGASECHO 1,,35.424285,136.902842
各務おがせ町二丁目,カカミオガセチョウ 2,KAKAMI OGASECHO 2,,35.42007,136.900528
各務おがせ町三丁目,カカミオガセチョウ 3,KAKAMI OGASECHO 3,,35.419406,136.905544
各務おがせ町四丁目,カカミオガセチョウ 4,KAKAMI OGASECHO 4,,35.416385,136.901645
各務おがせ町五丁目,カカミオガセチョウ 5,KAKAMI OGASECHO 5,,35.416187,136.907295
各務おがせ町六丁目,カカミオガセチョウ 6,KAKAMI OGASECHO 6,,35.412424,136.905016
各務おがせ町七丁目,カカミオガセチョウ 7,KAKAMI OGASECHO 7,,35.411371,136.908678
各務おがせ町八丁目,カカミオガセチョウ 8,KAKAMI OGASECHO 8,,35.411435,136.914796
各務おがせ町九丁目,カカミオガセチョウ 9,KAKAMI OGASECHO 9,,35.407384,136.912772
各務西町一丁目,カカミニシマチ 1,KAKAMI NISHIMACHI 1,,35.414665,136.885588
各務西町二丁目,カカミニシマチ 2,KAKAMI NISHIMACHI 2,,35.416366,136.892274
各務西町三丁目,カカミニシマチ 3,KAKAMI NISHIMACHI 3,,35.417432,136.897192
各務西町四丁目,カカミニシマチ 4,KAKAMI NISHIMACHI 4,,35.410074,136.885822
各務西町五丁目,カカミニシマチ 5,KAKAMI NISHIMACHI 5,,35.411405,136.892469
各務西町六丁目,カカミニシマチ 6,KAKAMI NISHIMACHI 6,,35.412462,136.89831
各務東町一丁目,カカミヒガシマチ 1,KAKAMI HIGASHIMACHI 1,,35.424951,136.912725
各務東町二丁目,カカミヒガシマチ 2,KAKAMI HIGASHIMACHI 2,,35.423002,136.907711
各務東町三丁目,カカミヒガシマチ 3,KAKAMI HIGASHIMACHI 3,,35.42022,136.911357
各務東町四丁目,カカミヒガシマチ 4,KAKAMI HIGASHIMACHI 4,,35.418279,136.9096
各務東町五丁目,カカミヒガシマチ 5,KAKAMI HIGASHIMACHI 5,,35.423187,136.918952
各務東町六丁目,カカミヒガシマチ 6,KAKAMI HIGASHIMACHI 6,,35.41981,136.914565
各務東町七丁目,カカミヒガシマチ 7,KAKAMI HIGASHIMACHI 7,,35.415592,136.916058
各務船山町一丁目,カカミフナヤマチョウ 1,KAKAMI FUNAYAMACHO 1,,35.419008,136.885819
各務船山町二丁目,カカミフナヤマチョウ 2,KAKAMI FUNAYAMACHO 2,,35.418022,136.888793
各務山の前町一丁目,カカミヤマノマエチョウ 1,KAKAMI YAMANOMAECHO 1,,35.406196,136.888562
各務山の前町二丁目,カカミヤマノマエチョウ 2,KAKAMI YAMANOMAECHO 2,,35.406504,136.895418
各務山の前町三丁目,カカミヤマノマエチョウ 3,KAKAMI YAMANOMAECHO 3,,35.406692,136.900958
各務山の前町四丁目,カカミヤマノマエチョウ 4,KAKAMI YAMANOMAECHO 4,,35.40713,136.906337
神置町,カミオキチョウ,KAMIOKICHO,,35.377735,136.827175
神置町一丁目,カミオキチョウ 1,KAMIOKICHO 1,,35.380936,136.819997
神置町二丁目,カミオキチョウ 2,KAMIOKICHO 2,,35.380704,136.822362
神置町三丁目,カミオキチョウ 3,KAMIOKICHO 3,,35.380667,136.825688
神置町四丁目,カミオキチョウ 4,KAMIOKICHO 4,,35.380459,136.829144
上中屋町,カミナカヤチョウ,KAMINAKAYACHO,,35.375183,136.849664
上中屋町一丁目,カミナカヤチョウ 1,KAMINAKAYACHO 1,,35.378974,136.845546
上中屋町二丁目,カミナカヤチョウ 2,KAMINAKAYACHO 2,,35.378512,136.849611
上中屋町三丁目,カミナカヤチョウ 3,KAMINAKAYACHO 3,,35.378703,136.852705
上中屋町四丁目,カミナカヤチョウ 4,KAMINAKAYACHO 4,,35.380296,136.855762
上中屋町五丁目,カミナカヤチョウ 5,KAMINAKAYACHO 5,,35.377919,136.855731
川崎町,カワサキチョウ,KAWASAKICHO,,35.401871,136.873856
川島笠田町,カワシマカサダマチ,KAWASHIMA KASADAMACHI,,35.371498,136.821441
川島笠田町一丁目,カワシマカサダマチ 1,KAWASHIMA KASADAMACHI 1,,35.372387,136.82022
川島笠田町二丁目,カワシマカサダマチ 2,KAWASHIMA KASADAMACHI 2,,35.372394,136.81717
川島笠田町三丁目,カワシマカサダマチ 3,KAWASHIMA KASADAMACHI 3,,35.371818,136.813989
川島笠田町四丁目,カワシマカサダマチ 4,KAWASHIMA KASADAMACHI 4,,35.370358,136.816593
川島笠田町五丁目,カワシマカサダマチ 5,KAWASHIMA KASADAMACHI 5,,35.370116,136.814724
川島笠田町六丁目,カワシマカサダマチ 6,KAWASHIMA KASADAMACHI 6,,35.369855,136.812295
川島北山町,カワシマキタヤママチ,KAWASHIMA KITAYAMAMACHI,,35.366357,136.804461
川島小網町,カワシマコアミマチ,KAWASHIMA KOAMIMACHI,,35.367087,136.85159
川島河田町,カワシマコウダマチ,KAWASHIMA KODAMACHI,,35.363248,136.831441
川島河田町一丁目,カワシマコウダマチ 1,KAWASHIMA KODAMACHI 1,,35.362456,136.834997
川島河田町二丁目,カワシマコウダマチ 2,KAWASHIMA KODAMACHI 2,,35.363294,136.835768
川島河田町三丁目,カワシマコウダマチ 3,KAWASHIMA KODAMACHI 3,,35.362267,136.835912
川島竹早町,カワシマタケハヤマチ,KAWASHIMA TAKEHAYAMACHI,,35.363382,136.840343
川島松倉町,カワシママツクラマチ,KAWASHIMA MATSUKURAMACHI,,35.368039,136.834299
川島松原町,カワシママツバラマチ,KAWASHIMA MATSUBARAMACHI,,35.362719,136.824952
川島緑町一丁目,カワシマミドリマチ 1,KAWASHIMA MIDORIMACHI 1,,35.364759,136.820361
川島緑町二丁目,カワシマミドリマチ 2,KAWASHIMA MIDORIMACHI 2,,35.364186,136.815998
川島緑町三丁目,カワシマミドリマチ 3,KAWASHIMA MIDORIMACHI 3,,35.363656,136.822395
川島緑町四丁目,カワシマミドリマチ 4,KAWASHIMA MIDORIMACHI 4,,35.363225,136.81889
川島緑町五丁目,カワシマミドリマチ 5,KAWASHIMA MIDORIMACHI 5,,35.362624,136.816812
川島渡町,カワシマワタリマチ,KAWASHIMA WATARIMACHI,,35.363391,136.797891
金属団地,キンゾクダンチ,KINZOKUDANCHI,,35.393484,136.829143
小佐野町一丁目,コザノチョウ 1,KOZANOCHO 1,,35.390511,136.829333
小佐野町二丁目,コザノチョウ 2,KOZANOCHO 2,,35.389108,136.828701
小佐野町三丁目,コザノチョウ 3,KOZANOCHO 3,,35.389018,136.83226
小佐野町四丁目,コザノチョウ 4,KOZANOCHO 4,,35.388076,136.834465
小佐野町五丁目,コザノチョウ 5,KOZANOCHO 5,,35.386893,136.837357
小佐野町六丁目,コザノチョウ 6,KOZANOCHO 6,,35.385469,136.834184
小佐野町七丁目,コザノチョウ 7,KOZANOCHO 7,,35.386641,136.830777
桜木町一丁目,サクラギチョウ 1,SAKURAGICHO 1,,35.397011,136.953741
桜木町二丁目,サクラギチョウ 2,SAKURAGICHO 2,,35.398579,136.955096
桜木町三丁目,サクラギチョウ 3,SAKURAGICHO 3,,35.397736,136.95684
桜木町四丁目,サクラギチョウ 4,SAKURAGICHO 4,,35.39955,136.956561
桜木町五丁目,サクラギチョウ 5,SAKURAGICHO 5,,35.399724,136.95871
下切町,シモギリチョウ,SHIMOGIRICHO,,35.376756,136.867841
下切町一丁目,シモギリチョウ 1,SHIMOGIRICHO 1,,35.385094,136.868142
下切町二丁目,シモギリチョウ 2,SHIMOGIRICHO 2,,35.385568,136.86493
下切町三丁目,シモギリチョウ 3,SHIMOGIRICHO 3,,35.387233,136.863586
下切町四丁目,シモギリチョウ 4,SHIMOGIRICHO 4,,35.388109,136.862097
下切町五丁目,シモギリチョウ 5,SHIMOGIRICHO 5,,35.386922,136.861195
下切町六丁目,シモギリチョウ 6,SHIMOGIRICHO 6,,35.385732,136.861811
下切町七丁目,シモギリチョウ 7,SHIMOGIRICHO 7,,35.384255,136.863603
下切町八丁目,シモギリチョウ 8,SHIMOGIRICHO 8,,35.383798,136.865508
下切町九丁目,シモギリチョウ 9,SHIMOGIRICHO 9,,35.382047,136.865422
下中屋町,シモナカヤチョウ,SHIMONAKAYACHO,,35.375145,136.832086
下中屋町一丁目,シモナカヤチョウ 1,SHIMONAKAYACHO 1,,35.382697,136.834294
下中屋町二丁目,シモナカヤチョウ 2,SHIMONAKAYACHO 2,,35.380129,136.833271
下中屋町三丁目,シモナカヤチョウ 3,SHIMONAKAYACHO 3,,35.380064,136.838033
上戸町一丁目,ジョウゴチョウ 1,JOGOCHO 1,,35.384711,136.847835
上戸町二丁目,ジョウゴチョウ 2,JOGOCHO 2,,35.383891,136.845392
上戸町三丁目,ジョウゴチョウ 3,JOGOCHO 3,,35.381123,136.845647
上戸町四丁目,ジョウゴチョウ 4,JOGOCHO 4,,35.382741,136.84843
上戸町五丁目,ジョウゴチョウ 5,JOGOCHO 5,,35.381056,136.850298
上戸町六丁目,ジョウゴチョウ 6,JOGOCHO 6,,35.383101,136.850903
上戸町七丁目,ジョウゴチョウ 7,JOGOCHO 7,,35.385105,136.851136
新鵜沼台一丁目,シンウヌマダイ 1,SHINUNUMADAI 1,,35.405838,136.950552
新鵜沼台二丁目,シンウヌマダイ 2,SHINUNUMADAI 2,,35.406987,136.953648
新鵜沼台三丁目,シンウヌマダイ 3,SHINUNUMADAI 3,,35.407209,136.956161
新鵜沼台四丁目,シンウヌマダイ 4,SHINUNUMADAI 4,,35.403211,136.950216
新鵜沼台五丁目,シンウヌマダイ 5,SHINUNUMADAI 5,,35.40491,136.952093
新鵜沼台六丁目,シンウヌマダイ 6,SHINUNUMADAI 6,,35.405384,136.954739
新鵜沼台七丁目,シンウヌマダイ 7,SHINUNUMADAI 7,,35.402219,136.951407
新鵜沼台八丁目,シンウヌマダイ 8,SHINUNUMADAI 8,,35.403629,136.953107
須衛,スエ,SUE,,35.438008,136.908339
須衛稲田,,,,35.43587,136.901213
須衛町三丁目,スエチョウ 3,SUECHO 3,,35.436389,136.890481
須衛町五丁目,スエチョウ 5,SUECHO 5,,35.431476,136.895271
須衛町七丁目,スエチョウ 7,SUECHO 7,,35.428926,136.901469
須衛町八丁目,スエチョウ 8,SUECHO 8,,35.426628,136.908172
蘇原赤羽根町一丁目,ソハラアカバネチョウ 1,SOHARA AKABANECHO 1,,35.422479,136.854814
蘇原赤羽根町二丁目,ソハラアカバネチョウ 2,SOHARA AKABANECHO 2,,35.422626,136.856736
蘇原赤羽根町三丁目,ソハラアカバネチョウ 3,SOHARA AKABANECHO 3,,35.419814,136.854544
蘇原赤羽根町四丁目,ソハラアカバネチョウ 4,SOHARA AKABANECHO 4,,35.4197,136.856461
蘇原赤羽根町五丁目,ソハラアカバネチョウ 5,SOHARA AKABANECHO 5,,35.419412,136.858875
蘇原旭町一丁目,ソハラアサヒマチ 1,SOHARA ASAHIMACHI 1,,35.403489,136.865496
蘇原旭町二丁目,ソハラアサヒマチ 2,SOHARA ASAHIMACHI 2,,35.404612,136.865209
蘇原旭町三丁目,ソハラアサヒマチ 3,SOHARA ASAHIMACHI 3,,35.405917,136.865146
蘇原旭町四丁目,ソハラアサヒマチ 4,SOHARA ASAHIMACHI 4,,35.407162,136.865127
蘇原飛鳥町一丁目,ソハラアズカチョウ 1,SOHARA AZUKACHO 1,,35.425466,136.868873
蘇原飛鳥町二丁目,ソハラアズカチョウ 2,SOHARA AZUKACHO 2,,35.427134,136.870344
蘇原飛鳥町三丁目,ソハラアズカチョウ 3,SOHARA AZUKACHO 3,,35.425586,136.871803
蘇原伊吹町一丁目,ソハライブキチョウ 1,SOHARA IBUKICHO 1,,35.422553,136.859262
蘇原伊吹町二丁目,ソハライブキチョウ 2,SOHARA IBUKICHO 2,,35.42222,136.86141
蘇原伊吹町三丁目,ソハライブキチョウ 3,SOHARA IBUKICHO 3,,35.421971,136.863546
蘇原大島町一丁目,ソハラオオシマチョウ 1,SOHARA OSHIMACHO 1,,35.416229,136.845332
蘇原大島町二丁目,ソハラオオシマチョウ 2,SOHARA OSHIMACHO 2,,35.416362,136.848378
蘇原大島町三丁目,ソハラオオシマチョウ 3,SOHARA OSHIMACHO 3,,35.416541,136.851296
蘇原大島町四丁目,ソハラオオシマチョウ 4,SOHARA OSHIMACHO 4,,35.418321,136.845909
蘇原大島町五丁目,ソハラオオシマチョウ 5,SOHARA OSHIMACHO 5,,35.419097,136.848228
蘇原大島町六丁目,ソハラオオシマチョウ 6,SOHARA OSHIMACHO 6,,35.419594,136.850514
蘇原大島町七丁目,ソハラオオシマチョウ 7,SOHARA OSHIMACHO 7,,35.420129,136.85266
蘇原柿沢町一丁目,ソハラカキザワチョウ 1,SOHARA KAKIZAWACHO 1,,35.404461,136.862965
蘇原柿沢町二丁目,ソハラカキザワチョウ 2,SOHARA KAKIZAWACHO 2,,35.405948,136.862899
蘇原柿沢町三丁目,ソハラカキザワチョウ 3,SOHARA KAKIZAWACHO 3,,35.407149,136.862953
蘇原菊園町一丁目,ソハラキクゾノチョウ 1,SOHARA KIKUZONOCHO 1,,35.403603,136.867269
蘇原菊園町二丁目,ソハラキクゾノチョウ 2,SOHARA KIKUZONOCHO 2,,35.404814,136.867099
蘇原菊園町三丁目,ソハラキクゾノチョウ 3,SOHARA KIKUZONOCHO 3,,35.406073,136.867048
蘇原菊園町四丁目,ソハラキクゾノチョウ 4,SOHARA KIKUZONOCHO 4,,35.40727,136.866732
蘇原北山町一丁目,ソハラキタヤマチョウ 1,SOHARA KITAYAMACHO 1,,35.430652,136.863166
蘇原北山町二丁目,ソハラキタヤマチョウ 2,SOHARA KITAYAMACHO 2,,35.431463,136.870111
蘇原北山町三丁目,ソハラキタヤマチョウ 3,SOHARA KITAYAMACHO 3,,35.428683,136.874924
蘇原吉新町一丁目,ソハラキチシンチョウ 1,SOHARA KICHISHINCHO 1,,35.408237,136.856439
蘇原吉新町二丁目,ソハラキチシンチョウ 2,SOHARA KICHISHINCHO 2,,35.408975,136.857951
蘇原吉新町三丁目,ソハラキチシンチョウ 3,SOHARA KICHISHINCHO 3,,35.408358,136.85938
蘇原希望町一丁目,ソハラキボウチョウ 1,SOHARA KIBOCHO 1,,35.402962,136.854965
蘇原希望町二丁目,ソハラキボウチョウ 2,SOHARA KIBOCHO 2,,35.405041,136.855923
蘇原希望町三丁目,ソハラキボウチョウ 3,SOHARA KIBOCHO 3,,35.406037,136.85637
蘇原希望町四丁目,ソハラキボウチョウ 4,SOHARA KIBOCHO 4,,35.407123,136.856141
蘇原清住町一丁目,ソハラキヨズミチョウ 1,SOHARA KIYOZUMICHO 1,,35.425777,136.874968
蘇原清住町二丁目,ソハラキヨズミチョウ 2,SOHARA KIYOZUMICHO 2,,35.426547,136.87679
蘇原清住町三丁目,ソハラキヨズミチョウ 3,SOHARA KIYOZUMICHO 3,,35.426829,136.878806
蘇原清住町四丁目,ソハラキヨズミチョウ 4,SOHARA KIYOZUMICHO 4,,35.427481,136.879831
蘇原清住町五丁目,ソハラキヨズミチョウ 5,SOHARA KIYOZUMICHO 5,,35.425522,136.877616
蘇原清住町六丁目,ソハラキヨズミチョウ 6,SOHARA KIYOZUMICHO 6,,35.424682,136.876619
蘇原熊田町一丁目,ソハラクマタチョウ 1,SOHARA KUMATACHO 1,,35.415408,136.868329
蘇原熊田町二丁目,ソハラクマタチョウ 2,SOHARA KUMATACHO 2,,35.414525,136.869947
蘇原熊田町三丁目,ソハラクマタチョウ 3,SOHARA KUMATACHO 3,,35.417438,136.869437
蘇原興亜町一丁目,ソハラコウアマチ 1,SOHARA KOAMACHI 1,,35.404205,136.871912
蘇原興亜町二丁目,ソハラコウアマチ 2,SOHARA KOAMACHI 2,,35.406024,136.871721
蘇原興亜町三丁目,ソハラコウアマチ 3,SOHARA KOAMACHI 3,,35.407315,136.872402
蘇原興亜町四丁目,ソハラコウアマチ 4,SOHARA KOAMACHI 4,,35.405668,136.874968
蘇原興亜町五丁目,ソハラコウアマチ 5,SOHARA KOAMACHI 5,,35.406193,136.87907
蘇原坂井町一丁目,ソハラサカイチョウ 1,SOHARA SAKAICHO 1,,35.415669,136.880604
蘇原坂井町二丁目,ソハラサカイチョウ 2,SOHARA SAKAICHO 2,,35.413512,136.879145
蘇原坂井町三丁目,ソハラサカイチョウ 3,SOHARA SAKAICHO 3,,35.413171,136.881424
蘇原栄町一丁目,ソハラサカエマチ 1,SOHARA SAKAEMACHI 1,,35.403757,136.868758
蘇原栄町二丁目,ソハラサカエマチ 2,SOHARA SAKAEMACHI 2,,35.404939,136.868629
蘇原栄町三丁目,ソハラサカエマチ 3,SOHARA SAKAEMACHI 3,,35.406181,136.868358
蘇原栄町四丁目,ソハラサカエマチ 4,SOHARA SAKAEMACHI 4,,35.407254,136.86836
蘇原早苗町,ソハラサナエチョウ,SOHARA SANAECHO,,35.403437,136.863501
蘇原申子町一丁目,ソハラサルコチョウ 1,SOHARA SARUKOCHO 1,,35.410946,136.854187
蘇原申子町二丁目,ソハラサルコチョウ 2,SOHARA SARUKOCHO 2,,35.410955,136.856875
蘇原申子町三丁目,ソハラサルコチョウ 3,SOHARA SARUKOCHO 3,,35.408388,136.854892
蘇原沢上町一丁目,ソハラサワガミチョウ 1,SOHARA SAWAGAMICHO 1,,35.403359,136.860206
蘇原沢上町二丁目,ソハラサワガミチョウ 2,SOHARA SAWAGAMICHO 2,,35.404568,136.860661
蘇原沢上町三丁目,ソハラサワガミチョウ 3,SOHARA SAWAGAMICHO 3,,35.405969,136.860666
蘇原沢上町四丁目,ソハラサワガミチョウ 4,SOHARA SAWAGAMICHO 4,,35.407086,136.860677
蘇原島崎町一丁目,ソハラシマサキチョウ 1,SOHARA SHIMASAKICHO 1,,35.416275,136.860137
蘇原島崎町二丁目,ソハラシマサキチョウ 2,SOHARA SHIMASAKICHO 2,,35.417298,136.861965
蘇原島崎町三丁目,ソハラシマサキチョウ 3,SOHARA SHIMASAKICHO 3,,35.419259,136.861245
蘇原島崎町四丁目,ソハラシマサキチョウ 4,SOHARA SHIMASAKICHO 4,,35.418763,136.863199
蘇原昭栄町一丁目,ソハラショウエイチョウ 1,SOHARA SHOEICHO 1,,35.418741,136.869949
蘇原昭栄町二丁目,ソハラショウエイチョウ 2,SOHARA SHOEICHO 2,,35.418609,136.872297
蘇原昭栄町三丁目,ソハラショウエイチョウ 3,SOHARA SHOEICHO 3,,35.418633,136.874714
蘇原昭栄町四丁目,ソハラショウエイチョウ 4,SOHARA SHOEICHO 4,,35.418576,136.877079
蘇原昭栄町五丁目,ソハラショウエイチョウ 5,SOHARA SHOEICHO 5,,35.418528,136.879496
蘇原新栄町一丁目,ソハラシンサカエマチ 1,SOHARA SHINSAKAEMACHI 1,,35.410106,136.864494
蘇原新栄町二丁目,ソハラシンサカエマチ 2,SOHARA SHINSAKAEMACHI 2,,35.409973,136.866655
蘇原新栄町三丁目,ソハラシンサカエマチ 3,SOHARA SHINSAKAEMACHI 3,,35.408726,136.869125
蘇原新生町一丁目,ソハラシンセイチョウ 1,SOHARA SHINSEICHO 1,,35.421147,136.882649
蘇原新生町二丁目,ソハラシンセイチョウ 2,SOHARA SHINSEICHO 2,,35.418426,136.882558
蘇原新生町三丁目,ソハラシンセイチョウ 3,SOHARA SHINSEICHO 3,,35.416612,136.882678
蘇原瑞雲町一丁目,ソハラズイウンチョウ 1,SOHARA ZUIUNCHO 1,,35.403847,136.870365
蘇原瑞雲町二丁目,ソハラズイウンチョウ 2,SOHARA ZUIUNCHO 2,,35.40509,136.870158
蘇原瑞雲町三丁目,ソハラズイウンチョウ 3,SOHARA ZUIUNCHO 3,,35.406286,136.870078
蘇原瑞雲町四丁目,ソハラズイウンチョウ 4,SOHARA ZUIUNCHO 4,,35.407332,136.870014
蘇原青雲町一丁目,ソハラセイウンチョウ 1,SOHARA SEIUNCHO 1,,35.41188,136.859261
蘇原青雲町二丁目,ソハラセイウンチョウ 2,SOHARA SEIUNCHO 2,,35.411863,136.861135
蘇原青雲町三丁目,ソハラセイウンチョウ 3,SOHARA SEIUNCHO 3,,35.411796,136.862888
蘇原青雲町四丁目,ソハラセイウンチョウ 4,SOHARA SEIUNCHO 4,,35.40972,136.860979
蘇原青雲町五丁目,ソハラセイウンチョウ 5,SOHARA SEIUNCHO 5,,35.408594,136.861619
蘇原中央町一丁目,ソハラチュウオウチョウ 1,SOHARA CHUOCHO 1,,35.41141,136.880581
蘇原中央町二丁目,ソハラチュウオウチョウ 2,SOHARA CHUOCHO 2,,35.410194,136.880195
蘇原中央町三丁目,ソハラチュウオウチョウ 3,SOHARA CHUOCHO 3,,35.408219,136.880319
蘇原中央町四丁目,ソハラチュウオウチョウ 4,SOHARA CHUOCHO 4,,35.406932,136.880333
蘇原月丘町一丁目,ソハラツキオカチョウ 1,SOHARA TSUKIOKACHO 1,,35.402416,136.867598
蘇原月丘町二丁目,ソハラツキオカチョウ 2,SOHARA TSUKIOKACHO 2,,35.402251,136.865729
蘇原月丘町三丁目,ソハラツキオカチョウ 3,SOHARA TSUKIOKACHO 3,,35.402356,136.863491
蘇原月丘町四丁目,ソハラツキオカチョウ 4,SOHARA TSUKIOKACHO 4,,35.402159,136.861264
蘇原寺島町一丁目,ソハラテラジマチョウ 1,SOHARA TERAJIMACHO 1,,35.415279,136.861863
蘇原寺島町二丁目,ソハラテラジマチョウ 2,SOHARA TERAJIMACHO 2,,35.415285,136.863481
蘇原東栄町一丁目,ソハラトウエイチョウ 1,SOHARA TOEICHO 1,,35.410538,136.873625
蘇原東栄町二丁目,ソハラトウエイチョウ 2,SOHARA TOEICHO 2,,35.40879,136.874506
蘇原東門町一丁目,ソハラトウモンチョウ 1,SOHARA TOMONCHO 1,,35.421657,136.876997
蘇原東門町二丁目,ソハラトウモンチョウ 2,SOHARA TOMONCHO 2,,35.422057,136.879632
蘇原東門町三丁目,ソハラトウモンチョウ 3,SOHARA TOMONCHO 3,,35.422969,136.882466
蘇原外山町一丁目,ソハラトヤマチョウ 1,SOHARA TOYAMACHO 1,,35.422212,136.869527
蘇原外山町二丁目,ソハラトヤマチョウ 2,SOHARA TOYAMACHO 2,,35.422073,136.872366
蘇原外山町三丁目,ソハラトヤマチョウ 3,SOHARA TOYAMACHO 3,,35.421618,136.874749
蘇原野口町一丁目,ソハラノグチチョウ 1,SOHARA NOGUCHICHO 1,,35.414252,136.865006
蘇原野口町二丁目,ソハラノグチチョウ 2,SOHARA NOGUCHICHO 2,,35.414512,136.866684
蘇原野口町三丁目,ソハラノグチチョウ 3,SOHARA NOGUCHICHO 3,,35.412993,136.868976
蘇原野口町四丁目,ソハラノグチチョウ 4,SOHARA NOGUCHICHO 4,,35.410851,136.869035
蘇原野口町五丁目,ソハラノグチチョウ 5,SOHARA NOGUCHICHO 5,,35.410456,136.871147
蘇原野口町六丁目,ソハラノグチチョウ 6,SOHARA NOGUCHICHO 6,,35.416782,136.86782
蘇原花園町一丁目,ソハラハナゾノチョウ 1,SOHARA HANAZONOCHO 1,,35.411262,136.845667
蘇原花園町二丁目,ソハラハナゾノチョウ 2,SOHARA HANAZONOCHO 2,,35.410342,136.848635
蘇原花園町三丁目,ソハラハナゾノチョウ 3,SOHARA HANAZONOCHO 3,,35.410456,136.850607
蘇原花園町四丁目,ソハラハナゾノチョウ 4,SOHARA HANAZONOCHO 4,,35.410157,136.852659
蘇原東島町一丁目,ソハラヒガシジマチョウ 1,SOHARA HIGASHIJIMACHO 1,,35.414593,136.871672
蘇原東島町二丁目,ソハラヒガシジマチョウ 2,SOHARA HIGASHIJIMACHO 2,,35.413636,136.873888
蘇原東島町三丁目,ソハラヒガシジマチョウ 3,SOHARA HIGASHIJIMACHO 3,,35.413784,136.876763
蘇原東島町四丁目,ソハラヒガシジマチョウ 4,SOHARA HIGASHIJIMACHO 4,,35.409211,136.877497
蘇原古市場町一丁目,ソハラフルイチバチョウ 1,SOHARA FURUICHIBACHO 1,,35.416663,136.865152
蘇原古市場町二丁目,ソハラフルイチバチョウ 2,SOHARA FURUICHIBACHO 2,,35.418787,136.865176
蘇原古市場町三丁目,ソハラフルイチバチョウ 3,SOHARA FURUICHIBACHO 3,,35.418616,136.866621
蘇原古市場町四丁目,ソハラフルイチバチョウ 4,SOHARA FURUICHIBACHO 4,,35.41853,136.867899
蘇原古市場町五丁目,ソハラフルイチバチョウ 5,SOHARA FURUICHIBACHO 5,,35.422129,136.866507
蘇原北陽町一丁目,ソハラホクヨウチョウ 1,SOHARA HOKUYOCHO 1,,35.425469,136.859839
蘇原北陽町二丁目,ソハラホクヨウチョウ 2,SOHARA HOKUYOCHO 2,,35.425448,136.861756
蘇原北陽町三丁目,ソハラホクヨウチョウ 3,SOHARA HOKUYOCHO 3,,35.42567,136.863647
蘇原北陽町四丁目,ソハラホクヨウチョウ 4,SOHARA HOKUYOCHO 4,,35.425756,136.865469
蘇原北陽町五丁目,ソハラホクヨウチョウ 5,SOHARA HOKUYOCHO 5,,35.42526,136.866973
蘇原三柿野町,ソハラミカキノチョウ,SOHARA MIKAKINOCHO,,35.399038,136.88011
蘇原三柿野町一丁目,ソハラミカキノチョウ 1,SOHARA MIKAKINOCHO 1,,35.399825,136.872653
蘇原三柿野町二丁目,ソハラミカキノチョウ 2,SOHARA MIKAKINOCHO 2,,35.400029,136.869846
蘇原三柿野町三丁目,ソハラミカキノチョウ 3,SOHARA MIKAKINOCHO 3,,35.401753,136.86969
蘇原瑞穂町一丁目,ソハラミズホチョウ 1,SOHARA MIZUHOCHO 1,,35.413583,136.844536
蘇原瑞穂町二丁目,ソハラミズホチョウ 2,SOHARA MIZUHOCHO 2,,35.41375,136.846238
蘇原瑞穂町三丁目,ソハラミズホチョウ 3,SOHARA MIZUHOCHO 3,,35.413925,136.848151
蘇原瑞穂町四丁目,ソハラミズホチョウ 4,SOHARA MIZUHOCHO 4,,35.414076,136.850122
蘇原瑞穂町五丁目,ソハラミズホチョウ 5,SOHARA MIZUHOCHO 5,,35.414259,136.852095
蘇原緑町一丁目,ソハラミドリマチ 1,SOHARA MIDORIMACHI 1,,35.401263,136.867705
蘇原緑町二丁目,ソハラミドリマチ 2,SOHARA MIDORIMACHI 2,,35.401342,136.865804
蘇原緑町三丁目,ソハラミドリマチ 3,SOHARA MIDORIMACHI 3,,35.401546,136.863503
蘇原緑町四丁目,ソハラミドリマチ 4,SOHARA MIDORIMACHI 4,,35.401695,136.859861
蘇原宮代町一丁目,ソハラミヤダイチョウ 1,SOHARA MIYADAICHO 1,,35.424228,136.846645
蘇原宮代町二丁目,ソハラミヤダイチョウ 2,SOHARA MIYADAICHO 2,,35.422585,136.846596
蘇原宮代町三丁目,ソハラミヤダイチョウ 3,SOHARA MIYADAICHO 3,,35.419246,136.845293
蘇原宮塚町一丁目,ソハラミヤヅカチョウ 1,SOHARA MIYAZUKACHO 1,,35.422661,136.850247
蘇原宮塚町二丁目,ソハラミヤヅカチョウ 2,SOHARA MIYAZUKACHO 2,,35.423533,136.853422
蘇原宮塚町三丁目,ソハラミヤヅカチョウ 3,SOHARA MIYAZUKACHO 3,,35.424529,136.857203
蘇原村雨町一丁目,ソハラムラサメチョウ 1,SOHARA MURASAMECHO 1,,35.403195,136.857396
蘇原村雨町二丁目,ソハラムラサメチョウ 2,SOHARA MURASAMECHO 2,,35.404544,136.858104
蘇原村雨町三丁目,ソハラムラサメチョウ 3,SOHARA MURASAMECHO 3,,35.40607,136.85861
蘇原村雨町四丁目,ソハラムラサメチョウ 4,SOHARA MURASAMECHO 4,,35.407214,136.858523
蘇原持田町一丁目,ソハラモチダチョウ 1,SOHARA MOCHIDACHO 1,,35.431711,136.876237
蘇原持田町五丁目,ソハラモチダチョウ 5,SOHARA MOCHIDACHO 5,,35.427217,136.88145
蘇原吉野町一丁目,ソハラヨシノチョウ 1,SOHARA YOSHINOCHO 1,,35.415093,136.853957
蘇原吉野町二丁目,ソハラヨシノチョウ 2,SOHARA YOSHINOCHO 2,,35.415272,136.855903
蘇原吉野町三丁目,ソハラヨシノチョウ 3,SOHARA YOSHINOCHO 3,,35.415421,136.858333
蘇原吉野町四丁目,ソハラヨシノチョウ 4,SOHARA YOSHINOCHO 4,,35.417892,136.857249
蘇原吉野町五丁目,ソハラヨシノチョウ 5,SOHARA YOSHINOCHO 5,,35.417861,136.854091
蘇原六軒町一丁目,ソハラロッケンチョウ 1,SOHARA ROKKENCHO 1,,35.400222,136.867704
蘇原六軒町二丁目,ソハラロッケンチョウ 2,SOHARA ROKKENCHO 2,,35.400481,136.865777
蘇原六軒町三丁目,ソハラロッケンチョウ 3,SOHARA ROKKENCHO 3,,35.400503,136.863465
蘇原六軒町四丁目,ソハラロッケンチョウ 4,SOHARA ROKKENCHO 4,,35.400091,136.859753
蘇原和合町一丁目,ソハラワゴウチョウ 1,SOHARA WAGOCHO 1,,35.416255,136.873432
蘇原和合町二丁目,ソハラワゴウチョウ 2,SOHARA WAGOCHO 2,,35.416596,136.877715
つつじが丘一丁目,ツツジガオカ 1,TSUTSUJIGAOKA 1,,35.41164,136.929088
つつじが丘二丁目,ツツジガオカ 2,TSUTSUJIGAOKA 2,,35.411444,136.931437
つつじが丘三丁目,ツツジガオカ 3,TSUTSUJIGAOKA 3,,35.41137,136.934075
つつじが丘四丁目,ツツジガオカ 4,TSUTSUJIGAOKA 4,,35.409575,136.930509
つつじが丘五丁目,ツツジガオカ 5,TSUTSUJIGAOKA 5,,35.409288,136.934246
つつじが丘六丁目,ツツジガオカ 6,TSUTSUJIGAOKA 6,,35.407916,136.930296
つつじが丘七丁目,ツツジガオカ 7,TSUTSUJIGAOKA 7,,35.407487,136.932553
つつじが丘八丁目,ツツジガオカ 8,TSUTSUJIGAOKA 8,,35.407524,136.935465
那加吾妻町,ナカアヅマチョウ,NAKA AZUMACHO,,35.400232,136.838303
那加荒田町,ナカアラタチョウ,NAKA ARATACHO,,35.400995,136.819985
那加芦原町一丁目,ナカアワラチョウ 1,NAKA AWARACHO 1,,35.417952,136.81747
那加芦原町二丁目,ナカアワラチョウ 2,NAKA AWARACHO 2,,35.41583,136.816398
那加石山町一丁目,ナカイシヤマチョウ 1,NAKA ISHIYAMACHO 1,,35.407782,136.827246
那加石山町二丁目,ナカイシヤマチョウ 2,NAKA ISHIYAMACHO 2,,35.406308,136.827703
那加岩地町一丁目,ナカイワチチョウ 1,NAKA IWACHICHO 1,,35.411671,136.816826
那加岩地町二丁目,ナカイワチチョウ 2,NAKA IWACHICHO 2,,35.408725,136.817321
那加岩地町三丁目,ナカイワチチョウ 3,NAKA IWACHICHO 3,,35.40547,136.816567
那加甥田町,ナカオイダチョウ,NAKA OIDACHO,,35.404452,136.844022
那加扇平,ナカオオギヒラ,NAKA OGIHIRA,,35.421401,136.834792
那加大谷町,ナカオオタニチョウ,NAKA OTANICHO,,35.401825,136.822896
那加大洞,ナカオオボラ,NAKA OBORA,,35.427862,136.832271
那加織田町一丁目,ナカオダチョウ 1,NAKA ODACHO 1,,35.399684,136.850221
那加織田町二丁目,ナカオダチョウ 2,NAKA ODACHO 2,,35.399692,136.851834
那加御屋敷町,ナカオヤシキチョウ,NAKA OYASHIKICHO,,35.413909,136.836759
那加兼橋町,ナカカネハシチョウ,NAKA KANEHASHICHO,,35.404118,136.817803
那加萱場町一丁目,ナカカヤバチョウ 1,NAKA KAYABACHO 1,,35.393445,136.823823
那加萱場町二丁目,ナカカヤバチョウ 2,NAKA KAYABACHO 2,,35.392573,136.824105
那加萱場町三丁目,ナカカヤバチョウ 3,NAKA KAYABACHO 3,,35.391668,136.824396
那加萱場町四丁目,ナカカヤバチョウ 4,NAKA KAYABACHO 4,,35.390702,136.824702
那加萱場町五丁目,ナカカヤバチョウ 5,NAKA KAYABACHO 5,,35.389956,136.824517
那加柄山町,ナカカラヤマチョウ,NAKA KARAYAMACHO,,35.419911,136.823626
那加官有地無番地,,,,35.392002,136.867496
那加北栄町,ナカキタサカエマチ,NAKA KITASAKAEMACHI,,35.399027,136.839306
那加北洞町一丁目,ナカキタボラチョウ 1,NAKA KITABORACHO 1,,35.427706,136.842325
那加北洞町二丁目,ナカキタボラチョウ 2,NAKA KITABORACHO 2,,35.420861,136.841613
那加桐野町一丁目,ナカキリノチョウ 1,NAKA KIRINOCHO 1,,35.425927,136.816867
那加桐野町二丁目,ナカキリノチョウ 2,NAKA KIRINOCHO 2,,35.42356,136.816099
那加桐野町三丁目,ナカキリノチョウ 3,NAKA KIRINOCHO 3,,35.421613,136.815994
那加桐野町四丁目,ナカキリノチョウ 4,NAKA KIRINOCHO 4,,35.420051,136.817288
那加桐野町五丁目,ナカキリノチョウ 5,NAKA KIRINOCHO 5,,35.424961,136.820217
那加桐野町六丁目,ナカキリノチョウ 6,NAKA KIRINOCHO 6,,35.4215,136.818635
那加桐野町七丁目,ナカキリノチョウ 7,NAKA KIRINOCHO 7,,35.418142,136.819055
那加桐野町八丁目,ナカキリノチョウ 8,NAKA KIRINOCHO 8,,35.421529,136.821349
那加桐野町九丁目,ナカキリノチョウ 9,NAKA KIRINOCHO 9,,35.418871,136.821265
那加桐野外二ケ所大字入会地,ナカキリノホカニカショオオアザニュウカイチ,NAKA KIRINOHOKANIKASHOOAZANYUKAICHI,,35.398185,136.859121
那加楠町,ナカクスノキチョウ,NAKA KUSUNOKICHO,,35.396417,136.843301
那加五反田町,ナカゴタンダチョウ,NAKA GOTANDACHO,,35.401347,136.816487
那加琴が丘町一丁目,ナカコトガオカチョウ 1,NAKA KOTOGAOKACHO 1,,35.41635,136.818975
那加琴が丘町二丁目,ナカコトガオカチョウ 2,NAKA KOTOGAOKACHO 2,,35.41644,136.820744
那加琴が丘町三丁目,ナカコトガオカチョウ 3,NAKA KOTOGAOKACHO 3,,35.416551,136.822342
那加幸町,ナカサイワイチョウ,NAKA SAIWAICHO,,35.403968,136.832441
那加栄町,ナカサカエマチ,NAKA SAKAEMACHI,,35.397844,136.839046
那加桜町一丁目,ナカサクラマチ 1,NAKA SAKURAMACHI 1,,35.398802,136.847805
那加桜町二丁目,ナカサクラマチ 2,NAKA SAKURAMACHI 2,,35.400695,136.84781
那加桜町三丁目,ナカサクラマチ 3,NAKA SAKURAMACHI 3,,35.403645,136.846111
那加昭南町,ナカショウナンチョウ,NAKA SHONANCHO,,35.404199,136.853259
那加新加納町,ナカシンカノウチョウ,NAKA SHINKANOCHO,,35.397306,136.82622
那加新加納外六ケ所大字入会地,,,,35.397088,136.851671
那加神田町,ナカジンデンチョウ,NAKA JINDENCHO,,35.403741,136.820995
那加新田町一丁目,ナカシンデンチョウ 1,NAKA SHINDENCHO 1,,35.404345,136.824929
那加新田町二丁目,ナカシンデンチョウ 2,NAKA SHINDENCHO 2,,35.403648,136.828817
那加新那加町,ナカシンナカチョウ,NAKA SHINNAKACHO,,35.400068,136.833919
那加住吉町一丁目,ナカスミヨシチョウ 1,NAKA SUMIYOSHICHO 1,,35.39766,136.848765
那加住吉町二丁目,ナカスミヨシチョウ 2,NAKA SUMIYOSHICHO 2,,35.397781,136.850431
那加住吉町三丁目,ナカスミヨシチョウ 3,NAKA SUMIYOSHICHO 3,,35.397896,136.852005
那加住吉町四丁目,ナカスミヨシチョウ 4,NAKA SUMIYOSHICHO 4,,35.398031,136.853627
那加住吉町五丁目,ナカスミヨシチョウ 5,NAKA SUMIYOSHICHO 5,,35.398146,136.855216
那加大東町,ナカダイトウチョウ,NAKA DAITOCHO,,35.396271,136.846086
那加太平町一丁目,ナカタイヘイチョウ 1,NAKA TAIHEICHO 1,,35.401717,136.831453
那加太平町二丁目,ナカタイヘイチョウ 2,NAKA TAIHEICHO 2,,35.402013,136.833489
那加大門町一丁目,ナカダイモンチョウ 1,NAKA DAIMONCHO 1,,35.399029,136.816176
那加大門町二丁目,ナカダイモンチョウ 2,NAKA DAIMONCHO 2,,35.399029,136.819921
那加手力町,ナカテヂカラチョウ,NAKA TEJIKARACHO,,35.408764,136.824905
那加東亜町,ナカトウアチョウ,NAKA TOACHO,,35.40239,136.837667
那加東新町一丁目,ナカトウシンチョウ 1,NAKA TOSHINCHO 1,,35.401394,136.852261
那加東新町二丁目,ナカトウシンチョウ 2,NAKA TOSHINCHO 2,,35.401734,136.855708
那加土山町一丁目,ナカドヤマチョウ 1,NAKA DOYAMACHO 1,,35.416011,136.817671
那加土山町二丁目,ナカドヤマチョウ 2,NAKA DOYAMACHO 2,,35.413266,136.818115
那加長塚町一丁目,ナカナガツカチョウ 1,NAKA NAGATSUKACHO 1,,35.407056,136.820215
那加長塚町二丁目,ナカナガツカチョウ 2,NAKA NAGATSUKACHO 2,,35.406496,136.822523
那加長塚町三丁目,ナカナガツカチョウ 3,NAKA NAGATSUKACHO 3,,35.406761,136.824866
那加西市場町一丁目,ナカニシイチバチョウ 1,NAKA NISHIICHIBACHO 1,,35.414335,136.821319
那加西市場町二丁目,ナカニシイチバチョウ 2,NAKA NISHIICHIBACHO 2,,35.413281,136.824207
那加西市場町三丁目,ナカニシイチバチョウ 3,NAKA NISHIICHIBACHO 3,,35.41352,136.826067
那加西市場町四丁目,ナカニシイチバチョウ 4,NAKA NISHIICHIBACHO 4,,35.418341,136.826341
那加西市場町五丁目,ナカニシイチバチョウ 5,NAKA NISHIICHIBACHO 5,,35.413618,136.828732
那加西市場町六丁目,ナカニシイチバチョウ 6,NAKA NISHIICHIBACHO 6,,35.410149,136.828441
那加西市場町七丁目,ナカニシイチバチョウ 7,NAKA NISHIICHIBACHO 7,,35.417739,136.832848
那加西浦町一丁目,ナカニシウラチョウ 1,NAKA NISHIURACHO 1,,35.395448,136.816102
那加西浦町二丁目,ナカニシウラチョウ 2,NAKA NISHIURACHO 2,,35.396599,136.817663
那加西浦町三丁目,ナカニシウラチョウ 3,NAKA NISHIURACHO 3,,35.396649,136.818992
那加西那加町,ナカニシナカチョウ,NAKA NISHINAKACHO,,35.397196,136.834703
那加西野町,ナカニシノマチ,NAKA NISHINOMACHI,,35.398849,136.83266
那加日新町一丁目,ナカニッシンチョウ 1,NAKA NISSHINCHO 1,,35.394211,136.81508
那加日新町二丁目,ナカニッシンチョウ 2,NAKA NISSHINCHO 2,,35.394508,136.817402
那加日新町三丁目,ナカニッシンチョウ 3,NAKA NISSHINCHO 3,,35.395463,136.822277
那加日新町四丁目,ナカニッシンチョウ 4,NAKA NISSHINCHO 4,,35.393086,136.815464
那加日新町五丁目,ナカニッシンチョウ 5,NAKA NISSHINCHO 5,,35.393494,136.81784
那加日新町六丁目,ナカニッシンチョウ 6,NAKA NISSHINCHO 6,,35.394034,136.820252
那加日新町七丁目,ナカニッシンチョウ 7,NAKA NISSHINCHO 7,,35.394612,136.823078
那加日新町八丁目,ナカニッシンチョウ 8,NAKA NISSHINCHO 8,,35.394994,136.826465
那加野畑町一丁目,ナカノバタチョウ 1,NAKA NOBATACHO 1,,35.407737,136.830941
那加野畑町二丁目,ナカノバタチョウ 2,NAKA NOBATACHO 2,,35.405974,136.831117
那加信長町一丁目,ナカノブナガチョウ 1,NAKA NOBUNAGACHO 1,,35.399756,136.853451
那加信長町二丁目,ナカノブナガチョウ 2,NAKA NOBUNAGACHO 2,,35.399782,136.855014
那加信長町三丁目,ナカノブナガチョウ 3,NAKA NOBUNAGACHO 3,,35.399885,136.856549
那加巾下町,ナカハバシタチョウ,NAKA HABASHITACHO,,35.409418,136.845839
那加浜見町一丁目,ナカハマミチョウ 1,NAKA HAMAMICHO 1,,35.401394,136.824654
那加浜見町二丁目,ナカハマミチョウ 2,NAKA HAMAMICHO 2,,35.401743,136.827083
那加東那加町,ナカヒガシナカチョウ,NAKA HIGASHINAKACHO,,35.397265,136.837162
那加東野町一丁目,ナカヒガシノチョウ 1,NAKA HIGASHINOCHO 1,,35.413811,136.839602
那加東野町二丁目,ナカヒガシノチョウ 2,NAKA HIGASHINOCHO 2,,35.414401,136.842288
那加日之出町,ナカヒノデチョウ,NAKA HINODECHO,,35.398827,136.836933
那加雲雀町,ナカヒバリチョウ,NAKA HIBARICHO,,35.402308,136.844459
那加日吉町一丁目,ナカヒヨシチョウ 1,NAKA HIYOSHICHO 1,,35.398653,136.828516
那加日吉町二丁目,ナカヒヨシチョウ 2,NAKA HIYOSHICHO 2,,35.39873,136.829932
那加不動丘一丁目,ナカフドウガオカ 1,NAKA FUDOGAOKA 1,,35.406649,136.84554
那加不動丘二丁目,ナカフドウガオカ 2,NAKA FUDOGAOKA 2,,35.40662,136.848848
那加本町,ナカホンマチ,NAKA HOMMACHI,,35.399212,136.835904
那加前野町一丁目,ナカマエノチョウ 1,NAKA MAENOCHO 1,,35.410502,136.833085
那加前野町二丁目,ナカマエノチョウ 2,NAKA MAENOCHO 2,,35.410218,136.836938
那加前野町三丁目,ナカマエノチョウ 3,NAKA MAENOCHO 3,,35.407678,136.833903
那加前野町四丁目,ナカマエノチョウ 4,NAKA MAENOCHO 4,,35.407365,136.836423
那加前洞新町一丁目,ナカマエボラシンマチ 1,NAKA MAEBORASHIMMACHI 1,,35.404841,136.83532
那加前洞新町二丁目,ナカマエボラシンマチ 2,NAKA MAEBORASHIMMACHI 2,,35.403809,136.839984
那加前洞新町三丁目,ナカマエボラシンマチ 3,NAKA MAEBORASHIMMACHI 3,,35.405508,136.84024
那加前洞新町四丁目,ナカマエボラシンマチ 4,NAKA MAEBORASHIMMACHI 4,,35.408127,136.841101
那加前洞新町五丁目,ナカマエボラシンマチ 5,NAKA MAEBORASHIMMACHI 5,,35.410583,136.84114
那加緑町一丁目,ナカミドリマチ 1,NAKA MIDORIMACHI 1,,35.392205,136.817784
那加緑町二丁目,ナカミドリマチ 2,NAKA MIDORIMACHI 2,,35.391503,136.818534
那加緑町三丁目,ナカミドリマチ 3,NAKA MIDORIMACHI 3,,35.392858,136.82098
那加緑町四丁目,ナカミドリマチ 4,NAKA MIDORIMACHI 4,,35.391644,136.821382
那加緑町五丁目,ナカミドリマチ 5,NAKA MIDORIMACHI 5,,35.390721,136.822437
那加南栄町,ナカミナミサカエマチ,NAKA MINAMISAKAEMACHI,,35.396594,136.838877
那加宮浦町,ナカミヤウラチョウ,NAKA MIYAURACHO,,35.401047,136.829153
那加元町,ナカモトマチ,NAKA MOTOMACHI,,35.398951,136.838103
那加門前町一丁目,ナカモンゼンチョウ 1,NAKA MONZENCHO 1,,35.398315,136.840533
那加門前町二丁目,ナカモンゼンチョウ 2,NAKA MONZENCHO 2,,35.398014,136.843603
那加門前町三丁目,ナカモンゼンチョウ 3,NAKA MONZENCHO 3,,35.399363,136.843506
那加門前町四丁目,ナカモンゼンチョウ 4,NAKA MONZENCHO 4,,35.400842,136.843345
那加山後町一丁目,ナカヤマウシロチョウ 1,NAKA YAMAUSHIROCHO 1,,35.410129,136.819861
那加山後町二丁目,ナカヤマウシロチョウ 2,NAKA YAMAUSHIROCHO 2,,35.411813,136.821813
那加山後町三丁目,ナカヤマウシロチョウ 3,NAKA YAMAUSHIROCHO 3,,35.40994,136.82457
那加山崎町,ナカヤマザキチョウ,NAKA YAMAZAKICHO,,35.418327,136.840335
那加山下町一丁目,ナカヤマシタチョウ 1,NAKA YAMASHITACHO 1,,35.413622,136.831658
那加山下町二丁目,ナカヤマシタチョウ 2,NAKA YAMASHITACHO 2,,35.413703,136.833994
那加雄飛ケ丘町,ナカユウヒガオカチョウ,NAKA YUHIGAOKACHO,,35.403548,136.850505
那加楽天地町,ナカラクテンチチョウ,NAKA RAKUTENCHICHO,,35.398719,136.835164
成清町一丁目,ナルキヨチョウ 1,NARUKIYOCHO 1,,35.385234,136.823676
成清町二丁目,ナルキヨチョウ 2,NARUKIYOCHO 2,,35.38534,136.826547
成清町三丁目,ナルキヨチョウ 3,NARUKIYOCHO 3,,35.38516,136.829441
成清町四丁目,ナルキヨチョウ 4,NARUKIYOCHO 4,,35.384372,136.830906
成清町五丁目,ナルキヨチョウ 5,NARUKIYOCHO 5,,35.383375,136.823131
成清町六丁目,ナルキヨチョウ 6,NARUKIYOCHO 6,,35.382933,136.826243
成清町七丁目,ナルキヨチョウ 7,NARUKIYOCHO 7,,35.382553,136.829652
入会町一丁目,ニュウカイチョウ 1,NYUKAICHO 1,,35.407834,136.851686
入会町二丁目,ニュウカイチョウ 2,NYUKAICHO 2,,35.406646,136.851844
入会町三丁目,ニュウカイチョウ 3,NYUKAICHO 3,,35.405492,136.852097
入会町四丁目,ニュウカイチョウ 4,NYUKAICHO 4,,35.406333,136.853778
前渡北町一丁目,マエドキタマチ 1,MAEDO KITAMACHI 1,,35.3884,136.873588
前渡北町二丁目,マエドキタマチ 2,MAEDO KITAMACHI 2,,35.387927,136.875988
前渡北町三丁目,マエドキタマチ 3,MAEDO KITAMACHI 3,,35.388154,136.878346
前渡北町四丁目,マエドキタマチ 4,MAEDO KITAMACHI 4,,35.387832,136.88061
前渡西町,マエドニシマチ,MAEDO NISHIMACHI,,35.379708,136.873256
前渡西町十丁目,マエドニシマチ 10,MAEDO NISHIMACHI 10,,35.388268,136.865108
前渡西町十一丁目,マエドニシマチ 11,MAEDO NISHIMACHI 11,,35.388114,136.867883
前渡西町十二丁目,マエドニシマチ 12,MAEDO NISHIMACHI 12,,35.3878,136.871534
前渡西町一丁目,マエドニシマチ 1,MAEDO NISHIMACHI 1,,35.384705,136.870397
前渡西町二丁目,マエドニシマチ 2,MAEDO NISHIMACHI 2,,35.384487,136.871777
前渡西町三丁目,マエドニシマチ 3,MAEDO NISHIMACHI 3,,35.384438,136.87326
前渡西町四丁目,マエドニシマチ 4,MAEDO NISHIMACHI 4,,35.384353,136.874812
前渡西町五丁目,マエドニシマチ 5,MAEDO NISHIMACHI 5,,35.384205,136.876126
前渡西町六丁目,マエドニシマチ 6,MAEDO NISHIMACHI 6,,35.386191,136.878067
前渡西町七丁目,マエドニシマチ 7,MAEDO NISHIMACHI 7,,35.386045,136.875151
前渡西町八丁目,マエドニシマチ 8,MAEDO NISHIMACHI 8,,35.385878,136.871574
前渡西町九丁目,マエドニシマチ 9,MAEDO NISHIMACHI 9,,35.386213,136.867757
前渡東町,マエドヒガシマチ,MAEDO HIGASHIMACHI,,35.381101,136.880306
前渡東町一丁目,マエドヒガシマチ 1,MAEDO HIGASHIMACHI 1,,35.387864,136.883589
前渡東町二丁目,マエドヒガシマチ 2,MAEDO HIGASHIMACHI 2,,35.387743,136.887003
前渡東町三丁目,マエドヒガシマチ 3,MAEDO HIGASHIMACHI 3,,35.384701,136.884872
前渡東町四丁目,マエドヒガシマチ 4,MAEDO HIGASHIMACHI 4,,35.380967,136.88431
前渡東町五丁目,マエドヒガシマチ 5,MAEDO HIGASHIMACHI 5,,35.388031,136.890986
前渡東町六丁目,マエドヒガシマチ 6,MAEDO HIGASHIMACHI 6,,35.387087,136.895275
前渡東町七丁目,マエドヒガシマチ 7,MAEDO HIGASHIMACHI 7,,35.381902,136.888047
前渡東町八丁目,マエドヒガシマチ 8,MAEDO HIGASHIMACHI 8,,35.381968,136.892099
前渡東町九丁目,マエドヒガシマチ 9,MAEDO HIGASHIMACHI 9,,35.381445,136.897493
松が丘,マツガオカ,MATSUGAOKA,,35.411223,136.92268
松が丘一丁目,マツガオカ 1,MATSUGAOKA 1,,35.408301,136.917957
松が丘二丁目,マツガオカ 2,MATSUGAOKA 2,,35.409033,136.92176
松が丘三丁目,マツガオカ 3,MATSUGAOKA 3,,35.41005,136.924751
松が丘四丁目,マツガオカ 4,MATSUGAOKA 4,,35.409001,136.926144
松が丘五丁目,マツガオカ 5,MATSUGAOKA 5,,35.408975,136.928212
松が丘六丁目,マツガオカ 6,MATSUGAOKA 6,,35.407339,136.925953
松が丘七丁目,マツガオカ 7,MATSUGAOKA 7,,35.407142,136.927965
松本町,マツモトチョウ,MATSUMOTOCHO,,35.37545,136.860732
松本町一丁目,マツモトチョウ 1,MATSUMOTOCHO 1,,35.378423,136.859223
松本町二丁目,マツモトチョウ 2,MATSUMOTOCHO 2,,35.379624,136.862589
三井北町一丁目,ミイキタマチ 1,MIIKITAMACHI 1,,35.396091,136.835546
三井北町二丁目,ミイキタマチ 2,MIIKITAMACHI 2,,35.394804,136.838258
三井北町三丁目,ミイキタマチ 3,MIIKITAMACHI 3,,35.39479,136.840403
三井町一丁目,ミイチョウ 1,MIICHO 1,,35.394882,136.834701
三井町二丁目,ミイチョウ 2,MIICHO 2,,35.392711,136.835641
三井町三丁目,ミイチョウ 3,MIICHO 3,,35.390361,136.836111
三井町四丁目,ミイチョウ 4,MIICHO 4,,35.391604,136.840107
三井町五丁目,ミイチョウ 5,MIICHO 5,,35.389129,136.840253
三井町六丁目,ミイチョウ 6,MIICHO 6,,35.386769,136.841483
三井東町一丁目,ミイヒガシマチ 1,MIIHIGASHIMACHI 1,,35.394134,136.843367
三井東町二丁目,ミイヒガシマチ 2,MIIHIGASHIMACHI 2,,35.394875,136.846803
三井東町三丁目,ミイヒガシマチ 3,MIIHIGASHIMACHI 3,,35.391381,136.845495
三井東町四丁目,ミイヒガシマチ 4,MIIHIGASHIMACHI 4,,35.389411,136.844947
三井山町一丁目,ミイヤマチョウ 1,MIIYAMACHO 1,,35.388091,136.845559
三井山町二丁目,ミイヤマチョウ 2,MIIYAMACHO 2,,35.386639,136.845817
八木山,,,,35.413923,136.931102
山脇町,ヤマワキチョウ,YAMAWAKICHO,,35.383754,136.854206
山脇町一丁目,ヤマワキチョウ 1,YAMAWAKICHO 1,,35.384606,136.861026
山脇町二丁目,ヤマワキチョウ 2,YAMAWAKICHO 2,,35.383164,136.862175
山脇町三丁目,ヤマワキチョウ 3,YAMAWAKICHO 3,,35.383307,136.859825
山脇町四丁目,ヤマワキチョウ 4,YAMAWAKICHO 4,,35.381962,136.861268
山脇町五丁目,ヤマワキチョウ 5,YAMAWAKICHO 5,,35.381118,136.858635
山脇町六丁目,ヤマワキチョウ 6,YAMAWAKICHO 6,,35.381803,136.854752
山脇町七丁目,ヤマワキチョウ 7,YAMAWAKICHO 7,,35.383583,136.856451
緑苑北一丁目,リョクエンキタ 1,RYOKUEN KITA 1,,35.416745,136.946533
緑苑北二丁目,リョクエンキタ 2,RYOKUEN KITA 2,,35.415667,136.948516
緑苑北三丁目,リョクエンキタ 3,RYOKUEN KITA 3,,35.417248,136.949867
緑苑中一丁目,リョクエンナカ 1,RYOKUEN NAKA 1,,35.412246,136.945754
緑苑中二丁目,リョクエンナカ 2,RYOKUEN NAKA 2,,35.413059,136.94799
緑苑中三丁目,リョクエンナカ 3,RYOKUEN NAKA 3,,35.41034,136.946208
緑苑西一丁目,リョクエンニシ 1,RYOKUEN NISHI 1,,35.414577,136.94321
緑苑西二丁目,リョクエンニシ 2,RYOKUEN NISHI 2,,35.414206,136.945133
緑苑西三丁目,リョクエンニシ 3,RYOKUEN NISHI 3,,35.411933,136.942529
緑苑西四丁目,リョクエンニシ 4,RYOKUEN NISHI 4,,35.411629,136.944066
緑苑東一丁目,リョクエンヒガシ 1,RYOKUEN HIGASHI 1,,35.414754,136.951017
緑苑東二丁目,リョクエンヒガシ 2,RYOKUEN HIGASHI 2,,35.412694,136.951248
緑苑東三丁目,リョクエンヒガシ 3,RYOKUEN HIGASHI 3,,35.412675,136.94942
緑苑東四丁目,リョクエンヒガシ 4,RYOKUEN HIGASHI 4,,35.410753,136.949321
緑苑南一丁目,リョクエンミナミ 1,RYOKUEN MINAMI 1,,35.409495,136.944128
緑苑南二丁目,リョクエンミナミ 2,RYOKUEN MINAMI 2,,35.408323,136.941173
緑苑南三丁目,リョクエンミナミ 3,RYOKUEN MINAMI 3,,35.40818,136.943086
緑苑南四丁目,リョクエンミナミ 4,RYOKUEN MINAMI 4,,35.409588,136.940056
蘇原北山町四丁目,ソハラキタヤマチョウ 4,SOHARA KITAYAMACHO 4,,35.43479,136.877
東山三丁目,ヒガシヤマ 3,HIGASHIYAMA 3,,35.433549,136.881375
須衛町一丁目,スエチョウ 1,SUECHO 1,,35.440703,136.877312
東山五丁目,ヒガシヤマ 5,HIGASHIYAMA 5,,35.434042,136.88292
東山一丁目,ヒガシヤマ 1,HIGASHIYAMA 1,,35.432365,136.880897
蘇原持田町二丁目,ソハラモチダチョウ 2,SOHARA MOCHIDACHO 2,,35.431638,136.879361
テクノプラザ一丁目,テクノプラザ 1,TEKUNOPURAZA 1,,35.426487,136.89037
須衛町六丁目,スエチョウ 6,SUECHO 6,,35.423351,136.897764
テクノプラザ三丁目,テクノプラザ 3,TEKUNOPURAZA 3,,35.423618,136.894337
テクノプラザ二丁目,テクノプラザ 2,TEKUNOPURAZA 2,,35.422061,136.889215
各務船山町三丁目,カカミフナヤマチョウ 3,KAKAMI FUNAYAMACHO 3,,35.418969,136.892732
蘇原持田町三丁目,ソハラモチダチョウ 3,SOHARA MOCHIDACHO 3,,35.429962,136.881572
蘇原持田町四丁目,ソハラモチダチョウ 4,SOHARA MOCHIDACHO 4,,35.428615,136.882752
須衛町四丁目,スエチョウ 4,SUECHO 4,,35.42947,136.890082
東山四丁目,ヒガシヤマ 4,HIGASHIYAMA 4,,35.432243,136.88388
東山二丁目,ヒガシヤマ 2,HIGASHIYAMA 2,,35.431316,136.882728
テクノプラザ四丁目,テクノプラザ 4,TEKUNOPURAZA 4,,35.429502,136.885325
須衛町二丁目,スエチョウ 2,SUECHO 2,,35.430477,136.886843
