name,name_kana,name_romaji,nickname,latitude,longitude
荒輪井町一丁目,アラワイチョウ 1,ARAWAICHO 1,,35.164506,136.841037
荒輪井町二丁目,アラワイチョウ 2,ARAWAICHO 2,,35.164471,136.839657
稲上町一丁目,イナカミチョウ 1,INAKAMICHO 1,,35.173534,136.843548
稲上町二丁目,イナカミチョウ 2,INAKAMICHO 2,,35.171723,136.844418
稲上町三丁目,イナカミチョウ 3,INAKAMICHO 3,,35.170659,136.844834
稲上町四丁目,イナカミチョウ 4,INAKAMICHO 4,,35.169927,136.844538
稲上町五丁目,イナカミチョウ 5,INAKAMICHO 5,,35.169153,136.844633
稲西町,イナニシチョウ,INANISHICHO,,35.165156,136.837563
稲葉地町,イナバジチョウ,INABAJICHO,,35.170915,136.838219
稲葉地町一丁目,イナバジチョウ 1,INABAJICHO 1,,35.166214,136.84537
稲葉地町二丁目,イナバジチョウ 2,INABAJICHO 2,,35.16622,136.843629
稲葉地町三丁目,イナバジチョウ 3,INABAJICHO 3,,35.166685,136.842598
稲葉地町四丁目,イナバジチョウ 4,INABAJICHO 4,,35.166913,136.841022
稲葉地町五丁目,イナバジチョウ 5,INABAJICHO 5,,35.16692,136.839312
稲葉地町六丁目,イナバジチョウ 6,INABAJICHO 6,,35.167549,136.837372
稲葉地町七丁目,イナバジチョウ 7,INABAJICHO 7,,35.163582,136.844762
稲葉地町八丁目,イナバジチョウ 8,INABAJICHO 8,,35.161874,136.846158
稲葉地本通一丁目,イナバジホントオリ 1,INABAJIHONTORI 1,,35.168373,136.845347
稲葉地本通二丁目,イナバジホントオリ 2,INABAJIHONTORI 2,,35.168458,136.842721
稲葉地本通三丁目,イナバジホントオリ 3,INABAJIHONTORI 3,,35.168629,136.839019
乾出町一丁目,イヌイデチョウ 1,INUIDECHO 1,,35.1674,136.856043
乾出町二丁目,イヌイデチョウ 2,INUIDECHO 2,,35.166442,136.856033
乾出町三丁目,イヌイデチョウ 3,INUIDECHO 3,,35.165619,136.856052
乾出町四丁目,イヌイデチョウ 4,INUIDECHO 4,,35.164753,136.856007
猪之越町一丁目,イノコシチョウ 1,INOKOSHICHO 1,,35.185201,136.864358
猪之越町二丁目,イノコシチョウ 2,INOKOSHICHO 2,,35.185547,136.863075
猪之越町三丁目,イノコシチョウ 3,INOKOSHICHO 3,,35.185028,136.861223
井深町,イブカチョウ,IBUKACHO,,35.179469,136.874951
岩上町,イワカミチョウ,IWAKAMICHO,,35.162512,136.838813
岩塚町,イワツカチョウ,IWATSUKACHO,,35.156121,136.840807
岩塚町一丁目,イワツカチョウ 1,IWATSUKACHO 1,,35.156042,136.852908
岩塚町二丁目,イワツカチョウ 2,IWATSUKACHO 2,,35.156107,136.850932
岩塚町三丁目,イワツカチョウ 3,IWATSUKACHO 3,,35.156061,136.848715
岩塚町四丁目,イワツカチョウ 4,IWATSUKACHO 4,,35.156384,136.846165
岩塚町五丁目,イワツカチョウ 5,IWATSUKACHO 5,,35.156497,136.844747
岩塚本通一丁目,イワツカホントオリ 1,IWATSUKAHONTORI 1,,35.15758,136.853147
岩塚本通二丁目,イワツカホントオリ 2,IWATSUKAHONTORI 2,,35.157625,136.850947
岩塚本通三丁目,イワツカホントオリ 3,IWATSUKAHONTORI 3,,35.157829,136.848543
岩塚本通四丁目,イワツカホントオリ 4,IWATSUKAHONTORI 4,,35.157733,136.845758
岩塚本通五丁目,イワツカホントオリ 5,IWATSUKAHONTORI 5,,35.157872,136.843463
岩塚本通六丁目,イワツカホントオリ 6,IWATSUKAHONTORI 6,,35.158015,136.841674
牛島町,,,,35.174089,136.88237
牛田通一丁目,ウシダトオリ 1,USHIDATORI 1,,35.158651,136.864917
牛田通二丁目,ウシダトオリ 2,USHIDATORI 2,,35.155973,136.864945
牛田通三丁目,ウシダトオリ 3,USHIDATORI 3,,35.15446,136.864636
牛田通四丁目,ウシダトオリ 4,USHIDATORI 4,,35.153256,136.864348
運河町,ウンガチョウ,UNGACHO,,35.159577,136.882457
黄金通一丁目,コガネドオリ 1,KOGANEDORI 1,,35.166571,136.872273
黄金通二丁目,コガネドオリ 2,KOGANEDORI 2,,35.164287,136.871746
黄金通三丁目,コガネドオリ 3,KOGANEDORI 3,,35.161807,136.871439
黄金通四丁目,コガネドオリ 4,KOGANEDORI 4,,35.16055,136.871134
黄金通五丁目,コガネドオリ 5,KOGANEDORI 5,,35.159437,136.870961
黄金通六丁目,コガネドオリ 6,KOGANEDORI 6,,35.158079,136.870721
黄金通七丁目,コガネドオリ 7,KOGANEDORI 7,,35.156866,136.870822
黄金通八丁目,コガネドオリ 8,KOGANEDORI 8,,35.156141,136.87073
大秋町一丁目,オオアキチョウ 1,OAKICHO 1,,35.176161,136.867384
大秋町二丁目,オオアキチョウ 2,OAKICHO 2,,35.174774,136.867523
大秋町三丁目,オオアキチョウ 3,OAKICHO 3,,35.173757,136.867075
大秋町四丁目,オオアキチョウ 4,OAKICHO 4,,35.17284,136.867101
大宮町一丁目,オオミヤチョウ 1,OMIYACHO 1,,35.166481,136.865648
大宮町二丁目,オオミヤチョウ 2,OMIYACHO 2,,35.166316,136.864406
大宮町三丁目,オオミヤチョウ 3,OMIYACHO 3,,35.166384,136.863573
沖田町,オキタチョウ,OKITACHO,,35.158899,136.857467
押木田町一丁目,オシキダチョウ 1,OSHIKIDACHO 1,,35.164338,136.857149
押木田町二丁目,オシキダチョウ 2,OSHIKIDACHO 2,,35.163238,136.857033
角割町一丁目,カクワリチョウ 1,KAKUWARICHO 1,,35.156395,136.869281
角割町二丁目,カクワリチョウ 2,KAKUWARICHO 2,,35.156093,136.868017
角割町三丁目,カクワリチョウ 3,KAKUWARICHO 3,,35.155794,136.866761
角割町四丁目,カクワリチョウ 4,KAKUWARICHO 4,,35.155432,136.865708
角割町五丁目,カクワリチョウ 5,KAKUWARICHO 5,,35.154664,136.867597
烏森町一丁目,カスモリチョウ 1,KASUMORICHO 1,,35.154836,136.862565
烏森町二丁目,カスモリチョウ 2,KASUMORICHO 2,,35.155034,136.861001
烏森町三丁目,カスモリチョウ 3,KASUMORICHO 3,,35.155414,136.859286
烏森町四丁目,カスモリチョウ 4,KASUMORICHO 4,,35.155755,136.857424
烏森町五丁目,カスモリチョウ 5,KASUMORICHO 5,,35.155877,136.85555
烏森町六丁目,カスモリチョウ 6,KASUMORICHO 6,,35.15215,136.855038
烏森町七丁目,カスモリチョウ 7,KASUMORICHO 7,,35.151977,136.857385
烏森町八丁目,カスモリチョウ 8,KASUMORICHO 8,,35.152053,136.860797
香取町一丁目,カトリチョウ 1,KATORICHO 1,,35.167509,136.852444
香取町二丁目,カトリチョウ 2,KATORICHO 2,,35.16766,136.848381
上石川町一丁目,カミイシカワチョウ 1,KAMIISHIKAWACHO 1,,35.163994,136.853004
上石川町二丁目,カミイシカワチョウ 2,KAMIISHIKAWACHO 2,,35.163381,136.852992
上石川町三丁目,カミイシカワチョウ 3,KAMIISHIKAWACHO 3,,35.162731,136.85296
上石川町四丁目,カミイシカワチョウ 4,KAMIISHIKAWACHO 4,,35.162071,136.85293
上石川町五丁目,カミイシカワチョウ 5,KAMIISHIKAWACHO 5,,35.161412,136.85333
上米野町一丁目,カミコメノチョウ 1,KAMIKOMENOCHO 1,,35.167066,136.874047
上米野町二丁目,カミコメノチョウ 2,KAMIKOMENOCHO 2,,35.166308,136.875031
上米野町三丁目,カミコメノチョウ 3,KAMIKOMENOCHO 3,,35.166494,136.873672
上米野町四丁目,カミコメノチョウ 4,KAMIKOMENOCHO 4,,35.165554,136.873963
上米野町五丁目,カミコメノチョウ 5,KAMIKOMENOCHO 5,,35.165444,136.874998
上ノ宮町一丁目,カミノミヤチョウ 1,KAMINOMIYACHO 1,,35.176472,136.864592
上ノ宮町二丁目,カミノミヤチョウ 2,KAMINOMIYACHO 2,,35.175389,136.863946
亀島一丁目,カメジマ 1,KAMEJIMA 1,,35.17678,136.87582
亀島二丁目,カメジマ 2,KAMEJIMA 2,,35.174789,136.876298
鴨付町一丁目,カモツキチョウ 1,KAMOTSUKICHO 1,,35.162085,136.843397
鴨付町二丁目,カモツキチョウ 2,KAMOTSUKICHO 2,,35.16066,136.844249
川前町,カワマエチョウ,KAWAMAECHO,,35.146476,136.840883
菊水町一丁目,キクスイチョウ 1,KIKUSUICHO 1,,35.179058,136.851254
菊水町二丁目,キクスイチョウ 2,KIKUSUICHO 2,,35.178694,136.848741
北浦町,キタウラチョウ,KITAURACHO,,35.1587,136.863937
北畑町一丁目,キタハタチョウ 1,KITAHATACHO 1,,35.158831,136.8688
北畑町二丁目,キタハタチョウ 2,KITAHATACHO 2,,35.158783,136.867581
北畑町三丁目,キタハタチョウ 3,KITAHATACHO 3,,35.158745,136.866676
北畑町四丁目,キタハタチョウ 4,KITAHATACHO 4,,35.158733,136.865679
京田町一丁目,キョウデンチョウ 1,KYODENCHO 1,,35.160795,136.869012
京田町二丁目,キョウデンチョウ 2,KYODENCHO 2,,35.160635,136.867687
京田町三丁目,キョウデンチョウ 3,KYODENCHO 3,,35.160543,136.866148
草薙町一丁目,クサナギチョウ 1,KUSANAGICHO 1,,35.171545,136.851456
草薙町二丁目,クサナギチョウ 2,KUSANAGICHO 2,,35.171609,136.848871
草薙町三丁目,クサナギチョウ 3,KUSANAGICHO 3,,35.171736,136.846916
熊野町一丁目,クマノチョウ 1,KUMANOCHO 1,,35.16221,136.870067
熊野町二丁目,クマノチョウ 2,KUMANOCHO 2,,35.160549,136.870045
熊野町三丁目,クマノチョウ 3,KUMANOCHO 3,,35.158764,136.870052
郷前町一丁目,ゴウマエチョウ 1,GOMAECHO 1,,35.165331,136.872978
郷前町二丁目,ゴウマエチョウ 2,GOMAECHO 2,,35.16459,136.873919
郷前町三丁目,ゴウマエチョウ 3,GOMAECHO 3,,35.164113,136.873721
小鴨町,コカモチョウ,KOKAMOCHO,,35.15998,136.843048
五反城町一丁目,ゴタンジョウチョウ 1,GOTANJOCHO 1,,35.160826,136.853061
五反城町二丁目,ゴタンジョウチョウ 2,GOTANJOCHO 2,,35.160347,136.853287
五反城町三丁目,ゴタンジョウチョウ 3,GOTANJOCHO 3,,35.159921,136.853508
五反城町四丁目,ゴタンジョウチョウ 4,GOTANJOCHO 4,,35.159451,136.85324
五反城町五丁目,ゴタンジョウチョウ 5,GOTANJOCHO 5,,35.159022,136.85322
五反城町六丁目,ゴタンジョウチョウ 6,GOTANJOCHO 6,,35.158722,136.853206
五反城町七丁目,ゴタンジョウチョウ 7,GOTANJOCHO 7,,35.158424,136.853195
五反城町八丁目,ゴタンジョウチョウ 8,GOTANJOCHO 8,,35.158182,136.853181
寿町,コトブキチョウ,KOTOBUKICHO,,35.171109,136.866218
権現通一丁目,ゴンゲントオリ 1,GONGENTORI 1,,35.163384,136.87774
権現通二丁目,ゴンゲントオリ 2,GONGENTORI 2,,35.163611,136.875197
権現通三丁目,ゴンゲントオリ 3,GONGENTORI 3,,35.16355,136.873182
権現通四丁目,ゴンゲントオリ 4,GONGENTORI 4,,35.163409,136.87021
栄生町,サコチョウ,SAKOCHO,,35.183782,136.871147
佐古前町,サコマエチョウ,SAKOMAECHO,,35.17974,136.871666
笹島町一丁目,ササシマチョウ 1,SASASHIMACHO 1,,35.166101,136.884198
塩池町一丁目,シオイケチョウ 1,SHIOIKECHO 1,,35.186021,136.868366
塩池町二丁目,シオイケチョウ 2,SHIOIKECHO 2,,35.184968,136.866979
塩池町三丁目,シオイケチョウ 3,SHIOIKECHO 3,,35.184404,136.865888
下米野町一丁目,シモコメノチョウ 1,SHIMOKOMENOCHO 1,,35.161159,136.879283
下米野町二丁目,シモコメノチョウ 2,SHIMOKOMENOCHO 2,,35.16047,136.878131
下米野町三丁目,シモコメノチョウ 3,SHIMOKOMENOCHO 3,,35.160163,136.876739
下中村町,シモナカムラチョウ,SHIMONAKAMURACHO,,35.163117,136.869009
下中村町一丁目,シモナカムラチョウ 1,SHIMONAKAMURACHO 1,,35.164379,136.86332
下中村町二丁目,シモナカムラチョウ 2,SHIMONAKAMURACHO 2,,35.163829,136.863029
下中村町三丁目,シモナカムラチョウ 3,SHIMONAKAMURACHO 3,,35.163456,136.86139
下中村町四丁目,シモナカムラチョウ 4,SHIMONAKAMURACHO 4,,35.16306,136.861673
下広井町一丁目,シモヒロイチョウ 1,SHIMOHIROICHO 1,,35.164983,136.884633
十王町,ジュウオウチョウ,JUOCHO,,35.179101,136.867303
宿跡町一丁目,シュクアトチョウ 1,SHUKUATOCHO 1,,35.176692,136.848802
宿跡町二丁目,シュクアトチョウ 2,SHUKUATOCHO 2,,35.17514,136.846492
宿跡町三丁目,シュクアトチョウ 3,SHUKUATOCHO 3,,35.173597,136.845642
城主町一丁目,ジョウシュチョウ 1,JOSHUCHO 1,,35.165385,136.866398
城主町二丁目,ジョウシュチョウ 2,JOSHUCHO 2,,35.16495,136.865773
城主町三丁目,ジョウシュチョウ 3,JOSHUCHO 3,,35.164566,136.86574
城主町四丁目,ジョウシュチョウ 4,JOSHUCHO 4,,35.164206,136.866001
城主町五丁目,ジョウシュチョウ 5,JOSHUCHO 5,,35.163798,136.865835
城主町六丁目,ジョウシュチョウ 6,JOSHUCHO 6,,35.163453,136.866407
白子町一丁目,シラコチョウ 1,SHIRAKOCHO 1,,35.162623,136.866206
白子町二丁目,シラコチョウ 2,SHIRAKOCHO 2,,35.162126,136.866609
白子町三丁目,シラコチョウ 3,SHIRAKOCHO 3,,35.161579,136.866397
白子町四丁目,シラコチョウ 4,SHIRAKOCHO 4,,35.162083,136.868358
城屋敷町一丁目,シロヤシキチョウ 1,SHIROYASHIKICHO 1,,35.172285,136.84159
城屋敷町二丁目,シロヤシキチョウ 2,SHIROYASHIKICHO 2,,35.170766,136.840768
城屋敷町三丁目,シロヤシキチョウ 3,SHIROYASHIKICHO 3,,35.169447,136.841798
城屋敷町四丁目,シロヤシキチョウ 4,SHIROYASHIKICHO 4,,35.169737,136.839331
新富町一丁目,シントミチョウ 1,SHINTOMICHO 1,,35.189182,136.866113
新富町二丁目,シントミチョウ 2,SHINTOMICHO 2,,35.187677,136.865514
新富町三丁目,シントミチョウ 3,SHINTOMICHO 3,,35.187706,136.864012
新富町四丁目,シントミチョウ 4,SHINTOMICHO 4,,35.18761,136.862527
新富町五丁目,シントミチョウ 5,SHINTOMICHO 5,,35.186747,136.86117
砂田町一丁目,スナダチョウ 1,SUNADACHO 1,,35.166561,136.853678
砂田町二丁目,スナダチョウ 2,SUNADACHO 2,,35.165679,136.853636
砂田町三丁目,スナダチョウ 3,SUNADACHO 3,,35.164802,136.853609
諏訪町一丁目,スワチョウ 1,SUWACHO 1,,35.179942,136.855063
諏訪町二丁目,スワチョウ 2,SUWACHO 2,,35.179561,136.853793
諏訪町三丁目,スワチョウ 3,SUWACHO 3,,35.179599,136.852694
千成通一丁目,センナリトオリ 1,SENNARITORI 1,,35.163302,136.867726
千成通二丁目,センナリトオリ 2,SENNARITORI 2,,35.162816,136.864642
千成通三丁目,センナリトオリ 3,SENNARITORI 3,,35.162577,136.862495
千成通四丁目,センナリトオリ 4,SENNARITORI 4,,35.162516,136.860163
千成通五丁目,センナリトオリ 5,SENNARITORI 5,,35.162526,136.857813
千成通六丁目,センナリトオリ 6,SENNARITORI 6,,35.162588,136.855909
太閤一丁目,タイコウ 1,TAIKO 1,,35.165592,136.881946
太閤二丁目,タイコウ 2,TAIKO 2,,35.162859,136.880246
太閤三丁目,タイコウ 3,TAIKO 3,,35.165641,136.879273
太閤四丁目,タイコウ 4,TAIKO 4,,35.166589,136.876888
太閤五丁目,タイコウ 5,TAIKO 5,,35.164883,136.876955
太閤通三丁目,タイコウトオリ 3,TAIKOTORI 3,,35.167447,136.873806
太閤通四丁目,タイコウトオリ 4,TAIKOTORI 4,,35.167714,136.870796
太閤通五丁目,タイコウトオリ 5,TAIKOTORI 5,,35.167855,136.867563
太閤通六丁目,タイコウトオリ 6,TAIKOTORI 6,,35.168024,136.864303
太閤通七丁目,タイコウトオリ 7,TAIKOTORI 7,,35.168052,136.861283
太閤通八丁目,タイコウトオリ 8,TAIKOTORI 8,,35.168211,136.858581
太閤通九丁目,タイコウトオリ 9,TAIKOTORI 9,,35.168292,136.856031
大正町一丁目,タイショウチョウ 1,TAISHOCHO 1,,35.162676,136.87819
大正町二丁目,タイショウチョウ 2,TAISHOCHO 2,,35.162545,136.876564
大正町三丁目,タイショウチョウ 3,TAISHOCHO 3,,35.1625,136.875142
大正町四丁目,タイショウチョウ 4,TAISHOCHO 4,,35.162412,136.873984
大正町五丁目,タイショウチョウ 5,TAISHOCHO 5,,35.162411,136.872672
大日町,ダイニチチョウ,DAINICHICHO,,35.18125,136.869553
大門町,オオモンチョウ,OMONCHO,,35.170557,136.866198
高須賀町,タカスカチョウ,TAKASUKACHO,,35.155447,136.86366
高道町一丁目,タカミチチョウ 1,TAKAMICHICHO 1,,35.182614,136.866015
高道町二丁目,タカミチチョウ 2,TAKAMICHICHO 2,,35.182412,136.864209
高道町三丁目,タカミチチョウ 3,TAKAMICHICHO 3,,35.182779,136.862771
高道町四丁目,タカミチチョウ 4,TAKAMICHICHO 4,,35.180872,136.866039
高道町五丁目,タカミチチョウ 5,TAKAMICHICHO 5,,35.180352,136.864333
高道町六丁目,タカミチチョウ 6,TAKAMICHICHO 6,,35.180599,136.862559
竹橋町,タケバシチョウ,TAKEBASHICHO,,35.168871,136.87555
千原町,チハラチョウ,CHIHARACHO,,35.181388,136.873744
椿町,ツバキチョウ,TSUBAKICHO,,35.170433,136.879388
剣町,ツルギチョウ,TSURUGICHO,,35.159674,136.84676
豊国通一丁目,トヨクニトオリ 1,TOYOKUNITORI 1,,35.167141,136.855021
豊国通二丁目,トヨクニトオリ 2,TOYOKUNITORI 2,,35.16554,136.854922
豊国通三丁目,トヨクニトオリ 3,TOYOKUNITORI 3,,35.163968,136.854831
豊国通四丁目,トヨクニトオリ 4,TOYOKUNITORI 4,,35.161538,136.854824
豊国通六丁目,トヨクニトオリ 6,TOYOKUNITORI 6,,35.15598,136.854354
豊幡町,トヨバタチョウ,TOYOBATACHO,,35.17652,136.854912
鳥居通二丁目,トリイトオリ 2,TORIITORI 2,,35.175992,136.866117
鳥居通三丁目,トリイトオリ 3,TORIITORI 3,,35.174111,136.863845
鳥居通四丁目,トリイトオリ 4,TORIITORI 4,,35.171548,136.860696
鳥居通五丁目,トリイトオリ 5,TORIITORI 5,,35.170157,136.858435
鳥居西通一丁目,トリイニシトオリ 1,TORIINISHITORI 1,,35.168417,136.852568
鳥居西通二丁目,トリイニシトオリ 2,TORIINISHITORI 2,,35.168433,136.848238
長筬町一丁目,ナガオサチョウ 1,NAGAOSACHO 1,,35.167106,136.850275
長筬町二丁目,ナガオサチョウ 2,NAGAOSACHO 2,,35.166698,136.849637
長筬町三丁目,ナガオサチョウ 3,NAGAOSACHO 3,,35.166328,136.849628
長筬町四丁目,ナガオサチョウ 4,NAGAOSACHO 4,,35.165926,136.84962
長筬町五丁目,ナガオサチョウ 5,NAGAOSACHO 5,,35.165518,136.849609
長筬町六丁目,ナガオサチョウ 6,NAGAOSACHO 6,,35.165147,136.849591
長筬町七丁目,ナガオサチョウ 7,NAGAOSACHO 7,,35.164691,136.849552
長草町,ナガクサチョウ,NAGAKUSACHO,,35.1482,136.849059
中島町一丁目,ナカジマチョウ 1,NAKAJIMACHO 1,,35.171962,136.869962
中島町二丁目,ナカジマチョウ 2,NAKAJIMACHO 2,,35.170804,136.870168
中島町三丁目,ナカジマチョウ 3,NAKAJIMACHO 3,,35.170107,136.87044
中島町四丁目,ナカジマチョウ 4,NAKAJIMACHO 4,,35.169731,136.869948
長戸井町一丁目,ナガトイチョウ 1,NAGATOICHO 1,,35.159075,136.87583
長戸井町二丁目,ナガトイチョウ 2,NAGATOICHO 2,,35.158399,136.874656
長戸井町三丁目,ナガトイチョウ 3,NAGATOICHO 3,,35.158063,136.873322
長戸井町四丁目,ナガトイチョウ 4,NAGATOICHO 4,,35.15791,136.872002
中村町,ナカムラチョウ,NAKAMURACHO,,35.17478,136.855086
中村町一丁目,ナカムラチョウ 1,NAKAMURACHO 1,,35.174363,136.858079
中村町二丁目,ナカムラチョウ 2,NAKAMURACHO 2,,35.172536,136.859224
中村町三丁目,ナカムラチョウ 3,NAKAMURACHO 3,,35.171389,136.859248
中村町四丁目,ナカムラチョウ 4,NAKAMURACHO 4,,35.172481,136.857051
中村町五丁目,ナカムラチョウ 5,NAKAMURACHO 5,,35.170983,136.857326
中村町六丁目,ナカムラチョウ 6,NAKAMURACHO 6,,35.172509,136.854343
中村町七丁目,ナカムラチョウ 7,NAKAMURACHO 7,,35.17119,136.854308
中村町八丁目,ナカムラチョウ 8,NAKAMURACHO 8,,35.169566,136.855565
中村町九丁目,ナカムラチョウ 9,NAKAMURACHO 9,,35.169646,136.853724
中村中町一丁目,ナカムラナカマチ 1,NAKAMURANAKAMACHI 1,,35.16731,136.857446
中村中町二丁目,ナカムラナカマチ 2,NAKAMURANAKAMACHI 2,,35.166335,136.857775
中村中町三丁目,ナカムラナカマチ 3,NAKAMURANAKAMACHI 3,,35.16537,136.857795
中村中町四丁目,ナカムラナカマチ 4,NAKAMURANAKAMACHI 4,,35.164958,136.85974
中村本町一丁目,ナカムラホンマチ 1,NAKAMURAHOMMACHI 1,,35.16717,136.860198
中村本町二丁目,ナカムラホンマチ 2,NAKAMURAHOMMACHI 2,,35.166525,136.860487
中村本町三丁目,ナカムラホンマチ 3,NAKAMURAHOMMACHI 3,,35.165845,136.861017
中村本町四丁目,ナカムラホンマチ 4,NAKAMURAHOMMACHI 4,,35.165218,136.86196
中村本町五丁目,ナカムラホンマチ 5,NAKAMURAHOMMACHI 5,,35.16477,136.862561
那古野一丁目,ナゴノ 1,NAGONO 1,,35.173123,136.891516
並木一丁目,ナミキ 1,NAMIKI 1,,35.153679,136.851616
並木二丁目,ナミキ 2,NAMIKI 2,,35.15035,136.851197
賑町,ニギワイチョウ,NIGIWAICHO,,35.169359,136.866102
西米野町一丁目,ニシコメノチョウ 1,NISHIKOMENOCHO 1,,35.16656,136.870427
西米野町二丁目,ニシコメノチョウ 2,NISHIKOMENOCHO 2,,35.166693,136.868478
西米野町三丁目,ニシコメノチョウ 3,NISHIKOMENOCHO 3,,35.166719,136.867457
西米野町四丁目,ニシコメノチョウ 4,NISHIKOMENOCHO 4,,35.166547,136.866466
西栄町,ニシサカエチョウ,NISHISAKAECHO,,35.162484,136.841035
西日置一丁目,ニシヒオキ 1,NISHIHIOKI 1,,35.157706,136.887422
鈍池町一丁目,ニブイケチョウ 1,NIBUIKECHO 1,,35.161886,136.857094
鈍池町二丁目,ニブイケチョウ 2,NIBUIKECHO 2,,35.16111,136.857041
鈍池町三丁目,ニブイケチョウ 3,NIBUIKECHO 3,,35.160177,136.857378
野上町,ノガミチョウ,NOGAMICHO,,35.148366,136.843117
野田町,ノダチョウ,NODACHO,,35.148124,136.845828
則武一丁目,ノリタケ 1,NORITAKE 1,,35.172855,136.87606
則武二丁目,ノリタケ 2,NORITAKE 2,,35.171027,136.875614
則武本通一丁目,ノリタケホントオリ 1,NORITAKEHONTORI 1,,35.17587,136.872729
則武本通二丁目,ノリタケホントオリ 2,NORITAKEHONTORI 2,,35.172691,136.872565
則武本通三丁目,ノリタケホントオリ 3,NORITAKEHONTORI 3,,35.1693,136.872527
羽衣町,ハゴロモチョウ,HAGOROMOCHO,,35.169868,136.866163
橋下町,ハシシタチョウ,HASHISHITACHO,,35.182876,136.85513
畑江通一丁目,ハタエトオリ 1,HATAETORI 1,,35.157287,136.869252
畑江通二丁目,ハタエトオリ 2,HATAETORI 2,,35.157301,136.868025
畑江通三丁目,ハタエトオリ 3,HATAETORI 3,,35.157313,136.866789
畑江通四丁目,ハタエトオリ 4,HATAETORI 4,,35.15733,136.865502
畑江通五丁目,ハタエトオリ 5,HATAETORI 5,,35.157369,136.864458
畑江通六丁目,ハタエトオリ 6,HATAETORI 6,,35.157432,136.863067
畑江通七丁目,ハタエトオリ 7,HATAETORI 7,,35.158545,136.863057
畑江通八丁目,ハタエトオリ 8,HATAETORI 8,,35.157408,136.858733
畑江通九丁目,ハタエトオリ 9,HATAETORI 9,,35.157417,136.855675
八社一丁目,ハッシャ 1,HASSHA 1,,35.151912,136.840481
八社二丁目,ハッシャ 2,HASSHA 2,,35.149502,136.839738
八田町,,,,35.149189,136.85319
東宿町一丁目,ヒガシジュクチョウ 1,HIGASHIJUKUCHO 1,,35.176027,136.851611
東宿町二丁目,ヒガシジュクチョウ 2,HIGASHIJUKUCHO 2,,35.173962,136.851435
東宿町三丁目,ヒガシジュクチョウ 3,HIGASHIJUKUCHO 3,,35.173827,136.848618
日ノ宮町一丁目,ヒノミヤチョウ 1,HINOMIYACHO 1,,35.16185,136.860331
日ノ宮町二丁目,ヒノミヤチョウ 2,HINOMIYACHO 2,,35.160996,136.860108
日ノ宮町三丁目,ヒノミヤチョウ 3,HINOMIYACHO 3,,35.1604,136.862187
日ノ宮町四丁目,ヒノミヤチョウ 4,HINOMIYACHO 4,,35.159796,136.861632
日ノ宮町五丁目,ヒノミヤチョウ 5,HINOMIYACHO 5,,35.159068,136.861296
日比津町,ヒビツチョウ,HIBITSUCHO,,35.184521,136.854158
日比津町一丁目,ヒビツチョウ 1,HIBITSUCHO 1,,35.182957,136.859389
日比津町二丁目,ヒビツチョウ 2,HIBITSUCHO 2,,35.180686,136.859866
日比津町三丁目,ヒビツチョウ 3,HIBITSUCHO 3,,35.181761,136.85648
日比津町四丁目,ヒビツチョウ 4,HIBITSUCHO 4,,35.179304,136.857347
日吉町,ヒヨシチョウ,HIYOSHICHO,,35.171603,136.866225
平池町四丁目,ヒライケチョウ 4,HIRAIKECHO  4,,35.161858,136.883249
枇杷島町,,,,35.189988,136.863962
深川町一丁目,フカカワチョウ 1,FUKAKAWACHO 1,,35.160814,136.875292
深川町二丁目,フカカワチョウ 2,FUKAKAWACHO 2,,35.160321,136.874292
深川町三丁目,フカカワチョウ 3,FUKAKAWACHO 3,,35.160501,136.872638
藤江町一丁目,フジエチョウ 1,FUJIECHO 1,,35.174505,136.862673
藤江町二丁目,フジエチョウ 2,FUJIECHO 2,,35.17423,136.861698
藤江町三丁目,フジエチョウ 3,FUJIECHO 3,,35.174284,136.859974
藤江町四丁目,フジエチョウ 4,FUJIECHO 4,,35.172455,136.861002
二瀬町,フタセチョウ,FUTASECHO,,35.159655,136.850331
二ツ橋町一丁目,フタツバシチョウ 1,FUTATSUBASHICHO 1,,35.165721,136.869282
二ツ橋町二丁目,フタツバシチョウ 2,FUTATSUBASHICHO 2,,35.165189,136.869866
二ツ橋町三丁目,フタツバシチョウ 3,FUTATSUBASHICHO 3,,35.164899,136.869336
二ツ橋町四丁目,フタツバシチョウ 4,FUTATSUBASHICHO 4,,35.164454,136.869969
二ツ橋町五丁目,フタツバシチョウ 5,FUTATSUBASHICHO 5,,35.164102,136.868923
本陣通二丁目,ホンジントオリ 2,HONJINTORI 2,,35.177326,136.87133
本陣通三丁目,ホンジントオリ 3,HONJINTORI 3,,35.177167,136.867674
本陣通四丁目,ホンジントオリ 4,HONJINTORI 4,,35.177623,136.863104
本陣通五丁目,ホンジントオリ 5,HONJINTORI 5,,35.177903,136.856466
本陣通六丁目,ホンジントオリ 6,HONJINTORI 6,,35.177879,136.848415
牧野町二丁目,マキノチョウ 2,MAKINOCHO 2,,35.164202,136.883379
牧野町三丁目,マキノチョウ 3,MAKINOCHO 3,,35.165714,136.883683
松重町,マツシゲチョウ,MATSUSHIGECHO,,35.159371,136.892365
松原町一丁目,マツバラチョウ 1,MATSUBARACHO 1,,35.176764,136.87013
松原町二丁目,マツバラチョウ 2,MATSUBARACHO 2,,35.175888,136.870155
松原町三丁目,マツバラチョウ 3,MATSUBARACHO 3,,35.175136,136.871122
松原町四丁目,マツバラチョウ 4,MATSUBARACHO 4,,35.174274,136.871077
松原町五丁目,マツバラチョウ 5,MATSUBARACHO 5,,35.172521,136.869614
道下町一丁目,ミチシタチョウ 1,MICHISHITACHO 1,,35.17379,136.864713
道下町二丁目,ミチシタチョウ 2,MICHISHITACHO 2,,35.1727,136.864081
道下町三丁目,ミチシタチョウ 3,MICHISHITACHO 3,,35.171528,136.862355
道下町四丁目,ミチシタチョウ 4,MICHISHITACHO 4,,35.171526,136.863875
道下町五丁目,ミチシタチョウ 5,MICHISHITACHO 5,,35.170783,136.863949
宮塚町,ミヤツカチョウ,MIYATSUKACHO,,35.160029,136.841142
向島町一丁目,ムコウジマチョウ 1,MUKOJIMACHO 1,,35.164388,136.849631
向島町二丁目,ムコウジマチョウ 2,MUKOJIMACHO 2,,35.164072,136.849635
向島町三丁目,ムコウジマチョウ 3,MUKOJIMACHO 3,,35.163578,136.849637
向島町四丁目,ムコウジマチョウ 4,MUKOJIMACHO 4,,35.162195,136.848977
向島町五丁目,ムコウジマチョウ 5,MUKOJIMACHO 5,,35.162054,136.85093
名駅一丁目,メイエキ(1-1-8、1-1-12、1-1-13、1-1-14、1-3-4、 1,MEIEKI (1-1-8.1-1-12.1-1-13.1-1-14. 1,,35.170778,136.882494
名駅二丁目,メイエキ(1-1-8、1-1-12、1-1-13、1-1-14、1-3-4、 2,MEIEKI (1-1-8.1-1-12.1-1-13.1-1-14. 2,,35.17454,136.88384
名駅三丁目,メイエキ(1-1-8、1-1-12、1-1-13、1-1-14、1-3-4、 3,MEIEKI (1-1-8.1-1-12.1-1-13.1-1-14. 3,,35.173172,136.886961
名駅四丁目,メイエキ(1-1-8、1-1-12、1-1-13、1-1-14、1-3-4、 4,MEIEKI (1-1-8.1-1-12.1-1-13.1-1-14. 4,,35.17007,136.887272
名駅五丁目,メイエキ(1-1-8、1-1-12、1-1-13、1-1-14、1-3-4、 5,MEIEKI (1-1-8.1-1-12.1-1-13.1-1-14. 5,,35.170189,136.89119
名駅南一丁目,メイエキミナミ 1,MEIEKIMINAMI 1,,35.166296,136.888427
名駅南二丁目,メイエキミナミ 2,MEIEKIMINAMI 2,,35.1642,136.889813
名駅南三丁目,メイエキミナミ 3,MEIEKIMINAMI 3,,35.161482,136.89051
名駅南四丁目,メイエキミナミ 4,MEIEKIMINAMI 4,,35.162447,136.8872
名駅南五丁目,メイエキミナミ 5,MEIEKIMINAMI 5,,35.158885,136.889564
名西通一丁目,メイセイトオリ 1,MEISEITORI 1,,35.164153,136.864397
名西通二丁目,メイセイトオリ 2,MEISEITORI 2,,35.161392,136.864845
名西通三丁目,メイセイトオリ 3,MEISEITORI 3,,35.160203,136.864924
名楽町一丁目,メイラクチョウ 1,MEIRAKUCHO 1,,35.168574,136.867101
名楽町二丁目,メイラクチョウ 2,MEIRAKUCHO 2,,35.169039,136.864489
名楽町三丁目,メイラクチョウ 3,MEIRAKUCHO 3,,35.168853,136.863297
名楽町四丁目,メイラクチョウ 4,MEIRAKUCHO 4,,35.169624,136.863346
名楽町五丁目,メイラクチョウ 5,MEIRAKUCHO 5,,35.17012,136.863751
元中村町一丁目,モトナカムラチョウ 1,MOTONAKAMURACHO 1,,35.169797,136.860466
元中村町二丁目,モトナカムラチョウ 2,MOTONAKAMURACHO 2,,35.169348,136.858939
元中村町三丁目,モトナカムラチョウ 3,MOTONAKAMURACHO 3,,35.169496,136.862156
森末町一丁目,モリスエチョウ 1,MORISUECHO 1,,35.17641,136.862768
森末町二丁目,モリスエチョウ 2,MORISUECHO 2,,35.176392,136.861591
森末町三丁目,モリスエチョウ 3,MORISUECHO 3,,35.176397,136.85995
森末町四丁目,モリスエチョウ 4,MORISUECHO 4,,35.176435,136.857607
森田町一丁目,モリタチョウ 1,MORITACHO 1,,35.178503,136.863751
森田町二丁目,モリタチョウ 2,MORITACHO 2,,35.1786,136.861769
森田町三丁目,モリタチョウ 3,MORITACHO 3,,35.178994,136.859991
靖国町一丁目,ヤスクニチョウ 1,YASUKUNICHO 1,,35.169641,136.851505
靖国町二丁目,ヤスクニチョウ 2,YASUKUNICHO 2,,35.169587,136.848949
靖国町三丁目,ヤスクニチョウ 3,YASUKUNICHO 3,,35.169687,136.847013
横井一丁目,ヨコイ 1,YOKOI 1,,35.149338,136.833621
横井二丁目,ヨコイ 2,YOKOI 2,,35.146671,136.833599
横井町,ヨコイチョウ,YOKOICHO,,35.148642,136.829738
横前町,ヨコマエチョウ,YOKOMAECHO,,35.148036,136.840851
若宮町一丁目,ワカミヤチョウ 1,WAKAMIYACHO 1,,35.169059,136.871204
若宮町二丁目,ワカミヤチョウ 2,WAKAMIYACHO 2,,35.168446,136.871286
若宮町三丁目,ワカミヤチョウ 3,WAKAMIYACHO 3,,35.1685,136.869333
若宮町四丁目,ワカミヤチョウ 4,WAKAMIYACHO 4,,35.16916,136.868888
岩塚町,イワツカチョウ,IWATSUKACHO,横手堤付,35.163015,136.836717
岩塚町,イワツカチョウ,IWATSUKACHO,山堤付,35.162049,136.837378
岩塚町,イワツカチョウ,IWATSUKACHO,干鮹,35.161178,136.839236
岩塚町,イワツカチョウ,IWATSUKACHO,山,35.159986,136.838287
岩塚町,イワツカチョウ,IWATSUKACHO,本陣屋敷,35.160329,136.839452
岩塚町,イワツカチョウ,IWATSUKACHO,宮前,35.152956,136.83918
岩塚町,イワツカチョウ,IWATSUKACHO,上小路,35.158293,136.84033
岩塚町,イワツカチョウ,IWATSUKACHO,宮西,35.159427,136.839614
岩塚町,イワツカチョウ,IWATSUKACHO,郷中,35.15487,136.841262
岩塚町,イワツカチョウ,IWATSUKACHO,新屋敷,35.157186,136.841381
岩塚町,イワツカチョウ,IWATSUKACHO,城前,35.154256,136.843068
岩塚町,イワツカチョウ,IWATSUKACHO,林高寺東,35.157149,136.842802
岩塚町,イワツカチョウ,IWATSUKACHO,一里山,35.152437,136.843536
岩塚町,イワツカチョウ,IWATSUKACHO,小池,35.151087,136.843843
野田町,ノダチョウ,NODACHO,経田,35.147949,136.844415
岩塚町,イワツカチョウ,IWATSUKACHO,大池,35.149854,136.845668
岩塚町,イワツカチョウ,IWATSUKACHO,神田,35.15547,136.845174
岩塚町,イワツカチョウ,IWATSUKACHO,茶ノ木島,35.151351,136.845071
岩塚町,イワツカチョウ,IWATSUKACHO,杁脇,35.153355,136.845402
野田町,ノダチョウ,NODACHO,中深,35.148848,136.846476
岩塚町,イワツカチョウ,IWATSUKACHO,五反田,35.151723,136.84721
岩塚町,イワツカチョウ,IWATSUKACHO,竜子田,35.155177,136.846634
岩塚町,イワツカチョウ,IWATSUKACHO,九反所,35.155009,136.848387
岩塚町,イワツカチョウ,IWATSUKACHO,西枝,35.150092,136.848093
岩塚町,イワツカチョウ,IWATSUKACHO,高道,35.152815,136.848045
岩塚町,イワツカチョウ,IWATSUKACHO,流レ,35.151705,136.848377
中村町,ナカムラチョウ,NAKAMURACHO,茶ノ木,35.174045,136.853913
中村町,ナカムラチョウ,NAKAMURACHO,河原,35.175892,136.853348
中村町,ナカムラチョウ,NAKAMURACHO,高畑,35.175307,136.854552
中村町,ナカムラチョウ,NAKAMURACHO,木下屋敷,35.17452,136.856244
中村町,ナカムラチョウ,NAKAMURACHO,加藤屋敷,35.170572,136.856896
中村町,ナカムラチョウ,NAKAMURACHO,大島,35.169347,136.857279
中村町,ナカムラチョウ,NAKAMURACHO,待屋,35.175222,136.856876
中村町,ナカムラチョウ,NAKAMURACHO,楠,35.169348,136.857997
高須賀町,タカスカチョウ,TAKASUKACHO,北西出,35.158592,136.862831
高須賀町,タカスカチョウ,TAKASUKACHO,北浦,35.159545,136.863852
岩塚町,イワツカチョウ,IWATSUKACHO,神明西,35.159665,136.836859
