name,name_kana,name_romaji,nickname,latitude,longitude
堀越町,,,,35.203607,136.876986
山田町大字上小田井,,,,35.213898,136.881715
山田町大字上小田井,,,敷地,35.215016,136.886613
山田町大字中小田井,,,,35.211148,136.884012
山田町大字大野木,,,,35.218799,136.901733
山田町大字平田,,,,35.218537,136.868456
山田町大字比良,,,,35.229149,136.903833
枇杷島町,,,,35.194482,136.870779
赤城町,アカシロチョウ,AKASHIROCHO,,35.223348,136.888116
あし原町,アシハラチョウ,ASHIHARACHO,,35.210737,136.865431
天塚町一丁目,アマヅカチョウ 1,AMAZUKACHO 1,,35.200266,136.896532
天塚町二丁目,アマヅカチョウ 2,AMAZUKACHO 2,,35.200008,136.895143
天塚町三丁目,アマヅカチョウ 3,AMAZUKACHO 3,,35.200383,136.893962
天塚町四丁目,アマヅカチョウ 4,AMAZUKACHO 4,,35.200529,136.892462
新木町,アラキチョウ,ARAKICHO,,35.216417,136.861363
市場木町,イチバギチョウ,ICHIBAGICHO,,35.217038,136.887765
稲生町,イノウチョウ,INOCHO,,35.210551,136.89179
稲生町,イノウチョウ,INOCHO,杁先,35.209816,136.897869
稲生町一丁目,イノウチョウ 1,INOCHO 1,,35.208476,136.899638
稲生町二丁目,イノウチョウ 2,INOCHO 2,,35.208553,136.897909
稲生町三丁目,イノウチョウ 3,INOCHO 3,,35.208807,136.896395
稲生町四丁目,イノウチョウ 4,INOCHO 4,,35.209281,136.895139
稲生町五丁目,イノウチョウ 5,INOCHO 5,,35.209375,136.893854
稲生町六丁目,イノウチョウ 6,INOCHO 6,,35.209361,136.89289
稲生町七丁目,イノウチョウ 7,INOCHO 7,,35.208715,136.892205
浮野町,ウキノチョウ,UKINOCHO,,35.227101,136.85826
牛島町,ウシジマチョウ,USHIJIMACHO ,,35.175668,136.880386
歌里町,ウタサトチョウ,UTASATOCHO,,35.219966,136.893069
江向町一丁目,エムカエチョウ 1,EMUKAECHO 1,,35.206827,136.899689
江向町二丁目,エムカエチョウ 2,EMUKAECHO 2,,35.206907,136.897799
江向町三丁目,エムカエチョウ 3,EMUKAECHO 3,,35.20704,136.896352
江向町四丁目,エムカエチョウ 4,EMUKAECHO 4,,35.207079,136.89503
江向町五丁目,エムカエチョウ 5,EMUKAECHO 5,,35.207055,136.893828
江向町六丁目,エムカエチョウ 6,EMUKAECHO 6,,35.207405,136.892436
円明町,エンメイチョウ,EMMEICHO,,35.22798,136.873127
大金町一丁目,オオカネチョウ 1,OKANECHO 1,,35.203626,136.887156
大金町二丁目,オオカネチョウ 2,OKANECHO 2,,35.203997,136.887953
大金町三丁目,オオカネチョウ 3,OKANECHO 3,,35.20451,136.888024
大金町四丁目,オオカネチョウ 4,OKANECHO 4,,35.204946,136.88858
大金町五丁目,オオカネチョウ 5,OKANECHO 5,,35.205359,136.888578
大野木一丁目,オオノギ 1,ONOGI 1,,35.215898,136.893838
大野木二丁目,オオノギ 2,ONOGI 2,,35.217965,136.896586
大野木三丁目,オオノギ 3,ONOGI 3,,35.220039,136.899628
大野木四丁目,オオノギ 4,ONOGI 4,,35.221442,136.89905
大野木五丁目,オオノギ 5,ONOGI 5,,35.223759,136.899819
押切一丁目,オシキリ 1,OSHIKIRI 1,,35.186112,136.884832
押切二丁目,オシキリ 2,OSHIKIRI 2,,35.187405,136.884793
貝田町一丁目,カイダチョウ 1,KAIDACHO 1,,35.20093,136.89944
貝田町二丁目,カイダチョウ 2,KAIDACHO 2,,35.200353,136.897907
笠取町一丁目,カサトリチョウ 1,KASATORICHO 1,,35.198564,136.887698
笠取町二丁目,カサトリチョウ 2,KASATORICHO 2,,35.199415,136.887281
笠取町三丁目,カサトリチョウ 3,KASATORICHO 3,,35.200262,136.887891
笠取町四丁目,カサトリチョウ 4,KASATORICHO 4,,35.200522,136.88661
上小田井一丁目,カミオタイ 1,KAMIOTAI 1,,35.215593,136.879923
上小田井二丁目,カミオタイ 2,KAMIOTAI 2,,35.21898,136.878456
上名古屋一丁目,カミナゴヤ 1,KAMINAGOYA 1,,35.193489,136.898072
上名古屋二丁目,カミナゴヤ 2,KAMINAGOYA 2,,35.193334,136.89343
上名古屋三丁目,カミナゴヤ 3,KAMINAGOYA 3,,35.195646,136.893307
上名古屋四丁目,カミナゴヤ 4,KAMINAGOYA 4,,35.195758,136.898043
上橋町,カミバシチョウ,KAMIBASHICHO,,35.22384,136.862644
上堀越町一丁目,カミホリコシチョウ 1,KAMIHORIKOSHICHO 1,,35.205039,136.882387
上堀越町二丁目,カミホリコシチョウ 2,KAMIHORIKOSHICHO 2,,35.204493,136.881131
上堀越町三丁目,カミホリコシチョウ 3,KAMIHORIKOSHICHO 3,,35.204392,136.879874
上堀越町四丁目,カミホリコシチョウ 4,KAMIHORIKOSHICHO 4,,35.203979,136.878707
菊井一丁目,キクイ 1,KIKUI 1,,35.183092,136.884662
菊井二丁目,キクイ 2,KIKUI 2,,35.179351,136.884027
貴生町,キセイチョウ,KISEICHO,,35.223849,136.876019
木前町,キマエチョウ,KIMAECHO,,35.220815,136.865534
清里町,キヨサトチョウ,KIYOSATOCHO,,35.231309,136.894265
康生通一丁目,コウセイトオリ 1,KOSEITORI 1,,35.197301,136.888944
康生通二丁目,コウセイトオリ 2,KOSEITORI 2,,35.197169,136.885068
香呑町一丁目,コウノミチョウ 1,KONOMICHO 1,,35.203264,136.89953
香呑町二丁目,コウノミチョウ 2,KONOMICHO 2,,35.202681,136.897813
香呑町三丁目,コウノミチョウ 3,KONOMICHO 3,,35.202885,136.89637
香呑町四丁目,コウノミチョウ 4,KONOMICHO 4,,35.202783,136.895045
香呑町五丁目,コウノミチョウ 5,KONOMICHO 5,,35.202776,136.893863
香呑町六丁目,コウノミチョウ 6,KONOMICHO 6,,35.203477,136.892273
児玉一丁目,コダマ 1,KODAMA 1,,35.195069,136.88842
児玉二丁目,コダマ 2,KODAMA 2,,35.194409,136.885368
児玉三丁目,コダマ 3,KODAMA 3,,35.19429,136.881847
こも原町,コモハラチョウ,KOMOHARACHO,,35.208514,136.863034
五才美町,ゴサイビチョウ,GOSAIBICHO,,35.220221,136.888312
坂井戸町,サカイドチョウ,SAKAIDOCHO,,35.214887,136.890452
栄生一丁目,サコウ 1,SAKO 1,,35.185553,136.876962
栄生二丁目,サコウ 2,SAKO 2,,35.184714,136.873102
栄生三丁目,サコウ 3,SAKO 3,,35.187406,136.872232
笹塚町一丁目,ササヅカチョウ 1,SASAZUKACHO 1,,35.200761,136.883675
笹塚町二丁目,ササヅカチョウ 2,SASAZUKACHO 2,,35.200802,136.882133
庄内通一丁目,ショウナイトオリ 1,SHONAITORI 1,,35.199879,136.890991
庄内通二丁目,ショウナイトオリ 2,SHONAITORI 2,,35.20228,136.891085
庄内通三丁目,ショウナイトオリ 3,SHONAITORI 3,,35.204466,136.891095
庄内通四丁目,ショウナイトオリ 4,SHONAITORI 4,,35.206888,136.891326
庄内通五丁目,ショウナイトオリ 5,SHONAITORI 5,,35.208758,136.891513
城西町,シロニシチョウ,SHIRONISHICHO,,35.229184,136.862372
城町,シロマチ,SHIROMACHI,,35.229075,136.866315
新福寺町一丁目,シンプクジチョウ 1,SHIMPUKUJICHO 1,,35.204957,136.885533
新福寺町二丁目,シンプクジチョウ 2,SHIMPUKUJICHO 2,,35.205148,136.883828
新道一丁目,シンミチ 1,SHIMMICHI 1,,35.182426,136.888282
新道二丁目,シンミチ 2,SHIMMICHI 2,,35.179129,136.888097
城西一丁目,ジョウサイ 1,JOSAI 1,,35.183452,136.8933
城西二丁目,ジョウサイ 2,JOSAI 2,,35.185414,136.892887
城西三丁目,ジョウサイ 3,JOSAI 3,,35.188229,136.893371
城西四丁目,ジョウサイ 4,JOSAI 4,,35.190814,136.893218
城西五丁目,ジョウサイ 5,JOSAI 5,,35.191014,136.89767
浄心一丁目,ジョウシン 1,JOSHIN 1,,35.194496,136.89016
浄心二丁目,ジョウシン 2,JOSHIN 2,,35.192653,136.886632
浄心本通三丁目,ジョウシンホントオリ 3,JOSHINHONTORI 3,,35.197614,136.890537
城北町一丁目,ジョウホクチョウ 1,JOHOKUCHO 1,,35.198493,136.898627
城北町二丁目,ジョウホクチョウ 2,JOHOKUCHO 2,,35.198114,136.895801
城北町三丁目,ジョウホクチョウ 3,JOHOKUCHO 3,,35.198288,136.893046
数寄屋町,スキヤチョウ,SUKIYACHO,,35.188637,136.896659
砂原町,スナハラチョウ,SUNAHARACHO,,35.227319,136.893592
浅間一丁目,センゲン 1,SENGEN 1,,35.184145,136.890962
浅間二丁目,センゲン 2,SENGEN 2,,35.185029,136.888427
田幡町,タバタチョウ,TABATACHO,,35.197805,136.8999
玉池町,タマイケチョウ,TAMAIKECHO,,35.227448,136.888179
秩父通一丁目,チチブトオリ 1,CHICHIBUTORI 1,,35.197418,136.898028
秩父通二丁目,チチブトオリ 2,CHICHIBUTORI 2,,35.197228,136.893594
天神山町,テンジンヤマチョウ,TENJINYAMACHO,,35.190031,136.885207
東岸町二丁目,トウガンチョウ 2,TOGANCHO 2,,35.197741,136.882388
十方町,トオホウチョウ,TOHOCHO,,35.218132,136.860295
鳥見町一丁目,トリミチョウ 1,TORIMICHO 1,,35.201611,136.886316
鳥見町二丁目,トリミチョウ 2,TORIMICHO 2,,35.20208,136.887749
鳥見町三丁目,トリミチョウ 3,TORIMICHO 3,,35.202666,136.888958
鳥見町四丁目,トリミチョウ 4,TORIMICHO 4,,35.203014,136.886615
中小田井一丁目,ナカオタイ 1,NAKAOTAI 1,,35.212545,136.877217
中小田井二丁目,ナカオタイ 2,NAKAOTAI 2,,35.212785,136.872858
中小田井三丁目,ナカオタイ 3,NAKAOTAI 3,,35.21455,136.868585
中小田井四丁目,ナカオタイ 4,NAKAOTAI 4,,35.219368,136.872109
中小田井五丁目,ナカオタイ 5,NAKAOTAI 5,,35.217777,136.874709
中沼町,ナカヌマチョウ,NAKANUMACHO,,35.223615,136.858392
長先町,ナガサキチョウ,NAGASAKICHO,,35.220339,136.859064
那古野一丁目,ナゴノ 1,NAGONO 1,,35.175659,136.891779
那古野二丁目,ナゴノ 2,NAGONO 2,,35.176178,136.888086
名塚町,ナヅカチョウ,NAZUKACHO,,35.209268,136.886854
名塚町一丁目,ナヅカチョウ 1,NAZUKACHO 1,,35.206041,136.888713
名塚町二丁目,ナヅカチョウ 2,NAZUKACHO 2,,35.206792,136.888923
名塚町三丁目,ナヅカチョウ 3,NAZUKACHO 3,,35.207827,136.887224
名塚町四丁目,ナヅカチョウ 4,NAZUKACHO 4,,35.208032,136.889939
名塚町五丁目,ナヅカチョウ 5,NAZUKACHO 5,,35.208866,136.890543
西志賀町,ニシシガチョウ,NISHISHIGACHO,,35.198751,136.89103
西原町,ニシハラチョウ,NISHIHARACHO,,35.226718,136.862488
野南町,ノミナミチョウ,NOMINAMICHO,,35.229484,136.858117
則武新町一丁目,ノリタケシンマチ 1,NORITAKESHIMMACHI 1,,35.185103,136.881142
則武新町二丁目,ノリタケシンマチ 2,NORITAKESHIMMACHI 2,,35.182718,136.880147
則武新町三丁目,ノリタケシンマチ 3,NORITAKESHIMMACHI 3,,35.179598,136.879398
則武新町四丁目,ノリタケシンマチ 4,NORITAKESHIMMACHI 4,,35.182474,136.87595
花の木一丁目,ハナノキ 1,HANANOKI 1,,35.186654,136.88864
花の木二丁目,ハナノキ 2,HANANOKI 2,,35.188845,136.889316
花の木三丁目,ハナノキ 3,HANANOKI 3,,35.190884,136.889032
花原町,ハナハラチョウ,HANAHARACHO,,35.225584,136.894108
幅下一丁目,ハバシタ 1,HABASHITA 1,,35.181619,136.892483
幅下二丁目,ハバシタ 2,HABASHITA 2,,35.178824,136.891967
樋の口町,ヒノクチチョウ,HINOKUCHICHO,,35.184978,136.895796
比良一丁目,ヒラ 1,HIRA 1,,35.225006,136.899733
比良二丁目,ヒラ 2,HIRA 2,,35.227289,136.899814
比良三丁目,ヒラ 3,HIRA 3,,35.229411,136.900093
比良四丁目,ヒラ 4,HIRA 4,,35.23291,136.900483
平出町,ヒラデチョウ,HIRADECHO,,35.228815,136.870074
平中町,ヒラナカチョウ,HIRANAKACHO,,35.22506,136.867078
枇杷島一丁目,ビワジマ 1,BIWAJIMA 1,,35.189642,136.872973
枇杷島二丁目,ビワジマ 2,BIWAJIMA 2,,35.189997,136.86838
枇杷島三丁目,ビワジマ 3,BIWAJIMA 3,,35.191846,136.873566
枇杷島四丁目,ビワジマ 4,BIWAJIMA 4,,35.19368,136.874738
枇杷島五丁目,ビワジマ 5,BIWAJIMA 5,,35.195982,136.875918
二方町,フタカタチョウ,FUTAKATACHO,,35.226117,136.881835
宝地町,ホウチチョウ,HOCHICHO,,35.223527,136.893089
堀越一丁目,ホリコシ 1,HORIKOSHI 1,,35.199094,136.878742
堀越二丁目,ホリコシ 2,HORIKOSHI 2,,35.201811,136.88013
堀越三丁目,ホリコシ 3,HORIKOSHI 3,,35.201939,136.878029
堀端町,ホリバタチョウ,HORIBATACHO,,35.188227,136.89782
桝形町一丁目,マスガタチョウ 1,MASUGATACHO 1,,35.208941,136.901009
又穂町一丁目,マタホチョウ 1,MATAHOCHO 1,,35.205153,136.900036
又穂町二丁目,マタホチョウ 2,MATAHOCHO 2,,35.205053,136.898216
又穂町三丁目,マタホチョウ 3,MATAHOCHO 3,,35.204918,136.896222
又穂町四丁目,マタホチョウ 4,MATAHOCHO 4,,35.205144,136.895029
又穂町五丁目,マタホチョウ 5,MATAHOCHO 5,,35.204902,136.893724
又穂町六丁目,マタホチョウ 6,MATAHOCHO 6,,35.20516,136.892375
丸野一丁目,マルノ 1,MARUNO 1,,35.215078,136.864644
丸野二丁目,マルノ 2,MARUNO 2,,35.21815,136.866216
万代町一丁目,マンダイチョウ 1,MANDAICHO 1,,35.197741,136.88865
万代町二丁目,マンダイチョウ 2,MANDAICHO 2,,35.198018,136.885506
南川町,ミナミカワチョウ,MINAMIKAWACHO,,35.219682,136.882801
南堀越一丁目,ミナミホリコシ 1,MINAMIHORIKOSHI 1,,35.196658,136.879623
南堀越二丁目,ミナミホリコシ 2,MINAMIHORIKOSHI 2,,35.198713,136.875122
見寄町,ミヨリチョウ,MIYORICHO,,35.219514,136.863273
名駅一丁目,メイエキ 1,MEIEKI 1,,35.172566,136.881199
名駅二丁目,メイエキ 2,MEIEKI 2,,35.176354,136.884231
名駅三丁目,メイエキ 3,MEIEKI 3,,35.174576,136.886808
名西一丁目,メイセイ 1,MEISEI 1,,35.187703,136.879243
名西二丁目,メイセイ 2,MEISEI 2,,35.18968,136.879804
八筋町,ヤスジチョウ,YASUJICHO,,35.221832,136.881337
山木一丁目,ヤマキ 1,YAMAKI 1,,35.222079,136.869246
山木二丁目,ヤマキ 2,YAMAKI 2,,35.225248,136.871675
