name,name_kana,name_romaji,nickname,latitude,longitude
赤童子町大堀,アカドウジチョウオオボリ,AKADOJICHO OBORI,,35.332544,136.869943
赤童子町大間,アカドウジチョウオオマ,AKADOJICHO OMA,,35.334225,136.86334
赤童子町御宿,アカドウジチョウオヤド,AKADOJICHO OYADO,,35.330118,136.86875
赤童子町栄,アカドウジチョウサカエ,AKADOJICHO SAKAE,,35.329559,136.863183
赤童子町桜道,アカドウジチョウサクラミチ,AKADOJICHO SAKURAMICHI,,35.330699,136.86601
赤童子町白山,アカドウジチョウハクサン,AKADOJICHO HAKUSAN,,35.328149,136.865004
赤童子町福住,アカドウジチョウフクズミ,AKADOJICHO FUKUZUMI,,35.329716,136.873324
赤童子町藤宮,アカドウジチョウフジミヤ,AKADOJICHO FUJIMIYA,,35.329672,136.870779
赤童子町南野,アカドウジチョウミナミノ,AKADOJICHO MINAMINO,,35.333504,136.873325
赤童子町南山,アカドウジチョウミナミヤマ,AKADOJICHO MINAMIYAMA,,35.332138,136.873952
赤童子町良原,アカドウジチョウヨシハラ,AKADOJICHO YOSHIHARA,,35.333369,136.866734
石枕町神明,イシマクラチョウシンメイ,ISHIMAKURACHO SHIMMEI,,35.334205,136.882777
石枕町白山,イシマクラチョウハクサン,ISHIMAKURACHO HAKUSAN,,35.333217,136.886025
今市場町秋津,イマイチバチョウアキツ,IMAICHIBACHO AKITSU,,35.330922,136.883478
今市場町高根,イマイチバチョウタカネ,IMAICHIBACHO TAKANE,,35.327508,136.884978
今市場町宮前,イマイチバチョウミヤマエ,IMAICHIBACHO MIYAMAE,,35.327686,136.89029
今市場町美和,イマイチバチョウミワ,IMAICHIBACHO MIWA,,35.328604,136.881693
後飛保町新開,ウシロヒボチョウシンカイ,USHIROHIBOCHO SHINKAI,,35.351713,136.845309
後飛保町神明野,ウシロヒボチョウシンメイノ,USHIROHIBOCHO SHIMMEINO,,35.347175,136.849803
後飛保町高瀬,ウシロヒボチョウタカセ,USHIROHIBOCHO TAKASE,,35.347194,136.843284
後飛保町出島,ウシロヒボチョウデシマ,USHIROHIBOCHO DESHIMA,,35.354557,136.850667
後飛保町中町,ウシロヒボチョウナカマチ,USHIROHIBOCHO NAKAMACHI,,35.34966,136.845004
後飛保町西町,ウシロヒボチョウニシマチ,USHIROHIBOCHO NISHIMACHI,,35.349705,136.842999
後飛保町東高瀬,ウシロヒボチョウヒガシタカセ,USHIROHIBOCHO HIGASHITAKASE,,35.345973,136.847045
後飛保町平野,ウシロヒボチョウヒラノ,USHIROHIBOCHO HIRANO,,35.348527,136.846439
後飛保町本郷,ウシロヒボチョウホンゴウ,USHIROHIBOCHO HONGO,,35.353005,136.847052
後飛保町前川,ウシロヒボチョウマエカワ,USHIROHIBOCHO MAEKAWA,,35.350003,136.850244
後飛保町宮前,ウシロヒボチョウミヤマエ,USHIROHIBOCHO MIYAMAE,,35.350151,136.846997
後飛保町薬師,ウシロヒボチョウヤクシ,USHIROHIBOCHO YAKUSHI,,35.352802,136.851068
後飛保町両家,ウシロヒボチョウリョウケ,USHIROHIBOCHO RYOKE,,35.352725,136.848516
江森町上,エモリチョウカミ,EMORICHO KAMI,,35.348075,136.892677
江森町中,エモリチョウナカ,EMORICHO NAKA,,35.347081,136.890408
江森町西,エモリチョウニシ,EMORICHO NISHI,,35.346442,136.88844
江森町東,エモリチョウヒガシ,EMORICHO HIGASHI,,35.345099,136.891023
江森町南,エモリチョウミナミ,EMORICHO MINAMI,,35.343214,136.887971
小杁町一色,オイリチョウイッシキ,OIRICHO ISSHIKI,,35.366016,136.863638
小杁町鴨ケ池,オイリチョウカモガイケ,OIRICHO KAMOGAIKE,,35.369687,136.876837
小杁町長者毛西,オイリチョウチョウジャゲニシ,OIRICHO CHOJAGENISHI,,35.362524,136.87253
小杁町長者毛東,オイリチョウチョウジャゲヒガシ,OIRICHO CHOJAGEHIGASHI,,35.362674,136.876856
小杁町千代見,オイリチョウチヨミ,OIRICHO CHIYOMI,,35.364843,136.879491
小杁町寺ノ内,オイリチョウテラノウチ,OIRICHO TERANOCHI,,35.363392,136.867447
小杁町八幡,オイリチョウハチマン,OIRICHO HACHIMAN,,35.36273,136.869843
小杁町林,オイリチョウハヤシ,OIRICHO HAYASHI,,35.366484,136.876618
小杁町本郷,オイリチョウホンゴウ,OIRICHO HONGO,,35.360976,136.867533
小杁町明土,オイリチョウミョウド,OIRICHO MYODO,,35.365581,136.87352
大字鹿子島,,,,35.370384,136.868551
大字草井,,,,35.374418,136.882938
大海道町青木,オオガイドウチョウアオキ,OGAIDOCHO AOKI,,35.327741,136.877796
大海道町神明,オオガイドウチョウシンメイ,OGAIDOCHO SHIMMEI,,35.324496,136.876574
大海道町中里,オオガイドウチョウナカサト,OGAIDOCHO NAKASATO,,35.325803,136.87739
大間町新町,オオマチョウシンマチ,OMACHO SHIMMACHI,,35.334451,136.860532
大間町南大間,オオマチョウミナミオオマ,OMACHO MINAMIOMA,,35.33005,136.862371
小郷町粟田木,オゴウチョウアワタギ,OGOCHO AWATAGI,,35.312166,136.870579
小郷町伍大力,オゴウチョウゴダイリキ,OGOCHO GODAIRIKI,,35.313283,136.867812
小郷町手保ノ木,オゴウチョウテホノキ,OGOCHO TEHONOKI,,35.315066,136.869275
小郷町西ノ山,オゴウチョウニシノヤマ,OGOCHO NISHINOYAMA,,35.314624,136.865585
小郷町楽ノ山,オゴウチョウラクノヤマ,OGOCHO RAKUNOYAMA,,35.311033,136.864912
尾崎町上田,オサキチョウウエダ,OSAKICHO UEDA,,35.331606,136.880542
尾崎町河原,オサキチョウカワハラ,OSAKICHO KAWAHARA,,35.329715,136.879185
尾崎町桐野,オサキチョウキリノ,OSAKICHO KIRINO,,35.33163,136.876886
尾崎町白山,オサキチョウハクサン,OSAKICHO HAKUSAN,,35.332842,136.878402
尾崎町屋敷,オサキチョウヤシキ,OSAKICHO YASHIKI,,35.33145,136.878621
尾崎町若竹,オサキチョウワカタケ,OSAKICHO WAKATAKE,,35.333345,136.87979
勝佐町西郷,,,,35.355495,136.88244
勝佐町地光堂,,,,35.360297,136.88328
勝佐町田代,,,,35.355362,136.884628
勝佐町東郷,,,,35.353265,136.886541
勝佐町西町,,,,35.357687,136.882137
勝佐町本郷,,,,35.352877,136.883825
勝佐町若宮,,,,35.353423,136.889974
鹿子島町生島,,,,35.367667,136.871719
鹿子島町尾崎,,,,35.366221,136.867299
鹿子島町中,,,,35.367043,136.869946
鹿子島町船付,,,,35.368968,136.867642
上奈良町旭,,,,35.329631,136.860903
上奈良町観音寺,,,,35.32483,136.855264
上奈良町久保,,,,35.327418,136.851935
上奈良町郷,,,,35.32772,136.855437
上奈良町栄,,,,35.331889,136.855758
上奈良町神明,,,,35.326325,136.858264
上奈良町天王,,,,35.329505,136.858097
上奈良町豊里,,,,35.325925,136.859877
上奈良町錦,,,,35.334262,136.858386
上奈良町瑞穂,,,,35.329731,136.853736
上奈良町緑,,,,35.3321,136.858976
木賀町定和,キガチョウジョウワ,KIGACHO JOWA,,35.322936,136.868407
木賀町新開,キガチョウシンガイ,KIGACHO SHINGAI,,35.324639,136.86892
木賀町杉,キガチョウスギ,KIGACHO SUGI,,35.327155,136.86661
木賀町大門,キガチョウダイモン,KIGACHO DAIMON,,35.324793,136.871962
木賀東町新宮,キガヒガシチョウシングウ,KIGAHIGASHICHO SHINGU,,35.32694,136.875334
木賀東町新塚,キガヒガシチョウシンヅカ,KIGAHIGASHICHO SHINZUKA,,35.328098,136.874013
木賀本郷町西,キガホンゴウチョウニシ,KIGAHONGOCHO NISHI,,35.327644,136.868414
木賀本郷町東,キガホンゴウチョウヒガシ,KIGAHONGOCHO HIGASHI,,35.327531,136.870334
木賀本郷町緑,キガホンゴウチョウミドリ,KIGAHONGOCHO MIDORI,,35.326819,136.871562
木賀本郷町南,キガホンゴウチョウミナミ,KIGAHONGOCHO MINAMI,,35.325826,136.86909
北野町旭,,,,35.33599,136.874819
北野町川石,キタノチョウカワイシ,KITANOCHO KAWAISHI,,35.334907,136.876558
北野町郷浦,,,,35.33714,136.875361
北野町小松,キタノチョウコマツ,KITANOCHO KOMATSU,,35.333094,136.87544
北野町天神,キタノチョウテンジン,KITANOCHO TENJIN,,35.334596,136.874206
北山町西,キタヤマチョウニシ,KITAYAMACHO NISHI,,35.318961,136.875513
北山町東,キタヤマチョウヒガシ,KITAYAMACHO HIGASHI,,35.31813,136.878532
草井町大野,クサイチョウオオノ,KUSAICHO ONO,,35.373111,136.889024
草井町榊戸,,,,35.369,136.884504
草井町千代見,,,,35.365856,136.882079
草井町中,クサイチョウナカ,KUSAICHO NAKA,,35.371646,136.88234
草井町中野,クサイチョウナカノ,KUSAICHO NAKANO,,35.369764,136.886503
草井町西,クサイチョウニシ,KUSAICHO NISHI,,35.370109,136.880439
草井町南,,,,35.368129,136.882603
草井町宮西,クサイチョウミヤニシ,KUSAICHO MIYANISHI,,35.372166,136.884163
草井町宮東,クサイチョウミヤヒガシ,KUSAICHO MIYAHIGASHI,,35.372721,136.886613
草井町若草,クサイチョウワカクサ,KUSAICHO WAKAKUSA,,35.367025,136.885181
河野町一色,コウノチョウイッシキ,KONOCHO ISSHIKI,,35.347354,136.835465
河野町川西,コウノチョウカワニシ,KONOCHO KAWANISHI,,35.347897,136.837134
河野町管竹,コウノチョウカンチク,KONOCHO KANCHIKU,,35.348262,136.834718
河野町河野,コウノチョウコウノ,KONOCHO KONO,,35.350157,136.839669
河野町五十間,コウノチョウゴジッケン,KONOCHO GOJIKKEN,,35.346228,136.839783
河野町小脇,コウノチョウコワキ,KONOCHO KOWAKI,,35.348114,136.839882
小折町桜雲,,,,35.313291,136.874505
小折町八竜,,,,35.310955,136.873984
小折町八竜西,,,,35.310587,136.87144
小折町八反畑,,,,35.312278,136.879535
小折東町旭,コオリヒガシマチアサヒ,KORIHIGASHIMACHI ASAHI,,35.305984,136.876246
小折本町小松原,コオリホンマチコマツバラ,KORIHOMMACHI KOMATSUBARA,,35.308886,136.880971
小折本町栄,コオリホンマチサカエ,KORIHOMMACHI SAKAE,,35.309199,136.877557
小折本町白山,コオリホンマチハクサン,KORIHOMMACHI HAKUSAN,,35.30389,136.877595
小折本町柳橋,コオリホンマチヤナギバシ,KORIHOMMACHI YANAGIBASHI,,35.306367,136.879229
古知野町朝日,コチノチョウアサヒ,KOCHINOCHO ASAHI,,35.335076,136.871388
古知野町熱田,コチノチョウアツタ,KOCHINOCHO ATSUTA,,35.343212,136.869655
古知野町北屋敷,コチノチョウキタヤシキ,KOCHINOCHO KITAYASHIKI,,35.340364,136.869781
古知野町久保見,コチノチョウクボミ,KOCHINOCHO KUBOMI,,35.338884,136.867898
古知野町小金,コチノチョウコガネ,KOCHINOCHO KOGANE,,35.340609,136.874217
古知野町杉山,コチノチョウスギヤマ,KOCHINOCHO SUGIYAMA,,35.338135,136.874522
古知野町千丸,コチノチョウセンマル,KOCHINOCHO SEMMARU,,35.341437,136.872253
古知野町大塔,コチノチョウダイトウ,KOCHINOCHO DAITO,,35.335041,136.866792
古知野町高瀬,コチノチョウタカセ,KOCHINOCHO TAKASE,,35.344211,136.866835
古知野町桃源,コチノチョウトウゲン,KOCHINOCHO TOGEN,,35.341069,136.868139
古知野町塔塚,コチノチョウトウヅカ,KOCHINOCHO TOZUKA,,35.336787,136.86683
古知野町花霞,コチノチョウハナガスミ,KOCHINOCHO HANAGASUMI,,35.341898,136.866297
古知野町日の出,コチノチョウヒノデ,KOCHINOCHO HINODE,,35.334178,136.869072
古知野町広見,コチノチョウヒロミ,KOCHINOCHO HIROMI,,35.338168,136.872603
古知野町福寿,コチノチョウフクジュ,KOCHINOCHO FUKUJU,,35.336146,136.863295
古知野町古渡,コチノチョウフルワタリ,KOCHINOCHO FURUWATARI,,35.336553,136.869488
古知野町本郷,コチノチョウホンゴウ,KOCHINOCHO HONGO,,35.338538,136.870618
古知野町牧森,コチノチョウマキモリ,KOCHINOCHO MAKIMORI,,35.33756,136.861718
古知野町瑞穂,コチノチョウミズホ,KOCHINOCHO MIZUHO,,35.334823,136.872741
古知野町宮裏,コチノチョウミヤウラ,KOCHINOCHO MIYAURA,,35.339591,136.865082
古知野町宮前,コチノチョウミヤマエ,KOCHINOCHO MIYAMAE,,35.337683,136.864434
五明町青木,ゴミョウチョウアオキ,GOMYOCHO AOKI,,35.319961,136.866405
五明町石橋,ゴミョウチョウイシバシ,GOMYOCHO ISHIBASHI,,35.313988,136.86414
五明町太子堂,ゴミョウチョウタイシドウ,GOMYOCHO TAISHIDO,,35.31808,136.859794
五明町大膳,ゴミョウチョウダイゼン,GOMYOCHO DAIZEN,,35.315118,136.86098
五明町高砂,ゴミョウチョウタカス,GOMYOCHO TAKASU,,35.311927,136.862553
五明町天王,ゴミョウチョウテンノウ,GOMYOCHO TENNO,,35.320293,136.863384
五明町当光地,ゴミョウチョウトウコウチ,GOMYOCHO TOKOCHI,,35.317511,136.86288
五明町根場,ゴミョウチョウネバ,GOMYOCHO NEBA,,35.317087,136.865543
五明町福森,ゴミョウチョウフクモリ,GOMYOCHO FUKUMORI,,35.318252,136.85665
小脇町小脇,コワキチョウコワキ,KOWAKICHO KOWAKI,,35.367866,136.875147
山王町新田,,,,35.337983,136.886431
山王町本郷,,,,35.335635,136.886332
慈光堂町北,ジコウドウチョウキタ,JIKODOCHO KITA,,35.363904,136.883271
慈光堂町南,ジコウドウチョウミナミ,JIKODOCHO MINAMI,,35.361579,136.880856
島宮町桐野,シマミヤチョウキリノ,SHIMAMIYACHO KIRINO,,35.32909,136.848152
島宮町郷内,シマミヤチョウゴウナイ,SHIMAMIYACHO GONAI,,35.336339,136.846094
島宮町巡見,シマミヤチョウジュンケン,SHIMAMIYACHO JUNKEN,,35.33265,136.848997
島宮町城,シマミヤチョウシロ,SHIMAMIYACHO SHIRO,,35.329123,136.846298
島宮町西之宮,シマミヤチョウニシノミヤ,SHIMAMIYACHO NISHINOMIYA,,35.33333,136.845909
島宮町水堀,シマミヤチョウミズホリ,SHIMAMIYACHO MIZUHORI,,35.333703,136.847857
島宮町吉原,シマミヤチョウヨシハラ,SHIMAMIYACHO YOSHIHARA,,35.32987,136.850471
島宮町四日市場,シマミヤチョウヨッカイチバ,SHIMAMIYACHO YOKKAICHIBA,,35.328459,136.843791
曽本町幼川添,ソモトチョウオサナガワゾエ,SOMOTOCHO OSANAGAWAZOE,,35.303708,136.880348
曽本町二子,ソモトチョウフタゴ,SOMOTOCHO FUTAGO,,35.307002,136.885158
曽本町二子前,ソモトチョウフタゴマエ,SOMOTOCHO FUTAGOMAE,,35.302692,136.883045
高屋町旭,タカヤチョウアサヒ,TAKAYACHO ASAHI,,35.347433,136.874919
高屋町後山,タカヤチョウウシロヤマ,TAKAYACHO USHIROYAMA,,35.351748,136.88007
高屋町大松原,タカヤチョウオオマツバラ,TAKAYACHO OMATSUBARA,,35.356072,136.87904
高屋町御日塚,タカヤチョウオヒヅカ,TAKAYACHO OHIZUKA,,35.352343,136.877456
高屋町上本郷,タカヤチョウカミホンゴウ,TAKAYACHO KAMIHONGO,,35.350968,136.883591
高屋町北上,タカヤチョウキタガミ,TAKAYACHO KITAGAMI,,35.353925,136.88066
高屋町神戸,タカヤチョウゴウド,TAKAYACHO GODO,,35.348003,136.877737
高屋町清水,タカヤチョウシミズ,TAKAYACHO SHIMIZU,,35.350864,136.873707
高屋町十六田,タカヤチョウジュウロクデン,TAKAYACHO JUROKUDEN,,35.345771,136.876239
高屋町大師,タカヤチョウダイシ,TAKAYACHO DAISHI,,35.345505,136.881978
高屋町大門,タカヤチョウダイモン,TAKAYACHO DAIMON,,35.347288,136.884616
高屋町遠場,タカヤチョウトウバ,TAKAYACHO TOBA,,35.342363,136.877692
高屋町中屋舗,タカヤチョウナカヤシキ,TAKAYACHO NAKAYASHIKI,,35.349642,136.87882
高屋町西里,タカヤチョウニシサト,TAKAYACHO NISHISATO,,35.353108,136.874822
高屋町西町,タカヤチョウニシマチ,TAKAYACHO NISHIMACHI,,35.348037,136.872797
高屋町八幡,タカヤチョウハチマン,TAKAYACHO HACHIMAN,,35.346099,136.879459
高屋町花戸,タカヤチョウハナド,TAKAYACHO HANADO,,35.343688,136.876917
高屋町本郷,タカヤチョウホンゴウ,TAKAYACHO HONGO,,35.34857,136.881665
田代町郷中,タシロチョウゴウナカ,TASHIROCHO GONAKA,,35.309032,136.873985
田代町西ノ丸,タシロチョウニシノマル,TASHIROCHO NISHINOMARU,,35.308952,136.87053
田代町南出,タシロチョウミナミデ,TASHIROCHO MINAMIDE,,35.305493,136.873471
天王町五反林,テンノウチョウゴタンバヤシ,TENNOCHO GOTAMBAYASHI,,35.319248,136.882577
天王町駒野,テンノウチョウコマノ,TENNOCHO KOMANO,,35.319953,136.88051
中奈良町熊野,,,,35.324059,136.864881
中奈良町西浦,,,,35.321862,136.857564
中奈良町一ツ目,,,,35.32494,136.861571
中奈良町本郷,,,,35.321164,136.859146
中奈良町本郷東,,,,35.321298,136.861547
中般若町川端,,,,35.375484,136.892916
中般若町北浦,,,,35.372992,136.892453
中般若町西,ナカハンニャチョウニシ,NAKAHANNYACHO NISHI,,35.371331,136.892338
中般若町東,ナカハンニャチョウヒガシ,NAKAHANNYACHO HIGASHI,,35.37117,136.897018
野白町西千丸,ノバクチョウニシセンマル,NOBAKUCHO NISHISEMMARU,,35.343327,136.874526
野白町野白,ノバクチョウノバク,NOBAKUCHO NOBAKU,,35.34458,136.872091
野白町東千丸,ノバクチョウヒガシセンマル,NOBAKUCHO HIGASHISEMMARU,,35.342415,136.873869
野白町葭場,ノバクチョウヨシバ,NOBAKUCHO YOSHIBA,,35.345744,136.870644
般若町中山,ハンニャチョウナカヤマ,HANNYACHO NAKAYAMA,,35.365669,136.888155
般若町東山,ハンニャチョウヒガシヤマ,HANNYACHO HIGASHIYAMA,,35.367276,136.893986
般若町前山,ハンニャチョウマエヤマ,HANNYACHO MAEYAMA,,35.363462,136.886877
般若町南山,ハンニャチョウミナミヤマ,HANNYACHO MINAMIYAMA,,35.364235,136.892995
般若町宮山,ハンニャチョウミヤヤマ,HANNYACHO MIYAYAMA,,35.368761,136.889789
東野町岩見,ヒガシノチョウイワミ,HIGASHINOCHO IWAMI,,35.341458,136.859035
東野町鐘鋳山,ヒガシノチョウカネイリヤマ,HIGASHINOCHO KANEIRIYAMA,,35.341052,136.860668
東野町神上,ヒガシノチョウカミアゲ,HIGASHINOCHO KAMIAGE,,35.333558,136.854618
東野町烏森,ヒガシノチョウカラスモリ,HIGASHINOCHO KARASUMORI,,35.337889,136.859347
東野町河原,ヒガシノチョウカワラ,HIGASHINOCHO KAWARA,,35.336746,136.850645
東野町河戸,ヒガシノチョウコウド,HIGASHINOCHO KODO,,35.3372,136.848746
東野町郷前,ヒガシノチョウゴウマエ,HIGASHINOCHO GOMAE,,35.334476,136.852437
東野町郷前西,ヒガシノチョウゴウマエニシ,HIGASHINOCHO GOMAENISHI,,35.332866,136.851104
東野町米野,ヒガシノチョウコメノ,HIGASHINOCHO KOMENO,,35.335456,136.85693
東野町新田,ヒガシノチョウシンデン,HIGASHINOCHO SHINDEN,,35.336839,136.852359
東野町神田,ヒガシノチョウジンデン,HIGASHINOCHO JINDEN,,35.338943,136.854498
東野町新田東,ヒガシノチョウシンデンヒガシ,HIGASHINOCHO SHINDENHIGASHI,,35.336808,136.854716
東野町長幡寺,ヒガシノチョウチョウバンジ,HIGASHINOCHO CHOBANJI,,35.339007,136.860938
東野町七社宮,ヒガシノチョウナナシャグウ,HIGASHINOCHO NANASHAGU,,35.335798,136.853449
東野町西神田,ヒガシノチョウニシジンデン,HIGASHINOCHO NISHIJINDEN,,35.339142,136.851698
東野町西出,ヒガシノチョウニシデ,HIGASHINOCHO NISHIDE,,35.335134,136.849062
東野町東神田,ヒガシノチョウヒガシジンデン,HIGASHINOCHO HIGASHIJINDEN,,35.338572,136.857485
飛高町泉,ヒダカチョウイズミ,HIDAKACHO IZUMI,,35.342448,136.861591
飛高町門野,ヒダカチョウカドノ,HIDAKACHO KADONO,,35.343302,136.864156
飛高町栄,,,,35.347502,136.864715
飛高町中町,ヒダカチョウナカマチ,HIDAKACHO NAKAMACHI,,35.347037,136.869378
飛高町夫見添,,,,35.346026,136.866648
飛高町本町,ヒダカチョウホンマチ,HIDAKACHO HOMMACHI,,35.348733,136.867404
飛高町宮町,ヒダカチョウミヤマチ,HIDAKACHO MIYAMACHI,,35.349704,136.870764
藤ケ丘一丁目,フジガオカ 1,FUJIGAOKA 1,,35.350121,136.853067
藤ケ丘二丁目,フジガオカ 2,FUJIGAOKA 2,,35.351993,136.852961
藤ケ丘三丁目,フジガオカ 3,FUJIGAOKA 3,,35.353066,136.854656
藤ケ丘四丁目,フジガオカ 4,FUJIGAOKA 4,,35.355731,136.853891
藤ケ丘五丁目,フジガオカ 5,FUJIGAOKA 5,,35.356503,136.855559
藤ケ丘六丁目,フジガオカ 6,FUJIGAOKA 6,,35.353637,136.856483
藤ケ丘七丁目,フジガオカ 7,FUJIGAOKA 7,,35.351952,136.858426
布袋下山町北,ホテイシモヤマチョウキタ,HOTEISHIMOYAMACHO KITA,,35.316756,136.86948
布袋下山町西,ホテイシモヤマチョウニシ,HOTEISHIMOYAMACHO NISHI,,35.317097,136.867319
布袋下山町東,ホテイシモヤマチョウヒガシ,HOTEISHIMOYAMACHO HIGASHI,,35.316006,136.872078
布袋下山町南,ホテイシモヤマチョウミナミ,HOTEISHIMOYAMACHO MINAMI,,35.315083,136.870901
布袋町北,ホテイチョウキタ,HOTEICHO KITA,,35.322472,136.871195
布袋町中,ホテイチョウナカ,HOTEICHO NAKA,,35.32005,136.870353
布袋町西,ホテイチョウニシホ,HOTEICHO NISHIHO,,35.320734,136.868678
布袋町西布,ホテイチョウニシホ,HOTEICHO NISHIHO,,35.318765,136.872517
布袋町東,ホテイチョウヒガシ,HOTEICHO HIGASHI,,35.321091,136.872571
布袋町南,ホテイチョウミナミ,HOTEICHO MINAMI,,35.317966,136.870018
前野町新田,マエノチョウシンデン,MAENOCHO SHINDEN,,35.340613,136.890184
前野町新田北,マエノチョウシンデンキタ,MAENOCHO SHINDENKITA,,35.341452,136.892041
前野町高島,マエノチョウタカシマ,MAENOCHO TAKASHIMA,,35.33723,136.894203
前野町西,マエノチョウニシ,MAENOCHO NISHI,,35.33786,136.889793
前野町東,マエノチョウヒガシ,MAENOCHO HIGASHI,,35.339959,136.895447
前野町南,マエノチョウミナミ,MAENOCHO MINAMI,,35.335538,136.891962
前飛保町河原,マエヒボチョウカワハラ,MAEHIBOCHO KAWAHARA,,35.347587,136.852271
前飛保町栄,マエヒボチョウサカエ,MAEHIBOCHO SAKAE,,35.34418,136.857504
前飛保町寺前,マエヒボチョウテラマエ,MAEHIBOCHO TERAMAE,,35.347745,136.859261
前飛保町寺町,マエヒボチョウテラマチ,MAEHIBOCHO TERAMACHI,,35.349585,136.856691
前飛保町西町,マエヒボチョウニシマチ,MAEHIBOCHO NISHIMACHI,,35.347029,136.854463
前飛保町藤町,マエヒボチョウフジマチ,MAEHIBOCHO FUJIMACHI,,35.348867,136.861573
前飛保町緑ケ丘,マエヒボチョウミドリガオカ,MAEHIBOCHO MIDORIGAOKA,,35.346036,136.861082
松竹町上野,マツタケチョウカミノ,MATSUTAKECHO KAMINO,,35.342574,136.854572
松竹町切野,マツタケチョウキリノ,MATSUTAKECHO KIRINO,,35.341379,136.85135
松竹町郷浦,マツタケチョウゴウウラ,MATSUTAKECHO GOURA,,35.344874,136.846805
松竹町米野,マツタケチョウコメノ,MATSUTAKECHO KOMENO,,35.344748,136.852221
松竹町高山,マツタケチョウタカヤマ,MATSUTAKECHO TAKAYAMA,,35.339993,136.848617
松竹町西瀬古,マツタケチョウニシセコ,MATSUTAKECHO NISHISEKO,,35.340436,136.84387
松竹町西松竹,マツタケチョウニシマツタケ,MATSUTAKECHO NISHIMATSUTAKE,,35.342748,136.843699
松竹町八幡,マツタケチョウハチマン,MATSUTAKECHO HACHIMAN,,35.338966,136.843945
松竹町東瀬古,マツタケチョウヒガシセコ,MATSUTAKECHO HIGASHISEKO,,35.343211,136.848655
松竹町向島,マツタケチョウムカイジマ,MATSUTAKECHO MUKAIJIMA,,35.345074,136.843608
松竹町元屋敷,マツタケチョウモトヤシキ,MATSUTAKECHO MOTOYASHIKI,,35.337556,136.844925
南山町中,ミナミヤマチョウナカ,MINAMIYAMACHO NAKA,,35.315287,136.877589
南山町西,ミナミヤマチョウニシ,MINAMIYAMACHO NISHI,,35.315731,136.874294
南山町東,ミナミヤマチョウヒガシ,MINAMIYAMACHO HIGASHI,,35.315109,136.881418
宮後町王塚,,,,35.339916,136.87786
宮後町上河原,,,,35.34406,136.884988
宮後町清水,ミヤウシロチョウシミズ,MIYAUSHIROCHO SHIMIZU,,35.339899,136.886131
宮後町砂場北,,,,35.338414,136.879126
宮後町砂場西,,,,35.338306,136.876154
宮後町砂場東,,,,35.335841,136.879846
宮後町出屋敷,,,,35.337844,136.884008
宮後町天神,,,,35.341196,136.881198
宮後町中町,,,,35.339274,136.882683
宮後町西屋敷,,,,35.344682,136.883745
宮後町八幡,,,,35.341838,136.884684
宮後町船渡,,,,35.342459,136.880708
宮後町向エ,,,,35.341429,136.888071
宮田神明町旭,ミヤタシンメイチョウアサヒ,MIYATASHIMMEICHO ASAHI,,35.359948,136.862531
宮田神明町春日,ミヤタシンメイチョウカスガ,MIYATASHIMMEICHO KASUGA,,35.361586,136.855646
宮田神明町栄,ミヤタシンメイチョウサカエ,MIYATASHIMMEICHO SAKAE,,35.359922,136.858199
宮田神明町天王,ミヤタシンメイチョウテンノウ,MIYATASHIMMEICHO TENNO,,35.361738,136.861969
宮田神明町緑,ミヤタシンメイチョウミドリ,MIYATASHIMMEICHO MIDORI,,35.362949,136.860154
宮田町泉,ミヤタチョウイズミ,MIYATACHO IZUMI,,35.355031,136.842318
宮田町久保見,ミヤタチョウクボミ,MIYATACHO KUBOMI,,35.354286,136.845624
宮田町菖蒲池,ミヤタチョウショウブイケ,MIYATACHO SHOBUIKE,,35.356314,136.851349
宮田町中島,ミヤタチョウナカジマ,MIYATACHO NAKAJIMA,,35.359074,136.853375
宮田町生原,ミヤタチョウハイバラ,MIYATACHO HAIBARA,,35.358409,136.855557
宮田町藤ノ森,ミヤタチョウフジノモリ,MIYATACHO FUJINOMORI,,35.35422,136.839748
宮田町平和,ミヤタチョウヘイワ,MIYATACHO HEIWA,,35.352668,136.843198
宮田町本郷,ミヤタチョウホンゴウ,MIYATACHO HONGO,,35.355425,136.845226
宮田町南野,ミヤタチョウミナミノ,MIYATACHO MINAMINO,,35.352055,136.838657
宮田町南野東,ミヤタチョウミナミノヒガシ,MIYATACHO MINAMINOHIGASHI,,35.352157,136.841101
宮田町宮東,ミヤタチョウミヤヒガシ,MIYATACHO MIYAHIGASHI,,35.356548,136.848475
村久野町上原,ムラクノチョウウエハラ,MURAKUNOCHO UEHARA,,35.359589,136.873619
村久野町金森,ムラクノチョウカナモリ,MURAKUNOCHO KANAMORI,,35.357587,136.873996
村久野町河戸,ムラクノチョウカワド,MURAKUNOCHO KAWADO,,35.355118,136.858258
村久野町九郷,ムラクノチョウクゴウ,MURAKUNOCHO KUGO,,35.359776,136.870758
村久野町鈴道,ムラクノチョウスズミチ,MURAKUNOCHO SUZUMICHI,,35.352125,136.86586
村久野町瀬頭,ムラクノチョウセガシラ,MURAKUNOCHO SEGASHIRA,,35.355353,136.873207
村久野町大門,ムラクノチョウダイモン,MURAKUNOCHO DAIMON,,35.355463,136.861211
村久野町寺東,ムラクノチョウテラヒガシ,MURAKUNOCHO TERAHIGASHI,,35.359183,136.867103
村久野町寺町,ムラクノチョウテラマチ,MURAKUNOCHO TERAMACHI,,35.3575,136.865494
村久野町鳥附,ムラクノチョウトリツキ,MURAKUNOCHO TORITSUKI,,35.352568,136.869914
村久野町中郷,ムラクノチョウナカゴウ,MURAKUNOCHO NAKAGO,,35.357418,136.870152
村久野町仲原,ムラクノチョウナカハラ,MURAKUNOCHO NAKAHARA,,35.355165,136.865976
村久野町平河,ムラクノチョウヒラカワ,MURAKUNOCHO HIRAKAWA,,35.356816,136.876061
村久野町平野,ムラクノチョウヒラノ,MURAKUNOCHO HIRANO,,35.355084,136.869871
村久野町平松,ムラクノチョウヒラマツ,MURAKUNOCHO HIRAMATSU,,35.360236,136.878695
村久野町藤里,ムラクノチョウフジサト,MURAKUNOCHO FUJISATO,,35.357192,136.858264
村久野町冨士塚,ムラクノチョウフジヅカ,MURAKUNOCHO FUJIZUKA,,35.353804,136.862674
村久野町南大門,ムラクノチョウミナミダイモン,MURAKUNOCHO MINAMIDAIMON,,35.352698,136.860276
村久野町宮出,ムラクノチョウミヤデ,MURAKUNOCHO MIYADE,,35.357575,136.861571
村久野町門弟山,ムラクノチョウモンテイヤマ,MURAKUNOCHO MONTEIYAMA,,35.350441,136.863434
安良町池尻,ヤスラチョウイケジリ,YASURACHO IKEJIRI,,35.322416,136.887706
安良町上郷,ヤスラチョウカミゴウ,YASURACHO KAMIGO,,35.325339,136.88689
安良町郷中,ヤスラチョウゴウナカ,YASURACHO GONAKA,,35.322548,136.884479
安良町地蔵,ヤスラチョウジゾウ,YASURACHO JIZO,,35.324968,136.889522
安良町八王子,ヤスラチョウハチオウジ,YASURACHO HACHIOJI,,35.326101,136.883643
安良町宮前,ヤスラチョウミヤマエ,YASURACHO MIYAMAE,,35.323427,136.88258
山尻町朝日,ヤマジリチョウアサヒ,YAMAJIRICHO ASAHI,,35.351806,136.890037
山尻町大桑,ヤマジリチョウオオクワ,YAMAJIRICHO OKUWA,,35.351057,136.892111
山尻町川端,ヤマジリチョウカワバタ,YAMAJIRICHO KAWABATA,,35.349789,136.892679
山尻町本丸,ヤマジリチョウホンマル,YAMAJIRICHO HOMMARU,,35.350307,136.889283
山尻町本丸西,ヤマジリチョウホンマルニシ,YAMAJIRICHO HOMMARUNISHI,,35.349963,136.886614
寄木町秋葉,ヨリキチョウアキバ,YORIKICHO AKIBA,,35.322014,136.875945
寄木町稲木,ヨリキチョウイナキ,YORIKICHO INAKI,,35.322208,136.879785
寄木町天道,ヨリキチョウテンドウ,YORIKICHO TENDO,,35.326499,136.879829
寄木町白山,ヨリキチョウハクサン,YORIKICHO HAKUSAN,,35.323395,136.876361
力長町神出,リキナガチョウカミデ,RIKINAGACHO KAMIDE,,35.33205,136.887553
力長町観音寺,リキナガチョウカンオンジ,RIKINAGACHO KANONJI,,35.333435,136.892902
力長町社宮司,リキナガチョウシャグウジ,RIKINAGACHO SHAGUJI,,35.330604,136.886918
力長町神明,リキナガチョウシンメイ,RIKINAGACHO SHIMMEI,,35.333349,136.889658
力長町大当寺,リキナガチョウダイトウジ,RIKINAGACHO DAITOJI,,35.329125,136.886403
力長町宮前,リキナガチョウミヤマエ,RIKINAGACHO MIYAMAE,,35.328758,136.88921
力長町若宮,リキナガチョウワカミヤ,RIKINAGACHO WAKAMIYA,,35.331929,136.891364
和田町旭,ワダチョウアサヒ,WADACHO ASAHI,,35.359631,136.894957
和田町川東,ワダチョウカワヒガシ,WADACHO KAWAHIGASHI,,35.362105,136.892616
和田町小島,ワダチョウコジマ,WADACHO KOJIMA,,35.360353,136.89188
和田町栄,ワダチョウサカエ,WADACHO SAKAE,,35.358228,136.891558
和田町天神,ワダチョウテンジン,WADACHO TENJIN,,35.355866,136.890234
和田町中,ワダチョウナカ,WADACHO NAKA,,35.358595,136.889355
和田町中島,ワダチョウナカジマ,WADACHO NAKAJIMA,,35.361502,136.88845
和田町中畑,ワダチョウナカハタ,WADACHO NAKAHATA,,35.358269,136.884205
和田町西島,ワダチョウニシジマ,WADACHO NISHIJIMA,,35.361245,136.885548
和田町二タ子,ワダチョウフタゴ,WADACHO FUTAGO,,35.355979,136.893036
和田町本郷,ワダチョウホンゴウ,WADACHO HONGO,,35.358376,136.886859
和田町宮,ワダチョウミヤ,WADACHO MIYA,,35.356196,136.886782
宮田町新田,ミヤタチョウシンデン,MIYATACHO SHINDEN,,35.359987,136.851822
宮田町河沼,ミヤタチョウカワヌマ,MIYATACHO KAWANUMA,,35.358792,136.848866
宮田町四ツ谷,ミヤタチョウヨツヤ,MIYATACHO YOTSUYA,,35.357009,136.845457
宮田町本田島,ミヤタチョウホンダジマ,MIYATACHO HONDAJIMA,,35.355675,136.838471
