name,name_kana,name_romaji,nickname,latitude,longitude
上り戸一丁目,アガリド 1,AGARIDO 1,,34.955687,136.875098
上り戸二丁目,アガリド 2,AGARIDO 2,,34.955948,136.878483
上り戸三丁目,アガリド 3,AGARIDO 3,,34.955303,136.882471
上り戸四丁目,アガリド 4,AGARIDO 4,,34.95312,136.878108
朝倉町,アサクラマチ,ASAKURAMACHI,,34.99144,136.867752
旭一丁目,アサヒ 1,ASAHI 1,,34.955721,136.8417
旭二丁目,アサヒ 2,ASAHI 2,,34.95517,136.846354
旭三丁目,アサヒ 3,ASAHI 3,,34.953928,136.84421
旭四丁目,アサヒ 4,ASAHI 4,,34.953866,136.839666
旭五丁目,アサヒ 5,ASAHI 5,,34.952203,136.838568
旭六丁目,アサヒ 6,ASAHI 6,,34.951375,136.84418
阿原一丁目,アワラ 1,AWARA 1,,34.984106,136.880184
阿原二丁目,アワラ 2,AWARA 2,,34.982424,136.880553
伊賀坂一丁目,イガサカ 1,IGASAKA 1,,34.985386,136.886633
伊賀坂二丁目,イガサカ 2,IGASAKA 2,,34.987848,136.88935
伊賀坂三丁目,イガサカ 3,IGASAKA 3,,34.984343,136.889938
梅が丘一丁目,ウメガオカ 1,UMEGAOKA 1,,34.97269,136.875515
梅が丘二丁目,ウメガオカ 2,UMEGAOKA 2,,34.971315,136.879663
大草,オオクサ,OKUSA,,34.944028,136.829465
大僧一丁目,オオソウ 1,OSO 1,,34.944701,136.86444
大僧二丁目,オオソウ 2,OSO 2,,34.944504,136.869992
大僧三丁目,オオソウ 3,OSO 3,,34.942323,136.870263
大僧四丁目,オオソウ 4,OSO 4,,34.942576,136.865231
岡田,オカダ,OKADA,,34.965909,136.871035
岡田美里町,オカダミサトマチ,OKADAMISATOMACHI,,34.967803,136.854063
岡田緑が丘,オカダミドリガオカ,OKADAMIDORIGAOKA,,34.970896,136.865642
笠松一丁目, 1, 1,,34.986656,136.892621
笠松二丁目, 2, 2,,34.986059,136.895238
笠松三丁目, 3, 3,,34.982451,136.894035
金沢,カナザワ,KANAZAWA,,34.948206,136.843074
鎌が谷一丁目, 1, 1,,34.981169,136.896182
鎌が谷二丁目, 2, 2,,34.979799,136.901188
神田一丁目,カンダ 1,KANDA 1,,34.946117,136.841909
神田二丁目,カンダ 2,KANDA 2,,34.943102,136.846123
神田三丁目,カンダ 3,KANDA 3,,34.941634,136.847959
神田四丁目,カンダ 4,KANDA 4,,34.939909,136.848128
北浜町,キタハママチ,KITAHAMAMACHI,,34.996736,136.853962
旭桃台,キョクトウダイ,KYOKUTODAI,,34.952968,136.856532
旭南一丁目,キョクナン 1,KYOKUNAN 1,,34.948757,136.835966
旭南二丁目,キョクナン 2,KYOKUNAN 2,,34.947509,136.83387
旭南三丁目,キョクナン 3,KYOKUNAN 3,,34.94536,136.836906
旭南四丁目,キョクナン 4,KYOKUNAN 4,,34.942347,136.836413
旭南五丁目,キョクナン 5,KYOKUNAN 5,,34.942413,136.833477
旭南六丁目,キョクナン 6,KYOKUNAN 6,,34.93887,136.831401
こうの巣一丁目, 1, 1,,34.976964,136.892064
こうの巣二丁目, 2, 2,,34.9731,136.895372
三反田一丁目,サンタンダ 1,SANTANDA 1,,34.978689,136.893157
三反田二丁目,サンタンダ 2,SANTANDA 2,,34.98038,136.89308
三反田三丁目,サンタンダ 3,SANTANDA 3,,34.976186,136.897473
清水が丘二丁目,シミズガオカ 2,SHIMIZUGAOKA 2,,34.988961,136.874831
新刀池一丁目,シンカタナイケ 1,SHINKATANAIKE 1,,34.948686,136.868319
新刀池二丁目,シンカタナイケ 2,SHINKATANAIKE 2,,34.948332,136.871172
新知,シンチ,SHINCHI,,34.979242,136.858701
新知台一丁目,シンチダイ 1,SHINCHIDAI 1,,34.986108,136.863284
新知台二丁目,シンチダイ 2,SHINCHIDAI 2,,34.983039,136.867198
新知西町,シンチニシマチ,SHINCHINISHIMACHI,,34.985388,136.862337
新知東町一丁目,シンチヒガシマチ 1,SHINCHIHIGASHIMACHI 1,,34.982055,136.864996
新知東町二丁目,シンチヒガシマチ 2,SHINCHIHIGASHIMACHI 2,,34.97898,136.866681
新知東町三丁目,シンチヒガシマチ 3,SHINCHIHIGASHIMACHI 3,,34.976271,136.869695
新長根一丁目,シンナガネ 1,SHINNAGANE 1,,34.95559,136.86467
新長根二丁目,シンナガネ 2,SHINNAGANE 2,,34.953714,136.866906
新長根三丁目,シンナガネ 3,SHINNAGANE 3,,34.95311,136.864099
新広見,シンヒロミ,SHINHIROMI,,34.949891,136.856354
新舞子,シンマイコ,SHIMMAIKO,,34.954501,136.830812
新舞子東町一丁目,シンマイコヒガシマチ 1,SHIMMAIKOHIGASHIMACHI 1,,34.954265,136.835882
新舞子東町二丁目,シンマイコヒガシマチ 2,SHIMMAIKOHIGASHIMACHI 2,,34.95211,136.834212
佐布里,ソウリ,SORI,,34.967539,136.884138
佐布里台一丁目,ソウリダイ 1,SORIDAI 1,,34.970098,136.886737
佐布里台二丁目,ソウリダイ 2,SORIDAI 2,,34.969807,136.890265
佐布里台三丁目,ソウリダイ 3,SORIDAI 3,,34.966353,136.887322
大興寺,ダイコウジ,DAIKOJI,,34.944396,136.857771
巽が丘一丁目,タツミガオカ 1,TATSUMIGAOKA 1,,34.963361,136.911041
巽が丘二丁目,タツミガオカ 2,TATSUMIGAOKA 2,,34.963713,136.913739
巽が丘三丁目,タツミガオカ 3,TATSUMIGAOKA 3,,34.963973,136.916291
巽が丘四丁目,タツミガオカ 4,TATSUMIGAOKA 4,,34.961547,136.91311
つつじが丘一丁目,ツツジガオカ 1,TSUTSUJIGAOKA 1,,34.987333,136.870591
つつじが丘二丁目,ツツジガオカ 2,TSUTSUJIGAOKA 2,,34.985722,136.874422
つつじが丘三丁目,ツツジガオカ 3,TSUTSUJIGAOKA 3,,34.982889,136.872894
つつじが丘四丁目,ツツジガオカ 4,TSUTSUJIGAOKA 4,,34.985524,136.867737
寺本新町一丁目,テラモトシンマチ 1,TERAMOTOSHIMMACHI 1,,34.996034,136.877097
寺本新町二丁目,テラモトシンマチ 2,TERAMOTOSHIMMACHI 2,,35.000586,136.880794
寺本台一丁目,テラモトダイ 1,TERAMOTODAI 1,,34.995542,136.883704
寺本台二丁目,テラモトダイ 2,TERAMOTODAI 2,,34.99197,136.883512
寺本台三丁目,テラモトダイ 3,TERAMOTODAI 3,,34.989297,136.883637
寺本台四丁目,テラモトダイ 4,TERAMOTODAI 4,,34.988174,136.884987
長浦一丁目,ナガウラ 1,NAGAURA 1,,34.97951,136.849139
長浦二丁目,ナガウラ 2,NAGAURA 2,,34.975803,136.850536
長浦三丁目,ナガウラ 3,NAGAURA 3,,34.975978,136.846662
中原一丁目,ナカハラ 1,NAKAHARA 1,,34.949629,136.860994
中原二丁目,ナカハラ 2,NAKAHARA 2,,34.950392,136.865116
中原三丁目,ナカハラ 3,NAKAHARA 3,,34.947238,136.865057
中原四丁目,ナカハラ 4,NAKAHARA 4,,34.947372,136.859796
西巽が丘一丁目,ニシタツミガオカ 1,NISHITATSUMIGAOKA 1,,34.964019,136.90718
西巽が丘二丁目,ニシタツミガオカ 2,NISHITATSUMIGAOKA 2,,34.961131,136.906261
西巽が丘三丁目,ニシタツミガオカ 3,NISHITATSUMIGAOKA 3,,34.959199,136.906282
にしの台一丁目,ニシノダイ 1,NISHINODAI 1,,34.981809,136.877512
にしの台二丁目,ニシノダイ 2,NISHINODAI 2,,34.97658,136.875273
にしの台三丁目,ニシノダイ 3,NISHINODAI 3,,34.974458,136.872688
にしの台四丁目,ニシノダイ 4,NISHINODAI 4,,34.979738,136.871962
原一丁目,ハラ 1,HARA 1,,34.976199,136.908146
原二丁目,ハラ 2,HARA 2,,34.973383,136.909859
東大僧一丁目,ヒガシオオソウ 1,HIGASHIOSO 1,,34.950374,136.876675
東大僧二丁目,ヒガシオオソウ 2,HIGASHIOSO 2,,34.947444,136.878157
東大僧三丁目,ヒガシオオソウ 3,HIGASHIOSO 3,,34.943379,136.875427
日長,ヒナガ,HINAGA,,34.964663,136.842811
日長台,ヒナガダイ,HINAGADAI,,34.955198,136.852439
日長東田一丁目, 1, 1,,34.96599,136.850135
日長東田二丁目, 2, 2,,34.967232,136.848744
日長東田三丁目, 3, 3,,34.966805,136.84519
平野一丁目,ヒラノ 1,HIRANO 1,,34.999078,136.881214
平野二丁目,ヒラノ 2,HIRANO 2,,34.998365,136.882949
平野三丁目,ヒラノ 3,HIRANO 3,,34.997187,136.885158
吹込一丁目,フキコミ 1,FUKIKOMI 1,,34.959284,136.867196
吹込二丁目,フキコミ 2,FUKIKOMI 2,,34.958564,136.870208
吹込三丁目,フキコミ 3,FUKIKOMI 3,,34.959083,136.87306
吹込四丁目,フキコミ 4,FUKIKOMI 4,,34.956422,136.87128
吹込五丁目,フキコミ 5,FUKIKOMI 5,,34.956637,136.866606
馬背口一丁目, 1, 1,,34.982567,136.884995
馬背口二丁目, 2, 2,,34.979834,136.888563
馬背口三丁目, 3, 3,,34.977758,136.887623
緑浜町,,,,34.957678,136.819
緑町,ミドリマチ,MIDORIMACHI,,34.997415,136.865442
南粕谷一丁目,ミナミカスヤ 1,MINAMIKASUYA 1,,34.935399,136.850313
南粕谷二丁目,ミナミカスヤ 2,MINAMIKASUYA 2,,34.934233,136.852526
南粕谷三丁目,ミナミカスヤ 3,MINAMIKASUYA 3,,34.939185,136.851864
南粕谷四丁目,ミナミカスヤ 4,MINAMIKASUYA 4,,34.937941,136.854441
南粕谷新海一丁目,ミナミカスヤシンカイ 1,MINAMIKASUYASHINKAI 1,,34.939877,136.838157
南粕谷新海二丁目,ミナミカスヤシンカイ 2,MINAMIKASUYASHINKAI 2,,34.936635,136.842398
南粕谷新海三丁目,ミナミカスヤシンカイ 3,MINAMIKASUYASHINKAI 3,,34.937382,136.838641
南粕谷新海四丁目,ミナミカスヤシンカイ 4,MINAMIKASUYASHINKAI 4,,34.938108,136.834954
南粕谷東坂一丁目,ミナミカスヤヒガシザカ 1,MINAMIKASUYAHIGASHIZAKA 1,,34.935848,136.856538
南粕谷東坂二丁目,ミナミカスヤヒガシザカ 2,MINAMIKASUYAHIGASHIZAKA 2,,34.938291,136.859333
南粕谷本町一丁目,ミナミカスヤホンマチ 1,MINAMIKASUYAHOMMACHI 1,,34.940072,136.842134
南粕谷本町二丁目,ミナミカスヤホンマチ 2,MINAMIKASUYAHOMMACHI 2,,34.939846,136.845069
南粕谷本町三丁目,ミナミカスヤホンマチ 3,MINAMIKASUYAHOMMACHI 3,,34.937063,136.848886
南粕谷本町四丁目,ミナミカスヤホンマチ 4,MINAMIKASUYAHOMMACHI 4,,34.936372,136.846106
南粕谷本町五丁目,ミナミカスヤホンマチ 5,MINAMIKASUYAHOMMACHI 5,,34.933764,136.846459
南巽が丘一丁目,ミナミタツミガオカ 1,MINAMITATSUMIGAOKA 1,,34.961524,136.908993
南巽が丘二丁目,ミナミタツミガオカ 2,MINAMITATSUMIGAOKA 2,,34.96053,136.911071
南巽が丘三丁目,ミナミタツミガオカ 3,MINAMITATSUMIGAOKA 3,,34.959862,136.908826
南巽が丘四丁目,ミナミタツミガオカ 4,MINAMITATSUMIGAOKA 4,,34.958749,136.909472
南谷一丁目,ミナミダニ 1,MINAMIDANI 1,,34.96244,136.863121
南谷二丁目,ミナミダニ 2,MINAMIDANI 2,,34.963391,136.860414
南谷三丁目,ミナミダニ 3,MINAMIDANI 3,,34.959582,136.860903
南谷四丁目,ミナミダニ 4,MINAMIDANI 4,,34.957258,136.861237
南浜町,ミナミハママチ,MINAMIHAMAMACHI,,34.973987,136.835357
社山一丁目, 1, 1,,34.99511,136.891608
社山二丁目, 2, 2,,34.991798,136.892176
柳花一丁目, 1, 1,,34.992714,136.88572
柳花二丁目, 2, 2,,34.996857,136.887836
柳花三丁目, 3, 3,,34.991302,136.888769
山屋敷一丁目,ヤマヤシキ 1,YAMAYASHIKI 1,,34.953532,136.868717
山屋敷二丁目,ヤマヤシキ 2,YAMAYASHIKI 2,,34.95371,136.872045
山屋敷三丁目,ヤマヤシキ 3,YAMAYASHIKI 3,,34.952724,136.875469
八幡新町二丁目,ヤワタシンマチ 2,YAWATASHIMMACHI 2,,34.991498,136.872274
八幡新町三丁目,ヤワタシンマチ 3,YAWATASHIMMACHI 3,,34.989545,136.871167
八幡新町一丁目,ヤワタシンマチ 1,YAWATASHIMMACHI 1,,34.993897,136.868448
清水が丘一丁目,シミズガオカ 1,SHIMIZUGAOKA 1,,34.991559,136.876702
八幡,ヤワタ,YAWATA,,34.993423,136.872817
東七曲,,,,34.971648,136.901659
大草,オオクサ,OKUSA,四方田,34.943039,136.827136
大草,オオクサ,OKUSA,大瀬,34.945946,136.828282
新舞子,シンマイコ,SHIMMAIKO,大瀬,34.949536,136.82821
大草,オオクサ,OKUSA,西屋敷,34.94118,136.828197
新舞子,シンマイコ,SHIMMAIKO,竜,34.953101,136.828109
新舞子,シンマイコ,SHIMMAIKO,西畑ケ,34.954579,136.828847
大草,オオクサ,OKUSA,南田面,34.939572,136.829228
大草,オオクサ,OKUSA,西畑,34.944912,136.8294
新舞子,シンマイコ,SHIMMAIKO,郷戸,34.957901,136.830381
新舞子,シンマイコ,SHIMMAIKO,明知山,34.949509,136.829793
大草,オオクサ,OKUSA,牟山堂,34.937826,136.82972
大草,オオクサ,OKUSA,東屋敷,34.941298,136.83007
新舞子,シンマイコ,SHIMMAIKO,出口,34.951788,136.830352
大草,オオクサ,OKUSA,見内山,34.948057,136.830087
大草,オオクサ,OKUSA,中道筋,34.943625,136.830103
日長,ヒナガ,HINAGA,江口,34.9612,136.831841
新舞子,シンマイコ,SHIMMAIKO,南屋敷,34.953188,136.830303
新舞子,シンマイコ,SHIMMAIKO,神田,34.956731,136.831049
新舞子,シンマイコ,SHIMMAIKO,浜田,34.95968,136.831238
新舞子,シンマイコ,SHIMMAIKO,北屋敷,34.955634,136.8313
大草,オオクサ,OKUSA,東畑,34.943713,136.831048
大草,オオクサ,OKUSA,間瀬口,34.947481,136.830989
新舞子,シンマイコ,SHIMMAIKO,南西田,34.95348,136.831884
新舞子,シンマイコ,SHIMMAIKO,大口,34.950501,136.831722
日長,ヒナガ,HINAGA,浦畑口,34.957762,136.832591
大草,オオクサ,OKUSA,北ノ田,34.947294,136.831808
大草,オオクサ,OKUSA,御堂前,34.945912,136.833132
新舞子,シンマイコ,SHIMMAIKO,北西田,34.955444,136.83178
大草,オオクサ,OKUSA,江端,34.942144,136.831751
日長,ヒナガ,HINAGA,森下,34.962236,136.833081
大草,オオクサ,OKUSA,ヒシケ,34.943425,136.832344
新舞子,シンマイコ,SHIMMAIKO,廻間,34.95568,136.833635
新舞子,シンマイコ,SHIMMAIKO,北畑,34.954825,136.833772
新舞子,シンマイコ,SHIMMAIKO,竹ノ花,34.950687,136.833633
日長,ヒナガ,HINAGA,西畑,34.956967,136.833885
日長,ヒナガ,HINAGA,会ケ前,34.957721,136.834393
日長,ヒナガ,HINAGA,神山畔,34.960097,136.834349
日長,ヒナガ,HINAGA,汐田,34.958659,136.834584
日長,ヒナガ,HINAGA,浦畑,34.96752,136.838001
金沢,カナザワ,KANAZAWA,西田,34.950501,136.83531
日長,ヒナガ,HINAGA,ヲチダ,34.957846,136.835859
日長,ヒナガ,HINAGA,城見坂,34.960997,136.836751
日長,ヒナガ,HINAGA,中森谷,34.962775,136.83648
日長,ヒナガ,HINAGA,前田口,34.959582,136.837443
日長,ヒナガ,HINAGA,前田,34.955519,136.836537
日長,ヒナガ,HINAGA,神之木,34.956667,136.836736
金沢,カナザワ,KANAZAWA,北根,34.950177,136.837529
日長,ヒナガ,HINAGA,ヲコシ,34.958021,136.837257
金沢,カナザワ,KANAZAWA,稲荷山,34.952295,136.836854
金沢,カナザワ,KANAZAWA,南根,34.949381,136.83785
日長,ヒナガ,HINAGA,播摩,34.965514,136.838903
金沢,カナザワ,KANAZAWA,落合,34.948582,136.837101
日長,ヒナガ,HINAGA,スクモロ,34.955848,136.838081
新舞子,シンマイコ,SHIMMAIKO,小松寺,34.952819,136.839082
日長,ヒナガ,HINAGA,野中,34.959281,136.838992
金沢,カナザワ,KANAZAWA,向山,34.947475,136.838218
金沢,カナザワ,KANAZAWA,郷中,34.943244,136.840904
日長,ヒナガ,HINAGA,大曽根,34.960819,136.838525
日長,ヒナガ,HINAGA,東畑,34.956605,136.838406
日長,ヒナガ,HINAGA,堀田,34.962222,136.839769
日長,ヒナガ,HINAGA,山之腰,34.965499,136.840087
金沢,カナザワ,KANAZAWA,廻間,34.947753,136.839795
日長,ヒナガ,HINAGA,生出,34.971392,136.842703
金沢,カナザワ,KANAZAWA,神田,34.944871,136.838696
金沢,カナザワ,KANAZAWA,殿門戸,34.951444,136.839057
日長,ヒナガ,HINAGA,大ボシ,34.955194,136.839332
金沢,カナザワ,KANAZAWA,野仲,34.949948,136.83992
日長,ヒナガ,HINAGA,金山,34.968366,136.840272
日長,ヒナガ,HINAGA,浦屋敷,34.958485,136.840652
日長,ヒナガ,HINAGA,東脇,34.956666,136.84037
金沢,カナザワ,KANAZAWA,泉脇,34.946511,136.840979
日長,ヒナガ,HINAGA,狐鎌,34.959324,136.840742
金沢,カナザワ,KANAZAWA,ヨ溝,34.951118,136.840599
日長,ヒナガ,HINAGA,今川,34.967503,136.841298
日長,ヒナガ,HINAGA,栗林,34.964491,136.841163
日長,ヒナガ,HINAGA,古川,34.957264,136.840904
金沢,カナザワ,KANAZAWA,青木,34.948534,136.841529
金沢,カナザワ,KANAZAWA,松之内,34.950636,136.842772
金沢,カナザワ,KANAZAWA,旭ケ丘,34.952052,136.841479
日長,ヒナガ,HINAGA,須雲,34.961859,136.842292
金沢,カナザワ,KANAZAWA,深溝,34.948403,136.843145
金沢,カナザワ,KANAZAWA,与三楽,34.949729,136.842487
日長,ヒナガ,HINAGA,高峰脇,34.958018,136.850136
日長,ヒナガ,HINAGA,土地山,34.959753,136.842115
日長,ヒナガ,HINAGA,安土,34.970268,136.844232
日長,ヒナガ,HINAGA,荒山,34.963562,136.843069
日長,ヒナガ,HINAGA,下田,34.967918,136.844436
金沢,カナザワ,KANAZAWA,宗畠,34.942253,136.843704
日長,ヒナガ,HINAGA,鳥外場,34.958575,136.846331
日長,ヒナガ,HINAGA,石坂口,34.96437,136.843507
日長,ヒナガ,HINAGA,寒空,34.973727,136.84416
金沢,カナザワ,KANAZAWA,大知山,34.94726,136.847248
金沢,カナザワ,KANAZAWA,中向山,34.943952,136.848422
日長,ヒナガ,HINAGA,古根,34.961732,136.844666
日長,ヒナガ,HINAGA,白山,34.962689,136.845771
日長,ヒナガ,HINAGA,丸根田,34.974026,136.847312
金沢,カナザワ,KANAZAWA,市楽,34.949811,136.846175
金沢,カナザワ,KANAZAWA,西寅,34.951751,136.846208
日長,ヒナガ,HINAGA,高峰,34.95672,136.845904
日長,ヒナガ,HINAGA,アブミ,34.956048,136.846231
新舞子,シンマイコ,SHIMMAIKO,落,34.951987,136.848537
日長,ヒナガ,HINAGA,東坂根,34.959821,136.848465
八幡,ヤワタ,YAWATA,浦浜新田,35.00462,136.869146
日長,ヒナガ,HINAGA,大小平地,34.968089,136.846496
金沢,カナザワ,KANAZAWA,東寅,34.951862,136.847363
金沢,カナザワ,KANAZAWA,山林,34.9499,136.848184
日長,ヒナガ,HINAGA,沖ノ田,34.968726,136.849247
日長,ヒナガ,HINAGA,穴田,34.973068,136.848629
日長,ヒナガ,HINAGA,坂根,34.956285,136.848696
日長,ヒナガ,HINAGA,頭部,34.95686,136.849661
日長,ヒナガ,HINAGA,川田,34.954687,136.848315
日長,ヒナガ,HINAGA,原山,34.971461,136.850277
金沢,カナザワ,KANAZAWA,北瀬釜,34.950994,136.848343
日長,ヒナガ,HINAGA,坂ブタ,34.955637,136.849073
日長,ヒナガ,HINAGA,畑下,34.954064,136.850268
日長,ヒナガ,HINAGA,勢鎌,34.94852,136.849235
日長,ヒナガ,HINAGA,辰新田,34.956143,136.850549
日長,ヒナガ,HINAGA,多倉田,34.973194,136.850506
新知,シンチ,SHINCHI,地左右,34.980389,136.850018
金沢,カナザワ,KANAZAWA,西小山,34.947536,136.851882
新知,シンチ,SHINCHI,西新生,34.980017,136.85221
日長,ヒナガ,HINAGA,中石根,34.96601,136.853986
大興寺,ダイコウジ,DAIKOJI,原兵,34.941496,136.854056
新知,シンチ,SHINCHI,二九谷,34.980975,136.850529
日長,ヒナガ,HINAGA,赤坂,34.974186,136.853702
金沢,カナザワ,KANAZAWA,石根,34.949483,136.851777
新知,シンチ,SHINCHI,加家ノ下,34.985821,136.854864
日長,ヒナガ,HINAGA,仲曽根,34.96963,136.851858
新知,シンチ,SHINCHI,浜田,34.983715,136.853166
新知,シンチ,SHINCHI,北新生,34.982062,136.855901
新舞子,シンマイコ,SHIMMAIKO,沢渡,34.952731,136.852985
大興寺,ダイコウジ,DAIKOJI,平井,34.945266,136.855612
金沢,カナザワ,KANAZAWA,東小山,34.949626,136.853098
日長,ヒナガ,HINAGA,入杵,34.971877,136.854639
岡田,オカダ,OKADA,美城ケ根,34.970107,136.854519
新知,シンチ,SHINCHI,南新生,34.977093,136.855115
日長,ヒナガ,HINAGA,上種廻間,34.959858,136.856722
新舞子,シンマイコ,SHIMMAIKO,姥山,34.956964,136.854175
日長,ヒナガ,HINAGA,二タ股,34.973879,136.856264
新舞子,シンマイコ,SHIMMAIKO,口新曽,34.954352,136.854954
新知,シンチ,SHINCHI,加家ノ山,34.983845,136.853657
金沢,カナザワ,KANAZAWA,広見,34.945602,136.853975
日長,ヒナガ,HINAGA,上石根,34.963045,136.856984
新知,シンチ,SHINCHI,東新生,34.979739,136.856281
大興寺,ダイコウジ,DAIKOJI,姥山,34.957223,136.858028
新知,シンチ,SHINCHI,森下,34.987514,136.856388
岡田,オカダ,OKADA,薬師前,34.969954,136.856039
岡田,オカダ,OKADA,下中田,34.969092,136.85509
岡田,オカダ,OKADA,野崎,34.968608,136.856568
新知,シンチ,SHINCHI,八九四,34.984986,136.856483
岡田,オカダ,OKADA,西濁り池,34.958448,136.856722
新舞子,シンマイコ,SHIMMAIKO,奥新曽,34.955064,136.857509
岡田,オカダ,OKADA,東泓,34.967503,136.855996
新知,シンチ,SHINCHI,虎馬,34.975371,136.858026
岡田,オカダ,OKADA,宝ノ脇,34.972165,136.857305
新知,シンチ,SHINCHI,大内,34.989203,136.857086
岡田,オカダ,OKADA,小石山,34.967384,136.857567
新知,シンチ,SHINCHI,椿,34.985619,136.859205
大興寺,ダイコウジ,DAIKOJI,里,34.942098,136.859946
岡田,オカダ,OKADA,上中田,34.969726,136.857735
大興寺,ダイコウジ,DAIKOJI,広目,34.948873,136.857425
新知,シンチ,SHINCHI,杓子,34.979669,136.858079
新知,シンチ,SHINCHI,会下,34.984092,136.858625
岡田,オカダ,OKADA,西峯,34.968549,136.85901
岡田,オカダ,OKADA,西平地,34.965623,136.858857
大興寺,ダイコウジ,DAIKOJI,落田,34.946242,136.859192
岡田,オカダ,OKADA,五反田,34.970996,136.858205
新知,シンチ,SHINCHI,梶廻間,34.982137,136.858593
岡田,オカダ,OKADA,江口山,34.971319,136.858722
新知,シンチ,SHINCHI,下森,34.986643,136.859432
新知,シンチ,SHINCHI,池添,34.977527,136.859708
新知,シンチ,SHINCHI,海廻間,34.981179,136.85976
大興寺,ダイコウジ,DAIKOJI,長根,34.951796,136.859239
新知,シンチ,SHINCHI,美濃川,34.988851,136.859616
新知,シンチ,SHINCHI,佐右坂,34.979233,136.859604
新知,シンチ,SHINCHI,西屋敷,34.991041,136.860855
新知,シンチ,SHINCHI,般脇,34.977543,136.861001
新知,シンチ,SHINCHI,門田,34.98955,136.860988
大興寺,ダイコウジ,DAIKOJI,森越,34.946931,136.860619
岡田,オカダ,OKADA,落田,34.967823,136.860643
新知,シンチ,SHINCHI,釜ケ渕,34.983101,136.860331
新知,シンチ,SHINCHI,佐布見,34.980189,136.861066
岡田,オカダ,OKADA,向田,34.96984,136.861697
新舞子,シンマイコ,SHIMMAIKO,惣兵衛谷,34.955875,136.862954
岡田,オカダ,OKADA,海渡,34.969022,136.86135
大興寺,ダイコウジ,DAIKOJI,丹波脇,34.94814,136.860588
新知,シンチ,SHINCHI,中殿,34.98515,136.860304
新知,シンチ,SHINCHI,永井,34.979144,136.861746
新知,シンチ,SHINCHI,浜脇,34.986451,136.860652
岡田,オカダ,OKADA,久平,34.966959,136.861347
岡田,オカダ,OKADA,砂季ノ脇,34.97279,136.860762
新知,シンチ,SHINCHI,七五三山,34.97787,136.861491
新知,シンチ,SHINCHI,北浦,34.98702,136.860695
岡田,オカダ,OKADA,棚松,34.965641,136.861297
新知,シンチ,SHINCHI,廻間,34.985054,136.86171
新知,シンチ,SHINCHI,坊ノ下,34.981822,136.861296
新知,シンチ,SHINCHI,斉宮畑,34.98391,136.862292
岡田,オカダ,OKADA,向屋敷,34.971024,136.863102
新知,シンチ,SHINCHI,東屋敷,34.991747,136.863113
岡田,オカダ,OKADA,天神山,34.965569,136.862589
新知,シンチ,SHINCHI,二股,34.9766,136.863586
新知,シンチ,SHINCHI,菰,34.973285,136.863001
新知,シンチ,SHINCHI,仲田,34.989671,136.862889
新知,シンチ,SHINCHI,大橋,34.980248,136.862575
新知,シンチ,SHINCHI,西ノ海道,34.982939,136.862444
新知,シンチ,SHINCHI,脇島,34.981582,136.863888
新知,シンチ,SHINCHI,岩ノ脇,34.976698,136.864304
岡田,オカダ,OKADA,西無常堂,34.969025,136.864122
岡田,オカダ,OKADA,向山,34.964127,136.864007
新知,シンチ,SHINCHI,南惣作,34.990668,136.864373
岡田,オカダ,OKADA,開戸,34.967666,136.864849
岡田,オカダ,OKADA,尾脇,34.961537,136.863988
岡田,オカダ,OKADA,高見,34.966795,136.864387
新知,シンチ,SHINCHI,柿ノ木,34.97485,136.865144
新知,シンチ,SHINCHI,樋之口,34.993738,136.864126
新知,シンチ,SHINCHI,下大廻間,34.98917,136.86417
新知,シンチ,SHINCHI,北惣作,34.991666,136.864391
岡田,オカダ,OKADA,南五郎左池,34.958785,136.864458
岡田,オカダ,OKADA,高根,34.960924,136.865486
新知,シンチ,SHINCHI,宝泉坊,34.981015,136.8648
岡田,オカダ,OKADA,南高根,34.959934,136.865631
岡田,オカダ,OKADA,釜谷,34.964839,136.864967
岡田,オカダ,OKADA,善坪,34.961841,136.86561
新知,シンチ,SHINCHI,瓶畝,34.973122,136.867775
岡田,オカダ,OKADA,段戸坊,34.968115,136.866492
八幡,ヤワタ,YAWATA,細見,34.995829,136.866075
岡田,オカダ,OKADA,東無常堂,34.969228,136.86555
岡田,オカダ,OKADA,西島,34.965898,136.8662
新知,シンチ,SHINCHI,近北廻間,34.993117,136.866186
岡田,オカダ,OKADA,三芳橋,34.962641,136.866743
岡田,オカダ,OKADA,中谷,34.96495,136.866916
岡田,オカダ,OKADA,朱人ケ根,34.969377,136.866893
岡田,オカダ,OKADA,西歩田,34.961489,136.866717
岡田,オカダ,OKADA,太郎坊,34.966992,136.867534
八幡,ヤワタ,YAWATA,北廻間,34.994003,136.866175
岡田,オカダ,OKADA,東島,34.963568,136.867691
新知,シンチ,SHINCHI,遠北廻間,34.99332,136.866565
新知,シンチ,SHINCHI,山ノ田,34.975279,136.867009
岡田,オカダ,OKADA,荒田,34.96152,136.867642
岡田,オカダ,OKADA,西焼田,34.970627,136.867558
八幡,ヤワタ,YAWATA,観音脇,34.99548,136.869084
岡田,オカダ,OKADA,東焼田,34.969774,136.86849
岡田,オカダ,OKADA,八熊手,34.962621,136.868279
岡田,オカダ,OKADA,笹根,34.963628,136.868947
八幡,ヤワタ,YAWATA,汐海道,34.998159,136.870845
岡田,オカダ,OKADA,登り,34.965234,136.869274
岡田,オカダ,OKADA,東歩田,34.960614,136.868202
岡田,オカダ,OKADA,西二タ俣,34.96141,136.869032
岡田,オカダ,OKADA,越地,34.964029,136.870103
岡田,オカダ,OKADA,日東ケ峯,34.969414,136.869288
岡田,オカダ,OKADA,片平山,34.967705,136.870149
八幡,ヤワタ,YAWATA,浦浜,35.004668,136.871793
岡田,オカダ,OKADA,袖山,34.966208,136.870146
岡田,オカダ,OKADA,松ケ谷,34.973457,136.869835
岡田,オカダ,OKADA,鏡池,34.960019,136.86919
岡田,オカダ,OKADA,堂山,34.964234,136.871604
岡田,オカダ,OKADA,山ノ脇,34.968356,136.870311
新知,シンチ,SHINCHI,山桃,34.971265,136.870519
岡田,オカダ,OKADA,東二タ俣,34.961113,136.870043
岡田,オカダ,OKADA,西違脇,34.962069,136.870735
八幡,ヤワタ,YAWATA,平井,34.997056,136.872211
岡田,オカダ,OKADA,庄田,34.969931,136.872236
八幡,ヤワタ,YAWATA,左り脇,34.99428,136.87121
八幡,ヤワタ,YAWATA,小根,35.001007,136.871426
岡田,オカダ,OKADA,下ノ山,34.965089,136.871579
岡田,オカダ,OKADA,吹込,34.959795,136.871097
八幡,ヤワタ,YAWATA,杉山,34.989733,136.874239
岡田,オカダ,OKADA,猿田,34.966974,136.872851
八幡,ヤワタ,YAWATA,月山,34.99826,136.872618
大興寺,ダイコウジ,DAIKOJI,西渕馬,34.947935,136.874895
岡田,オカダ,OKADA,東違脇,34.961661,136.872466
大興寺,ダイコウジ,DAIKOJI,刀池,34.949375,136.87288
八幡,ヤワタ,YAWATA,普ケ脇,34.991945,136.87423
岡田,オカダ,OKADA,乞食道,34.968315,136.871689
八幡,ヤワタ,YAWATA,堀切,35.002195,136.873097
八幡,ヤワタ,YAWATA,里之前,34.994232,136.873836
岡田,オカダ,OKADA,釜売池,34.965143,136.874372
岡田,オカダ,OKADA,平地,34.96302,136.874143
八幡,ヤワタ,YAWATA,西水代,34.999348,136.874712
新知,シンチ,SHINCHI,五反田,34.971998,136.873402
岡田,オカダ,OKADA,庄太郎脇,34.960096,136.874749
岡田,オカダ,OKADA,新池下,34.966618,136.87445
岡田,オカダ,OKADA,瓢坂,34.968972,136.874678
岡田,オカダ,OKADA,細脇,34.964027,136.873545
八幡,ヤワタ,YAWATA,東水代,34.998752,136.87548
八幡,ヤワタ,YAWATA,中島,34.996229,136.87562
八幡,ヤワタ,YAWATA,荒井,35.004209,136.875146
岡田,オカダ,OKADA,大曽,34.962039,136.874907
八幡,ヤワタ,YAWATA,蔵池,35.001125,136.875368
岡田,オカダ,OKADA,深田脇,34.959157,136.875427
新知,シンチ,SHINCHI,比沙子,34.970614,136.875551
大興寺,ダイコウジ,DAIKOJI,東渕馬,34.943704,136.877772
八幡,ヤワタ,YAWATA,西前田,34.994359,136.875548
八幡,ヤワタ,YAWATA,荒古後,35.002737,136.877491
八幡,ヤワタ,YAWATA,前田,34.995528,136.875456
岡田,オカダ,OKADA,地極松,34.962485,136.876646
岡田,オカダ,OKADA,新池,34.967033,136.877606
岡田,オカダ,OKADA,地極池,34.960788,136.877369
八幡,ヤワタ,YAWATA,西阿原,34.986083,136.877547
岡田,オカダ,OKADA,南地極池,34.958408,136.876348
新知,シンチ,SHINCHI,瓢坂,34.970773,136.876579
岡田,オカダ,OKADA,奥障子,34.957772,136.878663
八幡,ヤワタ,YAWATA,荒古前,35.000313,136.87826
岡田,オカダ,OKADA,西宝面,34.960652,136.879049
八幡,ヤワタ,YAWATA,宗作,34.997989,136.87676
新知,シンチ,SHINCHI,笠取,34.970223,136.877875
岡田,オカダ,OKADA,馬池,34.962753,136.878096
佐布里,ソウリ,SORI,切山,34.975023,136.878369
佐布里,ソウリ,SORI,堀切,34.976419,136.878113
岡田,オカダ,OKADA,新池裏,34.964385,136.878721
佐布里,ソウリ,SORI,森下,34.977918,136.878925
八幡,ヤワタ,YAWATA,向長曽,34.990422,136.878439
八幡,ヤワタ,YAWATA,竹後,34.995287,136.878239
八幡,ヤワタ,YAWATA,茶原下,34.990706,136.879341
八幡,ヤワタ,YAWATA,池下,34.98546,136.879653
佐布里,ソウリ,SORI,絹屋,34.980022,136.878251
佐布里,ソウリ,SORI,絹屋前,34.983955,136.87868
岡田,オカダ,OKADA,粕池,34.966076,136.880331
新知,シンチ,SHINCHI,粕池,34.967019,136.880957
八幡,ヤワタ,YAWATA,下内橋,35.000188,136.879189
八幡,ヤワタ,YAWATA,堀之内,34.997059,136.880083
八幡,ヤワタ,YAWATA,種池,34.993045,136.879918
佐布里,ソウリ,SORI,船ケ脇,34.979877,136.879335
八幡,ヤワタ,YAWATA,森之前,35.00202,136.879508
佐布里,ソウリ,SORI,大六奥,34.975113,136.879389
岡田,オカダ,OKADA,宝面堂,34.95959,136.880084
佐布里,ソウリ,SORI,大六,34.976306,136.880929
佐布里,ソウリ,SORI,池之脇,34.963758,136.880192
佐布里,ソウリ,SORI,神明,34.973394,136.880273
佐布里,ソウリ,SORI,黒山,34.961208,136.880956
佐布里,ソウリ,SORI,棟守,34.977309,136.880304
佐布里,ソウリ,SORI,早稲脇,34.973887,136.879971
八幡,ヤワタ,YAWATA,東前田,34.991216,136.88079
佐布里,ソウリ,SORI,城山,34.978947,136.880796
八幡,ヤワタ,YAWATA,堂ケ島,34.986452,136.879995
佐布里,ソウリ,SORI,五明,34.975419,136.881483
佐布里,ソウリ,SORI,下田,34.980666,136.881168
八幡,ヤワタ,YAWATA,苅宿,35.002466,136.880385
八幡,ヤワタ,YAWATA,岩ノ脇,34.988445,136.882312
八幡,ヤワタ,YAWATA,筒岡,34.995863,136.881281
八幡,ヤワタ,YAWATA,長峰,34.98429,136.881334
八幡,ヤワタ,YAWATA,里脇,34.99289,136.881735
岡田,オカダ,OKADA,大脇,34.959135,136.880969
佐布里,ソウリ,SORI,西之脇口,34.97389,136.880643
佐布里,ソウリ,SORI,西之脇,34.972402,136.881018
佐布里,ソウリ,SORI,城山下,34.978843,136.881106
佐布里,ソウリ,SORI,地蔵脇,34.971435,136.881944
佐布里,ソウリ,SORI,江之懸,34.969985,136.882255
佐布里,ソウリ,SORI,江之懸前,34.968778,136.882758
佐布里,ソウリ,SORI,五反田,34.976855,136.882544
佐布里,ソウリ,SORI,脇之田,34.980667,136.882374
八幡,ヤワタ,YAWATA,楠廻間,34.984133,136.88332
佐布里,ソウリ,SORI,脇之田前,34.980002,136.882723
岡田,オカダ,OKADA,滝ノ水,34.957146,136.883171
佐布里,ソウリ,SORI,筒井,34.972149,136.884201
佐布里,ソウリ,SORI,五反田上,34.974413,136.882842
佐布里,ソウリ,SORI,鼬脇,34.962806,136.884765
八幡,ヤワタ,YAWATA,獅子懸,35.001451,136.884601
佐布里,ソウリ,SORI,橋詰,34.978339,136.882984
佐布里,ソウリ,SORI,西池之脇,34.965865,136.883346
佐布里,ソウリ,SORI,藻池,34.958768,136.886302
佐布里,ソウリ,SORI,山田前,34.964666,136.884385
佐布里,ソウリ,SORI,池之脇口,34.965927,136.884461
佐布里,ソウリ,SORI,井洞脇前,34.976994,136.883663
岡田,オカダ,OKADA,馬草原,34.956008,136.88345
岡田,オカダ,OKADA,嶽ノ水,34.956539,136.884382
佐布里,ソウリ,SORI,鳳巣田,34.968401,136.884089
佐布里,ソウリ,SORI,竹ケ鼻,34.974969,136.885814
佐布里,ソウリ,SORI,大藤前,34.96929,136.884185
佐布里,ソウリ,SORI,井洞脇,34.977853,136.884666
佐布里,ソウリ,SORI,高之前,34.972356,136.884329
佐布里,ソウリ,SORI,石亀田,34.963961,136.885164
佐布里,ソウリ,SORI,寺脇,34.975892,136.885807
佐布里,ソウリ,SORI,七反田,34.967199,136.884772
佐布里,ソウリ,SORI,向畑,34.973284,136.886243
佐布里,ソウリ,SORI,東脇口,34.972473,136.886544
佐布里,ソウリ,SORI,広茂,34.964281,136.888574
佐布里,ソウリ,SORI,長田脇,34.972879,136.889363
佐布里,ソウリ,SORI,東脇,34.972714,136.891239
佐布里,ソウリ,SORI,白脇,34.966734,136.889358
佐布里,ソウリ,SORI,上加世端,34.958101,136.89222
佐布里,ソウリ,SORI,奥茂長田,34.965042,136.893983
佐布里,ソウリ,SORI,牛抜,34.966898,136.889767
佐布里,ソウリ,SORI,清水脇,34.969177,136.89304
佐布里,ソウリ,SORI,糀田奥,34.96951,136.893727
八幡,ヤワタ,YAWATA,七曲り,34.967335,136.898719
佐布里,ソウリ,SORI,仏田,34.958065,136.895642
佐布里,ソウリ,SORI,小根ケ谷,34.960879,136.897079
佐布里,ソウリ,SORI,小州橋,34.958546,136.899647
佐布里,ソウリ,SORI,定納,34.962622,136.899229
八幡,ヤワタ,YAWATA,深山口,34.977781,136.901198
八幡,ヤワタ,YAWATA,三反田,34.976334,136.900757
佐布里,ソウリ,SORI,下結芽木,34.954472,136.904302
佐布里,ソウリ,SORI,桜鐘,34.963219,136.901138
佐布里,ソウリ,SORI,結芽木,34.956753,136.902403
八幡,ヤワタ,YAWATA,丸根,34.968445,136.903759
八幡,ヤワタ,YAWATA,高根,34.973951,136.902601
八幡,ヤワタ,YAWATA,西大清水,34.977016,136.903221
佐布里,ソウリ,SORI,原小洞,34.956242,136.905765
八幡,ヤワタ,YAWATA,曽山,34.979294,136.904293
佐布里,ソウリ,SORI,毛貫坂,34.960407,136.903828
佐布里,ソウリ,SORI,二番鐘,34.964085,136.904456
八幡,ヤワタ,YAWATA,北屋敷,34.976137,136.904811
八幡,ヤワタ,YAWATA,樹木,34.973047,136.905712
八幡,ヤワタ,YAWATA,大平地,34.970886,136.906209
八幡,ヤワタ,YAWATA,東大清水,34.979252,136.90669
八幡,ヤワタ,YAWATA,儀七山,34.976248,136.90598
八幡,ヤワタ,YAWATA,新道,34.967202,136.907382
八幡,ヤワタ,YAWATA,根崎,34.974546,136.906839
八幡,ヤワタ,YAWATA,東大平地,34.97174,136.910484
八幡,ヤワタ,YAWATA,笹廻間,34.965666,136.912108
八幡,ヤワタ,YAWATA,南大平地,34.970231,136.910698
八幡,ヤワタ,YAWATA,鍋山,34.968124,136.911861
八幡,ヤワタ,YAWATA,勘右エ門沢,34.971351,136.912462
八幡,ヤワタ,YAWATA,沢,34.97289,136.912176
八幡,ヤワタ,YAWATA,半田道,34.968124,136.915606
