name,name_kana,name_romaji,nickname,latitude,longitude
大字小淵,,,,35.374251,136.902135
大字柏森,,,,35.348653,136.903149
大字斎藤,,,,35.354045,136.896921
大字高雄,,,,35.360591,136.925773
大字高木,,,,35.359074,136.909826
大字南山名,,,,35.365946,136.903792
大字山那,,,,35.374643,136.914561
