name,name_kana,name_romaji,nickname,latitude,longitude
大字内海,,,,34.74581,136.880159
大字大井,,,,34.726563,136.957497
大字片名,,,,34.711803,136.959055
大字篠島,,,,34.676142,137.003883
大字豊丘,,,,34.733151,136.937727
大字豊浜,,,,34.7146,136.929221
大字日間賀島,,,,34.70515,137.005609
大字師崎,,,,34.702367,136.966595
大字山海,,,,34.726178,136.901171
