name,name_kana,name_romaji,nickname,latitude,longitude
秋葉一丁目,アキハ 1,AKIHA 1,,35.109288,136.820807
秋葉二丁目,アキハ 2,AKIHA 2,,35.106677,136.820161
秋葉三丁目,アキハ 3,AKIHA 3,,35.104606,136.819828
熱田前新田,アツタマエシンデン,ATSUTAMAESHINDEN,,35.100251,136.878571
油屋町一丁目,アブラヤチョウ 1,ABURAYACHO 1,,35.105413,136.851097
油屋町二丁目,アブラヤチョウ 2,ABURAYACHO 2,,35.103499,136.8508
油屋町三丁目,アブラヤチョウ 3,ABURAYACHO 3,,35.101621,136.850521
油屋町四丁目,アブラヤチョウ 4,ABURAYACHO 4,,35.099619,136.850318
惟信町一丁目,イシンチョウ 1,ISHINCHO 1,,35.107366,136.844074
惟信町二丁目,イシンチョウ 2,ISHINCHO 2,,35.106257,136.844219
惟信町三丁目,イシンチョウ 3,ISHINCHO 3,,35.104827,136.844478
惟信町四丁目,イシンチョウ 4,ISHINCHO 4,,35.103251,136.84406
惟信町五丁目,イシンチョウ 5,ISHINCHO 5,,35.101575,136.843792
惟信町六丁目,イシンチョウ 6,ISHINCHO 6,,35.099886,136.844333
一州町,イッシュウチョウ,ISSHUCHO,,35.08951,136.867146
稲永一丁目,イナエイ 1,INAEI 1,,35.089795,136.861187
稲永二丁目,イナエイ 2,INAEI 2,,35.085527,136.864539
稲永三丁目,イナエイ 3,INAEI 3,,35.082043,136.858788
稲永四丁目,イナエイ 4,INAEI 4,,35.086569,136.858097
稲永五丁目,イナエイ 5,INAEI 5,,35.086617,136.855552
稲永新田,,,,35.085323,136.866487
入場一丁目,イリバ 1,IRIBA 1,,35.111873,136.854208
入場二丁目,イリバ 2,IRIBA 2,,35.108302,136.853603
入場町一丁目,イリバチョウ 1,IRIBACHO 1,,35.113071,136.857567
入船一丁目,イリフネ 1,IRIFUNE 1,,35.092968,136.885794
入船二丁目,イリフネ 2,IRIFUNE 2,,35.093497,136.880662
いろは町一丁目,イロハチョウ 1,IROHACHO 1,,35.106504,136.873331
いろは町二丁目,イロハチョウ 2,IROHACHO 2,,35.104304,136.873668
いろは町三丁目,イロハチョウ 3,IROHACHO 3,,35.102501,136.873753
いろは町四丁目,イロハチョウ 4,IROHACHO 4,,35.100533,136.873733
いろは町五丁目,イロハチョウ 5,IROHACHO 5,,35.100104,136.871651
遠若町一丁目,エンジャクチョウ 1,ENJAKUCHO 1,,35.098889,136.865918
遠若町二丁目,エンジャクチョウ 2,ENJAKUCHO 2,,35.099615,136.863577
遠若町三丁目,エンジャクチョウ 3,ENJAKUCHO 3,,35.096962,136.866626
小碓一丁目,オウス 1,OSU 1,,35.119495,136.85355
小碓二丁目,オウス 2,OSU 2,,35.11534,136.854145
小碓三丁目,オウス 3,OSU 3,,35.115046,136.849116
小碓四丁目,オウス 4,OSU 4,,35.118592,136.848617
小碓町,オウスチョウ,OSUCHO,,35.115494,136.837532
大江町,オオエチョウ,OECHO,,35.088979,136.895428
大手町一丁目,オオテマチ 1,OTEMACHI 1,,35.098273,136.869781
大手町二丁目,オオテマチ 2,OTEMACHI 2,,35.097496,136.869431
大手町三丁目,オオテマチ 3,OTEMACHI 3,,35.096759,136.869244
大手町四丁目,オオテマチ 4,OTEMACHI 4,,35.095933,136.869116
大手町五丁目,オオテマチ 5,OTEMACHI 5,,35.095081,136.870003
大手町六丁目,オオテマチ 6,OTEMACHI 6,,35.09543,136.867528
大西一丁目,オオニシ 1,ONISHI 1,,35.108484,136.815143
大西二丁目,オオニシ 2,ONISHI 2,,35.109226,136.811936
大西三丁目,オオニシ 3,ONISHI 3,,35.104007,136.814949
小川一丁目,オガワ 1,OGAWA 1,,35.09774,136.817201
小川二丁目,オガワ 2,OGAWA 2,,35.092319,136.815219
小川三丁目,オガワ 3,OGAWA 3,,35.095396,136.811543
小川四丁目,オガワ 4,OGAWA 4,,35.097307,136.806534
金川町,カネカワチョウ,KANEKAWACHO,,35.110344,136.879368
金船町一丁目,カネフネチョウ 1,KANEFUNECHO 1,,35.112099,136.875796
金船町二丁目,カネフネチョウ 2,KANEFUNECHO 2,,35.110351,136.876015
金船町三丁目,カネフネチョウ 3,KANEFUNECHO 3,,35.109366,136.876038
金船町四丁目,カネフネチョウ 4,KANEFUNECHO 4,,35.1081,136.876321
河口町,カワクチチョウ,KAWAKUCHICHO,,35.105659,136.879017
川園一丁目,カワソノ 1,KAWASONO 1,,35.10279,136.819534
川園二丁目,カワソノ 2,KAWASONO 2,,35.101032,136.819242
川園三丁目,カワソノ 3,KAWASONO 3,,35.099095,136.819621
川西通一丁目,カワニシドオリ 1,KAWANISHIDORI 1,,35.113686,136.874169
川西通二丁目,カワニシドオリ 2,KAWANISHIDORI 2,,35.113602,136.872768
川西通三丁目,カワニシドオリ 3,KAWANISHIDORI 3,,35.113635,136.870378
川西通四丁目,カワニシドオリ 4,KAWANISHIDORI 4,,35.113864,136.866606
川西通五丁目,カワニシドオリ 5,KAWANISHIDORI 5,,35.113635,136.861965
川西通六丁目,カワニシドオリ 6,KAWANISHIDORI 6,,35.113453,136.859162
川間町一丁目,カワマチョウ 1,KAWAMACHO 1,,35.116083,136.867945
川間町二丁目,カワマチョウ 2,KAWAMACHO 2,,35.116182,136.866353
川間町三丁目,カワマチョウ 3,KAWAMACHO 3,,35.116286,136.864809
寛政町,カンセイチョウ,KANSEICHO,,35.109309,136.856218
寛政町一丁目,カンセイチョウ 1,KANSEICHO 1,,35.107279,136.864506
寛政町二丁目,カンセイチョウ 2,KANSEICHO 2,,35.106839,136.863494
寛政町三丁目,カンセイチョウ 3,KANSEICHO 3,,35.106526,136.862573
寛政町四丁目,カンセイチョウ 4,KANSEICHO 4,,35.106282,136.861451
寛政町五丁目,カンセイチョウ 5,KANSEICHO 5,,35.105765,136.860607
寛政町六丁目,カンセイチョウ 6,KANSEICHO 6,,35.105383,136.859235
寛政町七丁目,カンセイチョウ 7,KANSEICHO 7,,35.105545,136.858026
寛政町八丁目,カンセイチョウ 8,KANSEICHO 8,,35.106085,136.857043
寛政町九丁目,カンセイチョウ 9,KANSEICHO 9,,35.105841,136.856189
木場町,キバチョウ,KIBACHO,,35.103907,136.898925
金城ふ頭一丁目,キンジョウフトウ 1,KINJOFUTO 1,,35.054092,136.844056
金城ふ頭二丁目,キンジョウフトウ 2,KINJOFUTO 2,,35.04824,136.843699
金城ふ頭三丁目,キンジョウフトウ 3,KINJOFUTO 3,,35.044564,136.845165
九番町一丁目,クバンチョウ 1,KUBANCHO 1,,35.117827,136.884244
九番町二丁目,クバンチョウ 2,KUBANCHO 2,,35.116766,136.884115
九番町三丁目,クバンチョウ 3,KUBANCHO 3,,35.115985,136.884409
九番町五丁目,クバンチョウ 5,KUBANCHO 5,,35.114133,136.883837
港栄一丁目,コウエイ 1,KOEI 1,,35.106397,136.882841
港栄二丁目,コウエイ 2,KOEI 2,,35.104244,136.882528
港栄三丁目,コウエイ 3,KOEI 3,,35.103192,136.881311
港栄四丁目,コウエイ 4,KOEI 4,,35.099491,136.881607
港北町一丁目,コウホクチョウ 1,KOHOKUCHO 1,,35.108481,136.860994
港北町二丁目,コウホクチョウ 2,KOHOKUCHO 2,,35.108383,136.859242
港北町三丁目,コウホクチョウ 3,KOHOKUCHO 3,,35.109044,136.857214
港北町四丁目,コウホクチョウ 4,KOHOKUCHO 4,,35.107068,136.856951
港明一丁目,コウメイ 1,KOMEI 1,,35.108838,136.888451
港明二丁目,コウメイ 2,KOMEI 2,,35.109599,136.88337
港陽一丁目,コウヨウ 1,KOYO 1,,35.102035,136.888249
港陽二丁目,コウヨウ 2,KOYO 2,,35.100214,136.890474
港陽三丁目,コウヨウ 3,KOYO 3,,35.100629,136.886911
港楽一丁目,コウラク 1,KORAKU 1,,35.105708,136.886943
港楽二丁目,コウラク 2,KORAKU 2,,35.103599,136.885836
港楽三丁目,コウラク 3,KORAKU 3,,35.101178,136.8846
小賀須一丁目,コガス 1,KOGASU 1,,35.114452,136.831851
小賀須二丁目,コガス 2,KOGASU 2,,35.112028,136.832715
小賀須三丁目,コガス 3,KOGASU 3,,35.11193,136.829376
小賀須四丁目,コガス 4,KOGASU 4,,35.114656,136.827744
小割通一丁目,コワリドオリ 1,KOWARIDORI 1,,35.117365,136.869113
小割通二丁目,コワリドオリ 2,KOWARIDORI 2,,35.11604,136.869488
小割通三丁目,コワリドオリ 3,KOWARIDORI 3,,35.114571,136.869505
幸町一丁目,サイワイチョウ 1,SAIWAICHO 1,,35.099266,136.873877
幸町二丁目,サイワイチョウ 2,SAIWAICHO 2,,35.098847,136.873146
幸町三丁目,サイワイチョウ 3,SAIWAICHO 3,,35.098525,136.873067
魁町一丁目,サキガケチョウ 1,SAKIGAKECHO 1,,35.096882,136.87308
魁町二丁目,サキガケチョウ 2,SAKIGAKECHO 2,,35.096471,136.873099
魁町三丁目,サキガケチョウ 3,SAKIGAKECHO 3,,35.096201,136.872543
魁町四丁目,サキガケチョウ 4,SAKIGAKECHO 4,,35.095746,136.872217
作倉町,サクラチョウ,SAKURACHO,,35.101675,136.892984
佐野町一丁目,サノマチ 1,SANOMACHI 1,,35.098215,136.873078
佐野町二丁目,サノマチ 2,SANOMACHI 2,,35.097842,136.872745
佐野町三丁目,サノマチ 3,SANOMACHI 3,,35.097526,136.873086
佐野町四丁目,サノマチ 4,SANOMACHI 4,,35.097197,136.873076
汐止町,シオトメチョウ,SHIOTOMECHO,,35.071566,136.851462
潮凪町,シオナギチョウ,SHIONAGICHO,,35.077386,136.859437
潮見町,シオミチョウ,SHIOMICHO,,35.060693,136.873987
七条町二丁目,2,2,,35.095429,136.90064
七反野一丁目,シチタンノ 1,SHICHITANNO 1,,35.114199,136.820122
七反野二丁目,シチタンノ 2,SHICHITANNO 2,,35.111616,136.819422
七番町一丁目,シチバンチョウ 1,SHICHIBANCHO 1,,35.117823,136.887709
七番町二丁目,シチバンチョウ 2,SHICHIBANCHO 2,,35.116722,136.887608
七番町三丁目,シチバンチョウ 3,SHICHIBANCHO 3,,35.11598,136.887625
七番町四丁目,シチバンチョウ 4,SHICHIBANCHO 4,,35.114959,136.887645
七番町五丁目,シチバンチョウ 5,SHICHIBANCHO 5,,35.11406,136.887574
品川町一丁目,シナガワチョウ 1,SHINAGAWACHO 1,,35.103231,136.864922
品川町二丁目,シナガワチョウ 2,SHINAGAWACHO 2,,35.102492,136.862061
十一屋一丁目,ジュウイチヤ 1,JUICHIYA 1,,35.096399,136.863082
十一屋二丁目,ジュウイチヤ 2,JUICHIYA 2,,35.094554,136.85872
十一屋三丁目,ジュウイチヤ 3,JUICHIYA 3,,35.093146,136.855899
十一屋町,ジュウイチヤチョウ,JUICHIYACHO,,35.09728,136.848462
正徳町一丁目,ショウトクチョウ 1,SHOTOKUCHO 1,,35.121207,136.862618
正徳町二丁目,ショウトクチョウ 2,SHOTOKUCHO 2,,35.121098,136.86118
正徳町三丁目,ショウトクチョウ 3,SHOTOKUCHO 3,,35.12101,136.860133
正徳町四丁目,ショウトクチョウ 4,SHOTOKUCHO 4,,35.120981,136.859082
正徳町五丁目,ショウトクチョウ 5,SHOTOKUCHO 5,,35.121011,136.858016
正徳町六丁目,ショウトクチョウ 6,SHOTOKUCHO 6,,35.120626,136.856787
正保町一丁目,ショウホウチョウ 1,SHOHOCHO 1,,35.117763,136.863178
正保町二丁目,ショウホウチョウ 2,SHOHOCHO 2,,35.117836,136.861994
正保町三丁目,ショウホウチョウ 3,SHOHOCHO 3,,35.117908,136.860472
正保町四丁目,ショウホウチョウ 4,SHOHOCHO 4,,35.118086,136.859084
正保町五丁目,ショウホウチョウ 5,SHOHOCHO 5,,35.115159,136.86344
正保町六丁目,ショウホウチョウ 6,SHOHOCHO 6,,35.115264,136.862322
正保町七丁目,ショウホウチョウ 7,SHOHOCHO 7,,35.115203,136.860705
正保町八丁目,ショウホウチョウ 8,SHOHOCHO 8,,35.116462,136.858093
昭和町,ショウワチョウ,SHOWACHO,,35.080808,136.897068
新川町一丁目,シンカワチョウ 1,SHINKAWACHO 1,,35.117777,136.877866
新川町二丁目,シンカワチョウ 2,SHINKAWACHO 2,,35.116298,136.877884
新川町三丁目,シンカワチョウ 3,SHINKAWACHO 3,,35.114673,136.877937
新川町四丁目,シンカワチョウ 4,SHINKAWACHO 4,,35.11354,136.877969
神宮寺一丁目,ジングウジ 1,JINGUJI 1,,35.095905,136.849066
神宮寺二丁目,ジングウジ 2,JINGUJI 2,,35.096065,136.845204
新茶屋一丁目,シンチャヤ 1,SHINCHAYA 1,,35.10926,136.807874
新茶屋二丁目,シンチャヤ 2,SHINCHAYA 2,,35.104445,136.809457
新茶屋三丁目,シンチャヤ 3,SHINCHAYA 3,,35.100722,136.811501
新船町一丁目,シンフネチョウ 1,SHINFUNECHO 1,,35.117747,136.875912
新船町二丁目,シンフネチョウ 2,SHINFUNECHO 2,,35.116401,136.875706
新船町三丁目,シンフネチョウ 3,SHINFUNECHO 3,,35.114721,136.875976
新船町四丁目,シンフネチョウ 4,SHINFUNECHO 4,,35.113527,136.876004
甚兵衛通一丁目,ジンベエトオリ 1,JIMBEETORI 1,,35.105953,136.846446
甚兵衛通二丁目,ジンベエトオリ 2,JIMBEETORI 2,,35.103555,136.846218
甚兵衛通三丁目,ジンベエトオリ 3,JIMBEETORI 3,,35.101604,136.846044
甚兵衛通四丁目,ジンベエトオリ 4,JIMBEETORI 4,,35.100046,136.845908
甚兵衛通五丁目,ジンベエトオリ 5,JIMBEETORI 5,,35.098423,136.846687
砂美町,スナミチョウ,SUNAMICHO,,35.104204,136.868045
須成町一丁目,スナリチョウ 1,SUNARICHO 1,,35.117533,136.873757
須成町二丁目,スナリチョウ 2,SUNARICHO 2,,35.115984,136.873381
須成町三丁目,スナリチョウ 3,SUNARICHO 3,,35.114696,136.873432
善進町一丁目,ゼンシンチョウ 1,ZENSHINCHO 1,,35.104775,136.854733
善進町二丁目,ゼンシンチョウ 2,ZENSHINCHO 2,,35.105555,136.854124
善進町三丁目,ゼンシンチョウ 3,ZENSHINCHO 3,,35.105187,136.853004
善進町四丁目,ゼンシンチョウ 4,ZENSHINCHO 4,,35.10403,136.853701
善進町五丁目,ゼンシンチョウ 5,ZENSHINCHO 5,,35.103113,136.852564
善進町八丁目,ゼンシンチョウ 8,ZENSHINCHO 8,,35.098122,136.849658
善進本町,ゼンシンホンマチ,ZENSHINHOMMACHI,,35.100824,136.855972
船頭場一丁目,センドウバ 1,SENDOBA 1,,35.119346,136.829784
船頭場二丁目,センドウバ 2,SENDOBA 2,,35.118169,136.831115
船頭場三丁目,センドウバ 3,SENDOBA 3,,35.116332,136.832548
船頭場四丁目,センドウバ 4,SENDOBA 4,,35.115577,136.830606
船頭場五丁目,センドウバ 5,SENDOBA 5,,35.116844,136.827187
善南町,ゼンナンチョウ,ZENNANCHO,,35.098163,136.852041
善北町,ゼンホクチョウ,ZENHOKUCHO,,35.104093,136.855984
空見町,ソラミチョウ,SORAMICHO,,35.063318,136.85217
泰明町一丁目,タイメイチョウ 1,TAIMEICHO 1,,35.111266,136.867031
泰明町二丁目,タイメイチョウ 2,TAIMEICHO 2,,35.112367,136.863323
泰明町三丁目,タイメイチョウ 3,TAIMEICHO 3,,35.109572,136.863165
高木町一丁目,タカギチョウ 1,TAKAGICHO 1,,35.105702,136.848435
高木町二丁目,タカギチョウ 2,TAKAGICHO 2,,35.103581,136.848069
高木町三丁目,タカギチョウ 3,TAKAGICHO 3,,35.101822,136.847995
高木町四丁目,タカギチョウ 4,TAKAGICHO 4,,35.09994,136.848173
高木町五丁目,タカギチョウ 5,TAKAGICHO 5,,35.09842,136.84807
多加良浦町一丁目,タカラウラチョウ 1,TAKARAURACHO 1,,35.10771,136.840325
多加良浦町二丁目,タカラウラチョウ 2,TAKARAURACHO 2,,35.105481,136.840563
多加良浦町三丁目,タカラウラチョウ 3,TAKARAURACHO 3,,35.103235,136.841055
多加良浦町四丁目,タカラウラチョウ 4,TAKARAURACHO 4,,35.100616,136.841898
多加良浦町五丁目,タカラウラチョウ 5,TAKARAURACHO 5,,35.099321,136.8432
辰巳町,タツミチョウ,TATSUMICHO,,35.111963,136.890046
築盛町,チクモリチョウ,CHIKUMORICHO,,35.104475,136.871302
知多一丁目,チタ 1,CHITA 1,,35.114046,136.824332
知多二丁目,チタ 2,CHITA 2,,35.111734,136.823869
知多三丁目,チタ 3,CHITA 3,,35.111457,136.827024
千年二丁目,チトセ 2,CHITOSE 2,,35.112515,136.898245
千年三丁目,チトセ 3,CHITOSE 3,,35.107927,136.894895
千鳥一丁目,チドリ 1,CHIDORI 1,,35.097725,136.889276
千鳥二丁目,チドリ 2,CHIDORI 2,,35.095245,136.888244
津金一丁目,ツカネ 1,TSUKANE 1,,35.112704,136.884151
津金二丁目,ツカネ 2,TSUKANE 2,,35.112635,136.87992
築三町一丁目,ツキサンチョウ 1,TSUKISANCHO 1,,35.095201,136.875539
築三町二丁目,ツキサンチョウ 2,TSUKISANCHO 2,,35.094314,136.873339
築三町三丁目,ツキサンチョウ 3,TSUKISANCHO 3,,35.093125,136.87053
築地町,ツキジチョウ,TSUKIJICHO,,35.090642,136.872756
寺前町,テラマエチョウ,TERAMAECHO,,35.113295,136.80054
天目町,テンモクチョウ,TEMMOKUCHO,,35.098714,136.801194
東海通三丁目,トウカイドオリ 3,TOKAIDORI 3,,35.113417,136.887524
東海通四丁目,トウカイドオリ 4,TOKAIDORI 4,,35.113518,136.88342
東海通五丁目,トウカイドオリ 5,TOKAIDORI 5,,35.113627,136.88042
当知一丁目,トウチ 1,TOCHI 1,,35.112211,136.849111
当知二丁目,トウチ 2,TOCHI 2,,35.108333,136.849004
当知三丁目,トウチ 3,TOCHI 3,,35.11055,136.844415
当知四丁目,トウチ 4,TOCHI 4,,35.111078,136.840943
当知町,トウチチョウ,TOCHICHO,,35.099155,136.840606
当知町六丁目,トウチチョウ 6,TOCHICHO 6,,35.11428,136.837774
当知町七丁目,トウチチョウ 7,TOCHICHO 7,,35.112238,136.838658
当知町八丁目,トウチチョウ 8,TOCHICHO 8,,35.110467,136.839151
土古町一丁目,ドンゴチョウ 1,DONGOCHO 1,,35.112747,136.861151
土古町二丁目,ドンゴチョウ 2,DONGOCHO 2,,35.110909,136.860955
土古町三丁目,ドンゴチョウ 3,DONGOCHO 3,,35.112764,136.858666
土古町四丁目,ドンゴチョウ 4,DONGOCHO 4,,35.110983,136.858179
中川本町一丁目,ナカガワホンマチ 1,NAKAGAWAHOMMACHI 1,,35.107033,136.876144
中川本町二丁目,ナカガワホンマチ 2,NAKAGAWAHOMMACHI 2,,35.105982,136.876182
中川本町三丁目,ナカガワホンマチ 3,NAKAGAWAHOMMACHI 3,,35.104442,136.876221
中川本町四丁目,ナカガワホンマチ 4,NAKAGAWAHOMMACHI 4,,35.102492,136.876278
中川本町五丁目,ナカガワホンマチ 5,NAKAGAWAHOMMACHI 5,,35.100422,136.87642
中川本町六丁目,ナカガワホンマチ 6,NAKAGAWAHOMMACHI 6,,35.098561,136.876063
中川本町七丁目,ナカガワホンマチ 7,NAKAGAWAHOMMACHI 7,,35.097046,136.876005
中之島通一丁目,ナカノジマトオリ 1,NAKANOJIMATORI 1,,35.09866,136.870855
中之島通二丁目,ナカノジマトオリ 2,NAKANOJIMATORI 2,,35.097904,136.870915
中之島通三丁目,ナカノジマトオリ 3,NAKANOJIMATORI 3,,35.096909,136.871005
中之島通四丁目,ナカノジマトオリ 4,NAKANOJIMATORI 4,,35.095911,136.871089
七島一丁目,ナナシマ 1,NANASHIMA 1,,35.104353,136.833873
七島二丁目,ナナシマ 2,NANASHIMA 2,,35.099595,136.833315
南陽町大字茶屋新田,,,,35.105689,136.816403
南陽町大字七島新田,,,,35.100641,136.837166
南陽町大字福田,,,,35.116128,136.833311
南陽町大字藤高新田,,,,35.094233,136.836968
西蟹田,ニシカニタ,NISHIKANITA,,35.12228,136.816232
西川町一丁目,ニシカワチョウ 1,NISHIKAWACHO 1,,35.107978,136.841519
西川町二丁目,ニシカワチョウ 2,NISHIKAWACHO 2,,35.107151,136.841654
西川町三丁目,ニシカワチョウ 3,NISHIKAWACHO 3,,35.105467,136.841762
西川町四丁目,ニシカワチョウ 4,NISHIKAWACHO 4,,35.103264,136.842206
錦町,ニシキマチ,NISHIKIMACHI,,35.08653,136.86104
西倉町,ニシクラチョウ,NISHIKURACHO,,35.095065,136.878146
西茶屋一丁目,ニシチャヤ 1,NISHICHAYA 1,,35.107776,136.825208
西茶屋二丁目,ニシチャヤ 2,NISHICHAYA 2,,35.103726,136.824923
西茶屋三丁目,ニシチャヤ 3,NISHICHAYA 3,,35.100318,136.824798
西茶屋四丁目,ニシチャヤ 4,NISHICHAYA 4,,35.098311,136.825163
西福田一丁目,ニシフクタ 1,NISHIFUKUTA 1,,35.121529,136.811301
西福田二丁目,ニシフクタ 2,NISHIFUKUTA 2,,35.115446,136.807702
西福田三丁目,ニシフクタ 3,NISHIFUKUTA 3,,35.112721,136.808111
西福田四丁目,ニシフクタ 4,NISHIFUKUTA 4,,35.112754,136.803119
西福田五丁目,ニシフクタ 5,NISHIFUKUTA 5,,35.117977,136.804706
野跡一丁目,ノセキ 1,NOSEKI 1,,35.081171,136.85516
野跡二丁目,ノセキ 2,NOSEKI 2,,35.076213,136.854584
野跡三丁目,ノセキ 3,NOSEKI 3,,35.074607,136.852902
野跡四丁目,ノセキ 4,NOSEKI 4,,35.075967,136.850328
野跡五丁目,ノセキ 5,NOSEKI 5,,35.081391,136.851356
八百島一丁目,ハッピャクジマ 1,HAPPYAKUJIMA 1,,35.117708,136.822176
八百島二丁目,ハッピャクジマ 2,HAPPYAKUJIMA 2,,35.117532,136.819634
浜一丁目,ハマ 1,HAMA 1,,35.09776,136.881341
浜二丁目,ハマ 2,HAMA 2,,35.095818,136.880997
春田野一丁目,ハルタノ 1,HARUTANO 1,,35.117992,136.813905
春田野二丁目,ハルタノ 2,HARUTANO 2,,35.114435,136.813677
春田野三丁目,ハルタノ 3,HARUTANO 3,,35.111745,136.814107
東蟹田,ヒガシカニタ,HIGASHIKANITA,,35.122291,136.820287
東茶屋一丁目,ヒガシチャヤ 1,HIGASHICHAYA 1,,35.108749,136.830492
東茶屋二丁目,ヒガシチャヤ 2,HIGASHICHAYA 2,,35.106073,136.830351
東茶屋三丁目,ヒガシチャヤ 3,HIGASHICHAYA 3,,35.103457,136.829693
東茶屋四丁目,ヒガシチャヤ 4,HIGASHICHAYA 4,,35.099129,136.829209
東築地町,ヒガシツキジチョウ,HIGASHITSUKIJICHO,,35.095011,136.893259
東土古町一丁目,ヒガシドンゴチョウ 1,HIGASHIDONGOCHO 1,,35.112923,136.871754
東土古町二丁目,ヒガシドンゴチョウ 2,HIGASHIDONGOCHO 2,,35.111294,136.871179
福田一丁目,フクタ 1,FUKUTA 1,,35.117566,136.824499
福田二丁目,フクタ 2,FUKUTA 2,,35.115489,136.824391
福屋一丁目,フクヤ 1,FUKUYA 1,,35.11999,136.800809
藤高一丁目,フジタカ 1,FUJITAKA 1,,35.096933,136.834218
藤高二丁目,フジタカ 2,FUJITAKA 2,,35.091797,136.834798
藤高三丁目,フジタカ 3,FUJITAKA 3,,35.093897,136.829845
藤高四丁目,フジタカ 4,FUJITAKA 4,,35.093546,136.825292
藤高五丁目,フジタカ 5,FUJITAKA 5,,35.095419,136.820947
藤前一丁目,フジマエ 1,FUJIMAE 1,,35.087751,136.836561
藤前二丁目,フジマエ 2,FUJIMAE 2,,35.083652,136.836527
藤前三丁目,フジマエ 3,FUJIMAE 3,,35.084,136.830337
藤前四丁目,フジマエ 4,FUJIMAE 4,,35.087873,136.829593
藤前五丁目,フジマエ 5,FUJIMAE 5,,35.087706,136.824178
船見町,フナミチョウ,FUNAMICHO,,35.072043,136.895834
宝神一丁目,ホウジン 1,HOJIN 1,,35.09434,136.851188
宝神二丁目,ホウジン 2,HOJIN 2,,35.091214,136.852437
宝神三丁目,ホウジン 3,HOJIN 3,,35.088016,136.853913
宝神四丁目,ホウジン 4,HOJIN 4,,35.086636,136.849685
宝神五丁目,ホウジン 5,HOJIN 5,,35.091071,136.846865
宝神町,ホウジンチョウ,HOJINCHO,,35.09637,136.843086
本宮新町,ホングウシンマチ,HONGUSHIMMACHI,,35.107487,136.867617
本宮町一丁目,ホングウチョウ 1,HONGUCHO 1,,35.112029,136.873925
本宮町二丁目,ホングウチョウ 2,HONGUCHO 2,,35.109342,136.873336
本宮町三丁目,ホングウチョウ 3,HONGUCHO 3,,35.110085,136.871385
本宮町四丁目,ホングウチョウ 4,HONGUCHO 4,,35.109833,136.86975
本宮町五丁目,ホングウチョウ 5,HONGUCHO 5,,35.109364,136.868033
本宮町六丁目,ホングウチョウ 6,HONGUCHO 6,,35.10882,136.865988
本宮町七丁目,ホングウチョウ 7,HONGUCHO 7,,35.108764,136.86806
本宮町八丁目,ホングウチョウ 8,HONGUCHO 8,,35.10857,136.870951
丸池町一丁目,マルイケチョウ 1,MARUIKECHO 1,,35.117482,136.871105
丸池町二丁目,マルイケチョウ 2,MARUIKECHO 2,,35.115944,136.871046
丸池町三丁目,マルイケチョウ 3,MARUIKECHO 3,,35.114646,136.871087
港町,ミナトマチ,MINATOMACHI,,35.090505,136.884416
南十一番町一丁目,ミナミ11バンチョウ 1,MINAMI11-BANCHO 1,,35.117822,136.879892
南十一番町二丁目,ミナミ11バンチョウ 2,MINAMI11-BANCHO 2,,35.116756,136.879917
南十一番町三丁目,ミナミ11バンチョウ 3,MINAMI11-BANCHO 3,,35.115904,136.879928
南十一番町四丁目,ミナミ11バンチョウ 4,MINAMI11-BANCHO 4,,35.114993,136.87994
南十一番町五丁目,ミナミ11バンチョウ 5,MINAMI11-BANCHO 5,,35.114118,136.879872
南十番町一丁目,ミナミ10バンチョウ 1,MINAMI10-BANCHO 1,,35.117826,136.881821
南十番町二丁目,ミナミ10バンチョウ 2,MINAMI10-BANCHO 2,,35.116767,136.881797
南十番町三丁目,ミナミ10バンチョウ 3,MINAMI10-BANCHO 3,,35.115911,136.881726
名港一丁目,メイコウ 1,MEIKO 1,,35.098011,136.884301
名港二丁目,メイコウ 2,MEIKO 2,,35.095458,136.883856
名四町,メイシチョウ,MEISHICHO,,35.099398,136.868784
明正一丁目,メイショウ 1,MEISHO 1,,35.116281,136.844197
明正二丁目,メイショウ 2,MEISHO 2,,35.115659,136.840238
本星崎町,モトホシザキチョウ,MOTOHOSHIZAKICHO,,35.087056,136.907416
龍宮町,,,,35.095003,136.898056
九番町四丁目,クバンチョウ 4,KUBANCHO 4,,35.114969,136.883985
南十番町四丁目,ミナミ10バンチョウ 4,MINAMI10-BANCHO 4,,35.114988,136.881635
南十番町五丁目,ミナミ10バンチョウ 5,MINAMI10-BANCHO 5,,35.114172,136.881554
協和一丁目,キョウワ 1,KYOWA 1,,35.119497,136.797062
畑中一丁目,ハタナカ 1,HATANAKA 1,,35.11924,136.794059
福屋二丁目,フクヤ 2,FUKUYA 2,,35.116261,136.801246
協和二丁目,キョウワ 2,KYOWA 2,,35.11629,136.797019
畑中二丁目,ハタナカ 2,HATANAKA 2,,35.11629,136.794134
六軒家,ロッケンヤ,ROKKENYA,,35.114059,136.796344
新茶屋五丁目,シンチャヤ 5,SHINCHAYA 5,,35.109486,136.802253
新茶屋四丁目,シンチャヤ 4,SHINCHAYA 4,,35.103263,136.801617
福前一丁目,フクマエ 1,FUKUMAE 1,,35.111463,136.79585
南陽町大字福田前新田,,,,35.104141,136.798868
福前二丁目,フクマエ 2,FUKUMAE 2,,35.109661,136.796762
善進町六丁目,ゼンシンチョウ 6,ZENSHINCHO 6,,35.100829,136.851413
