name,name_kana,name_romaji,nickname,latitude,longitude
赤池一丁目,アカイケ 1,AKAIKE 1,,35.121563,137.016715
赤池二丁目,アカイケ 2,AKAIKE 2,,35.121767,137.020156
赤池三丁目,アカイケ 3,AKAIKE 3,,35.118972,137.01729
赤池四丁目,アカイケ 4,AKAIKE 4,,35.118389,137.01434
赤池五丁目,アカイケ 5,AKAIKE 5,,35.120839,137.012336
赤池町,アカイケチョウ,AKAIKECHO,,35.114144,137.025215
赤池南一丁目,アカイケミナミ 1,AKAIKEMINAMI 1,,35.115794,137.016641
赤池南二丁目,アカイケミナミ 2,AKAIKEMINAMI 2,,35.114081,137.018841
浅田町,アサダチョウ,ASADACHO,,35.125821,137.025369
浅田平子一丁目,アサダヒラコ 1,ASADAHIRAKO 1,,35.120978,137.028919
浅田平子二丁目,アサダヒラコ 2,ASADAHIRAKO 2,,35.11831,137.031047
浅田平子三丁目,アサダヒラコ 3,ASADAHIRAKO 3,,35.115734,137.032689
岩崎台一丁目,イワサキダイ 1,IWASAKIDAI 1,,35.147905,137.022691
岩崎台二丁目,イワサキダイ 2,IWASAKIDAI 2,,35.1502,137.024372
岩崎台三丁目,イワサキダイ 3,IWASAKIDAI 3,,35.153137,137.024989
岩崎台四丁目,イワサキダイ 4,IWASAKIDAI 4,,35.150307,137.028284
岩崎町,イワサキチョウ,IWASAKICHO,,35.145028,137.044798
岩藤町,イワフジチョウ,IWAFUJICHO,,35.147846,137.060647
梅森台一丁目,ウメモリダイ 1,UMEMORIDAI 1,,35.133092,137.013983
梅森台二丁目,ウメモリダイ 2,UMEMORIDAI 2,,35.135067,137.013838
梅森台三丁目,ウメモリダイ 3,UMEMORIDAI 3,,35.137278,137.013081
梅森台四丁目,ウメモリダイ 4,UMEMORIDAI 4,,35.135487,137.010121
梅森台五丁目,ウメモリダイ 5,UMEMORIDAI 5,,35.133697,137.009515
梅森町,ウメモリチョウ,UMEMORICHO,,35.133398,137.020954
折戸町,オリドチョウ,ORIDOCHO,,35.121466,137.043173
香久山一丁目,カグヤマ 1,KAGUYAMA 1,,35.138127,137.030311
香久山二丁目,カグヤマ 2,KAGUYAMA 2,,35.139158,137.025385
香久山三丁目,カグヤマ 3,KAGUYAMA 3,,35.144546,137.023308
香久山四丁目,カグヤマ 4,KAGUYAMA 4,,35.144735,137.027445
香久山五丁目,カグヤマ 5,KAGUYAMA 5,,35.141319,137.029256
蟹甲町,カニコウチョウ,KANIKOCHO,,35.130882,137.040623
北新町,キタシンチョウ,KITASHINCHO,,35.158458,137.054812
五色園一丁目,ゴシキエン 1,GOSHIKIEN 1,,35.151538,137.069176
五色園二丁目,ゴシキエン 2,GOSHIKIEN 2,,35.152778,137.06253
五色園三丁目,ゴシキエン 3,GOSHIKIEN 3,,35.155143,137.060894
五色園四丁目,ゴシキエン 4,GOSHIKIEN 4,,35.156423,137.059124
栄一丁目,サカエ 1,SAKAE 1,,35.116546,137.048609
栄二丁目,サカエ 2,SAKAE 2,,35.119706,137.049406
栄三丁目,サカエ 3,SAKAE 3,,35.122343,137.051972
栄四丁目,サカエ 4,SAKAE 4,,35.120424,137.054099
栄五丁目,サカエ 5,SAKAE 5,,35.117243,137.052696
三本木町,サンボンギチョウ,SAMBONGICHO,,35.142489,137.084454
竹の山一丁目,タケノヤマ 1,TAKENOYAMA 1,,35.16074,137.040244
竹の山二丁目,タケノヤマ 2,TAKENOYAMA 2,,35.15724,137.03657
竹の山三丁目,タケノヤマ 3,TAKENOYAMA 3,,35.152295,137.036779
竹の山四丁目,タケノヤマ 4,TAKENOYAMA 4,,35.153433,137.032425
竹の山五丁目,タケノヤマ 5,TAKENOYAMA 5,,35.14811,137.041332
野方町,ノカタチョウ,NOKATACHO,,35.13094,137.031347
東山一丁目,ヒガシヤマ 1,HIGASHIYAMA 1,,35.129735,137.046355
東山二丁目,ヒガシヤマ 2,HIGASHIYAMA 2,,35.127298,137.047758
東山三丁目,ヒガシヤマ 3,HIGASHIYAMA 3,,35.125156,137.047542
東山四丁目,ヒガシヤマ 4,HIGASHIYAMA 4,,35.126163,137.050764
東山五丁目,ヒガシヤマ 5,HIGASHIYAMA 5,,35.124851,137.052089
東山六丁目,ヒガシヤマ 6,HIGASHIYAMA 6,,35.125011,137.055696
東山七丁目,ヒガシヤマ 7,HIGASHIYAMA 7,,35.127905,137.055061
藤島町,フジシマチョウ,FUJISHIMACHO,,35.147129,137.068333
藤塚一丁目,フジツカ 1,FUJITSUKA 1,,35.124543,137.036817
藤塚二丁目,フジツカ 2,FUJITSUKA 2,,35.121361,137.037452
藤塚三丁目,フジツカ 3,FUJITSUKA 3,,35.121296,137.035512
藤塚四丁目,フジツカ 4,FUJITSUKA 4,,35.118248,137.036584
藤塚五丁目,フジツカ 5,FUJITSUKA 5,,35.115267,137.037215
藤塚六丁目,フジツカ 6,FUJITSUKA 6,,35.113884,137.035964
藤塚七丁目,フジツカ 7,FUJITSUKA 7,,35.111177,137.038095
本郷町,ホンゴウチョウ,HONGOCHO,,35.136979,137.043381
南ケ丘一丁目,ミナミガオカ 1,MINAMIGAOKA 1,,35.113916,137.044387
南ケ丘二丁目,ミナミガオカ 2,MINAMIGAOKA 2,,35.114407,137.042537
南ケ丘三丁目,ミナミガオカ 3,MINAMIGAOKA 3,,35.110947,137.041004
米野木台三丁目,コメノキダイ 3,KOMENOKIDAI 3,,35.129267,137.063753
藤枝町,フジエダチョウ,FUJIEDACHO,,35.12727,137.05856
米野木台一丁目,コメノキダイ 1,KOMENOKIDAI 1,,35.123765,137.064923
米野木台二丁目,コメノキダイ 2,KOMENOKIDAI 2,,35.126625,137.064653
米野木町,コメノキチョウ,KOMENOKICHO,,35.132976,137.07122
米野木台四丁目,コメノキダイ 4,KOMENOKIDAI 4,,35.130342,137.067274
米野木台五丁目,コメノキダイ 5,KOMENOKIDAI 5,,35.127578,137.067639
米野木台六丁目,コメノキダイ 6,KOMENOKIDAI 6,,35.128531,137.070101
