name,name_kana,name_romaji,nickname,latitude,longitude
明知町,アケチチョウ,AKECHICHO,,35.315329,137.029871
旭町一丁目,アサヒマチ 1,ASAHIMACHI 1,,35.232502,136.954811
旭町二丁目,アサヒマチ 2,ASAHIMACHI 2,,35.235766,136.954193
旭町三丁目,アサヒマチ 3,ASAHIMACHI 3,,35.23792,136.953815
旭町四丁目,アサヒマチ 4,ASAHIMACHI 4,,35.240671,136.953084
朝宮町一丁目,アサミヤチョウ 1,ASAMIYACHO 1,,35.251389,136.96043
朝宮町二丁目,アサミヤチョウ 2,ASAMIYACHO 2,,35.249216,136.956721
朝宮町三丁目,アサミヤチョウ 3,ASAMIYACHO 3,,35.252262,136.956186
朝宮町四丁目,アサミヤチョウ 4,ASAMIYACHO 4,,35.255375,136.959878
浅山町,アサヤマチョウ,ASAYAMACHO,,35.256604,136.980348
浅山町一丁目,アサヤマチョウ 1,ASAYAMACHO 1,,35.253889,136.983888
浅山町二丁目,アサヤマチョウ 2,ASAYAMACHO 2,,35.25524,136.981771
浅山町三丁目,アサヤマチョウ 3,ASAYAMACHO 3,,35.258076,136.984166
浅山町四丁目,アサヤマチョウ 4,ASAYAMACHO 4,,35.255589,136.984915
味美上ノ町,アジヨシカミノチョウ,AJIYOSHI KAMINOCHO,,35.242251,136.933523
味美町一丁目,アジヨシチョウ 1,AJIYOSHICHO 1,,35.237805,136.9382
味美町二丁目,アジヨシチョウ 2,AJIYOSHICHO 2,,35.237598,136.940861
味美町三丁目,アジヨシチョウ 3,AJIYOSHICHO 3,,35.236684,136.944074
味美西本町,アジヨシニシホンマチ,AJIYOSHI NISHIHOMMACHI,,35.238256,136.935931
味美白山町一丁目,アジヨシハクサンチョウ 1,AJIYOSHI HAKUSANCHO 1,,35.231322,136.935541
味美白山町二丁目,アジヨシハクサンチョウ 2,AJIYOSHI HAKUSANCHO 2,,35.231822,136.932426
穴橋町,アナハシチョウ,ANAHASHICHO,,35.255103,136.992647
穴橋町一丁目,アナハシチョウ 1,ANAHASHICHO 1,,35.253758,136.99265
穴橋町二丁目,アナハシチョウ 2,ANAHASHICHO 2,,35.254903,136.995725
穴橋町三丁目,アナハシチョウ 3,ANAHASHICHO 3,,35.25358,136.997496
石尾台一丁目,イシオダイ 1,ISHIODAI 1,,35.288038,137.05762
石尾台二丁目,イシオダイ 2,ISHIODAI 2,,35.2906,137.057488
石尾台三丁目,イシオダイ 3,ISHIODAI 3,,35.293126,137.061291
石尾台四丁目,イシオダイ 4,ISHIODAI 4,,35.294412,137.063979
石尾台五丁目,イシオダイ 5,ISHIODAI 5,,35.291243,137.062241
石尾台六丁目,イシオダイ 6,ISHIODAI 6,,35.287868,137.062633
稲口町,イナグチチョウ,INAGUCHICHO,,35.243908,136.939561
稲口町一丁目,イナグチチョウ 1,INAGUCHICHO 1,,35.244134,136.941665
稲口町二丁目,イナグチチョウ 2,INAGUCHICHO 2,,35.243621,136.945897
稲口町三丁目,イナグチチョウ 3,INAGUCHICHO 3,,35.240139,136.948897
稲口町四丁目,イナグチチョウ 4,INAGUCHICHO 4,,35.243685,136.951207
杁ケ島町,イリガシマチョウ,IRIGASHIMACHO,,35.236152,136.969135
岩成台十丁目,イワナリダイ 10,IWANARIDAI 10,,35.277873,137.035018
岩成台一丁目,イワナリダイ 1,IWANARIDAI 1,,35.272147,137.040448
岩成台二丁目,イワナリダイ 2,IWANARIDAI 2,,35.273712,137.041304
岩成台三丁目,イワナリダイ 3,IWANARIDAI 3,,35.274047,137.038477
岩成台四丁目,イワナリダイ 4,IWANARIDAI 4,,35.276928,137.04052
岩成台五丁目,イワナリダイ 5,IWANARIDAI 5,,35.276011,137.041802
岩成台六丁目,イワナリダイ 6,IWANARIDAI 6,,35.277794,137.046696
岩成台七丁目,イワナリダイ 7,IWANARIDAI 7,,35.27885,137.043891
岩成台八丁目,イワナリダイ 8,IWANARIDAI 8,,35.279516,137.040046
岩成台九丁目,イワナリダイ 9,IWANARIDAI 9,,35.280993,137.037527
岩野町,イワノチョウ,IWANOCHO,,35.26871,136.960596
岩野町一丁目,イワノチョウ 1,IWANOCHO 1,,35.267626,136.959103
岩野町二丁目,イワノチョウ 2,IWANOCHO 2,,35.265039,136.961427
上野町,ウエノチョウ,UENOCHO,,35.282199,137.018307
上野町三丁目,ウエノチョウ 3,UENOCHO 3,,35.281266,137.02288
上野町二丁目,ウエノチョウ 2,UENOCHO 2,,35.27972,137.021754
上野町一丁目,ウエノチョウ 1,UENOCHO 1,,35.278166,137.020907
牛山町,ウシヤマチョウ,USHIYAMACHO,,35.269559,136.935758
内津町,ウツツチョウ,UTSUTSUCHO,,35.328675,137.064154
梅ケ坪町,ウメガツボチョウ,UMEGATSUBOCHO,,35.254209,136.979351
王子町,オウジチョウ,OJICHO,,35.234533,136.974579
大手田酉町一丁目,オオデタトリチョウ 1,ODETATORICHO 1,,35.25954,136.957566
大手田酉町二丁目,オオデタトリチョウ 2,ODETATORICHO 2,,35.260894,136.960189
大手田酉町三丁目,オオデタトリチョウ 3,ODETATORICHO 3,,35.262318,136.963104
大手町,オオデチョウ,ODECHO,,35.26646,136.949217
大手町一丁目,オオデチョウ 1,ODECHO 1,,35.266856,136.956744
大手町二丁目,オオデチョウ 2,ODECHO 2,,35.267025,136.955251
大手町三丁目,オオデチョウ 3,ODECHO 3,,35.263374,136.957264
大手町四丁目,オオデチョウ 4,ODECHO 4,,35.264572,136.953798
大留町,オオドメチョウ,ODOMECHO,,35.258799,137.028344
大留町一丁目,オオドメチョウ 1,ODOMECHO 1,,35.254869,137.016151
大留町二丁目,オオドメチョウ 2,ODOMECHO 2,,35.258711,137.016886
大留町三丁目,オオドメチョウ 3,ODOMECHO 3,,35.260075,137.020541
大留町四丁目,オオドメチョウ 4,ODOMECHO 4,,35.257603,137.020711
大留町五丁目,オオドメチョウ 5,ODOMECHO 5,,35.254822,137.021281
大留町六丁目,オオドメチョウ 6,ODOMECHO 6,,35.257245,137.025074
大留町七丁目,オオドメチョウ 7,ODOMECHO 7,,35.259272,137.02418
大留町八丁目,オオドメチョウ 8,ODOMECHO 8,,35.261266,137.022643
大留町九丁目,オオドメチョウ 9,ODOMECHO 9,,35.261259,137.026128
小木田町,オギタチョウ,OGITACHO,,35.246205,136.990519
押沢台一丁目,オシザワダイ 1,OSHIZAWADAI 1,,35.285033,137.062492
押沢台二丁目,オシザワダイ 2,OSHIZAWADAI 2,,35.284876,137.065872
押沢台三丁目,オシザワダイ 3,OSHIZAWADAI 3,,35.282505,137.067802
押沢台四丁目,オシザワダイ 4,OSHIZAWADAI 4,,35.277883,137.065184
押沢台五丁目,オシザワダイ 5,OSHIZAWADAI 5,,35.279452,137.064435
押沢台六丁目,オシザワダイ 6,OSHIZAWADAI 6,,35.281885,137.06501
押沢台七丁目,オシザワダイ 7,OSHIZAWADAI 7,,35.282154,137.06209
乙輪町一丁目,オトワチョウ 1,OTOWACHO 1,,35.245264,136.982009
乙輪町二丁目,オトワチョウ 2,OTOWACHO 2,,35.246536,136.98144
乙輪町三丁目,オトワチョウ 3,OTOWACHO 3,,35.247487,136.980464
小野町一丁目,オノチョウ 1,ONOCHO 1,,35.225914,136.961846
小野町二丁目,オノチョウ 2,ONOCHO 2,,35.228107,136.961207
小野町三丁目,オノチョウ 3,ONOCHO 3,,35.2312,136.963676
小野町四丁目,オノチョウ 4,ONOCHO 4,,35.23038,136.966451
小野町五丁目,オノチョウ 5,ONOCHO 5,,35.227825,136.96615
小野町六丁目,オノチョウ 6,ONOCHO 6,,35.225913,136.966456
神屋町,カギヤチョウ,KAGIYACHO,,35.302975,137.027573
柏原町一丁目,カシハラチョウ 1,KASHIHARACHO 1,,35.243612,136.956682
柏原町二丁目,カシハラチョウ 2,KASHIHARACHO 2,,35.243102,136.959088
柏原町三丁目,カシハラチョウ 3,KASHIHARACHO 3,,35.246477,136.959893
柏原町四丁目,カシハラチョウ 4,KASHIHARACHO 4,,35.247487,136.962435
柏原町五丁目,カシハラチョウ 5,KASHIHARACHO 5,,35.249132,136.96533
柏井町一丁目,カシワイチョウ 1,KASHIWAICHO 1,,35.232635,136.957664
柏井町二丁目,カシワイチョウ 2,KASHIWAICHO 2,,35.23473,136.959343
柏井町三丁目,カシワイチョウ 3,KASHIWAICHO 3,,35.235619,136.9613
柏井町四丁目,カシワイチョウ 4,KASHIWAICHO 4,,35.236863,136.963175
柏井町五丁目,カシワイチョウ 5,KASHIWAICHO 5,,35.238657,136.964311
柏井町六丁目,カシワイチョウ 6,KASHIWAICHO 6,,35.232761,136.963006
柏井町七丁目,カシワイチョウ 7,KASHIWAICHO 7,,35.234399,136.96594
春日井上ノ町,カスガイカミノチョウ,KASUGAIKAMINOCHO,,35.2548,136.931805
春日井町,カスガイチョウ,KASUGAICHO,,35.248514,136.933419
勝川新町一丁目,カチガワシンマチ 1,KACHIGAWASHIMMACHI 1,,35.233,136.94775
勝川新町二丁目,カチガワシンマチ 2,KACHIGAWASHIMMACHI 2,,35.235448,136.948888
勝川新町三丁目,カチガワシンマチ 3,KACHIGAWASHIMMACHI 3,,35.237267,136.947535
勝川町十丁目,カチガワチョウ 10,KACHIGAWACHO 10,,35.224379,136.952644
勝川町一丁目,カチガワチョウ 1,KACHIGAWACHO 1,,35.218753,136.947317
勝川町二丁目,カチガワチョウ 2,KACHIGAWACHO 2,,35.222583,136.949418
勝川町三丁目,カチガワチョウ 3,KACHIGAWACHO 3,,35.224398,136.949392
勝川町四丁目,カチガワチョウ 4,KACHIGAWACHO 4,,35.226358,136.949154
勝川町五丁目,カチガワチョウ 5,KACHIGAWACHO 5,,35.227624,136.950237
勝川町六丁目,カチガワチョウ 6,KACHIGAWACHO 6,,35.228967,136.953655
勝川町七丁目,カチガワチョウ 7,KACHIGAWACHO 7,,35.230943,136.955358
勝川町八丁目,カチガワチョウ 8,KACHIGAWACHO 8,,35.22809,136.955285
勝川町九丁目,カチガワチョウ 9,KACHIGAWACHO 9,,35.22645,136.953694
勝川町西一丁目,カチガワチョウニシ 1,KACHIGAWACHONISHI 1,,35.222491,136.944167
勝川町西二丁目,カチガワチョウニシ 2,KACHIGAWACHONISHI 2,,35.222754,136.945878
勝川町西三丁目,カチガワチョウニシ 3,KACHIGAWACHONISHI 3,,35.223991,136.945519
勝川町西四丁目,カチガワチョウニシ 4,KACHIGAWACHONISHI 4,,35.22642,136.94509
金ケ口町,カナガグチチョウ,KANAGAGUCHICHO,,35.264599,137.004902
上田楽町,カミタラガチョウ,KAMITARAGACHO,,35.281175,136.950335
上ノ町一丁目,カミノチョウ 1,KAMINOCHO 1,,35.239718,136.932195
菅大臣町,カンダイジンチョウ,KANDAIJINCHO,,35.252342,136.988619
北城町一丁目,キタシロチョウ 1,KITASHIROCHO 1,,35.260959,137.00808
北城町二丁目,キタシロチョウ 2,KITASHIROCHO 2,,35.262125,137.005724
北城町三丁目,キタシロチョウ 3,KITASHIROCHO 3,,35.263401,137.00509
北城町四丁目,キタシロチョウ 4,KITASHIROCHO 4,,35.263722,137.009075
木附町,キヅキチョウ,KIZUKICHO,,35.281376,137.074262
気噴町,キブキチョウ,KIBUKICHO,,35.259364,137.032898
気噴町一丁目,キブキチョウ 1,KIBUKICHO 1,,35.260755,137.029898
気噴町二丁目,キブキチョウ 2,KIBUKICHO 2,,35.262714,137.029392
気噴町三丁目,キブキチョウ 3,KIBUKICHO 3,,35.265712,137.027543
気噴町四丁目,キブキチョウ 4,KIBUKICHO 4,,35.263207,137.033924
気噴町五丁目,キブキチョウ 5,KIBUKICHO 5,,35.261268,137.033772
気噴町六丁目,キブキチョウ 6,KIBUKICHO 6,,35.260748,137.036231
気噴町北一丁目,キブキチョウキタ 1,KIBUKICHOKITA 1,,35.267564,137.028813
気噴町北二丁目,キブキチョウキタ 2,KIBUKICHOKITA 2,,35.266562,137.032304
貴船町,キブネチョウ,KIBUNECHO,,35.247197,136.985394
熊野町,クマノチョウ,KUMANOCHO,,35.246524,137.000846
熊野町北一丁目,クマノチョウキタ 1,KUMANOCHOKITA 1,,35.250729,136.996411
黒鉾町,クロボコチョウ,KUROBOKOCHO,,35.25473,136.936756
下条町,ゲジョウチョウ,GEJOCHO,,35.228535,136.977058
下条町一丁目,ゲジョウチョウ 1,GEJOCHO 1,,35.230506,136.970064
下条町二丁目,ゲジョウチョウ 2,GEJOCHO 2,,35.228147,136.970357
下条町三丁目,ゲジョウチョウ 3,GEJOCHO 3,,35.228389,136.973707
高蔵寺町一丁目,コウゾウジチョウ 1,KOZOJICHO 1,,35.262912,137.036535
高蔵寺町二丁目,コウゾウジチョウ 2,KOZOJICHO 2,,35.261063,137.039609
高蔵寺町三丁目,コウゾウジチョウ 3,KOZOJICHO 3,,35.261307,137.042225
高蔵寺町四丁目,コウゾウジチョウ 4,KOZOJICHO 4,,35.261559,137.044363
高蔵寺町五丁目,コウゾウジチョウ 5,KOZOJICHO 5,,35.261777,137.047228
高蔵寺町六丁目,コウゾウジチョウ 6,KOZOJICHO 6,,35.262136,137.048837
高蔵寺町七丁目,コウゾウジチョウ 7,KOZOJICHO 7,,35.262498,137.051412
高蔵寺町八丁目,コウゾウジチョウ 8,KOZOJICHO 8,,35.265159,137.054499
高蔵寺町北一丁目,コウゾウジチョウキタ 1,KOZOJICHOKITA 1,,35.266369,137.03584
高蔵寺町北二丁目,コウゾウジチョウキタ 2,KOZOJICHOKITA 2,,35.265936,137.039362
高蔵寺町北三丁目,コウゾウジチョウキタ 3,KOZOJICHOKITA 3,,35.265836,137.042815
高蔵寺町北四丁目,コウゾウジチョウキタ 4,KOZOJICHOKITA 4,,35.266096,137.045346
高蔵寺町北五丁目,コウゾウジチョウキタ 5,KOZOJICHOKITA 5,,35.265111,137.050809
ことぶき町,コトブキチョウ,KOTOBUKICHO,,35.252099,136.978032
西尾町,サイオチョウ,SAIOCHO,,35.324277,137.044215
坂下町一丁目,サカシタチョウ 1,SAKASHITACHO 1,,35.284067,137.023471
坂下町二丁目,サカシタチョウ 2,SAKASHITACHO 2,,35.287167,137.021679
坂下町三丁目,サカシタチョウ 3,SAKASHITACHO 3,,35.289166,137.021611
坂下町四丁目,サカシタチョウ 4,SAKASHITACHO 4,,35.291469,137.021727
坂下町五丁目,サカシタチョウ 5,SAKASHITACHO 5,,35.287698,137.027659
坂下町六丁目,サカシタチョウ 6,SAKASHITACHO 6,,35.287379,137.014624
坂下町七丁目,サカシタチョウ 7,SAKASHITACHO 7,,35.292224,137.015544
桜佐町,サクラサチョウ,SAKURASACHO,,35.2423,136.994097
篠木町一丁目,シノギチョウ 1,SHINOGICHO 1,,35.251128,136.981679
篠木町二丁目,シノギチョウ 2,SHINOGICHO 2,,35.251933,136.983412
篠木町三丁目,シノギチョウ 3,SHINOGICHO 3,,35.252326,136.985636
篠木町四丁目,シノギチョウ 4,SHINOGICHO 4,,35.253494,136.98688
篠木町五丁目,シノギチョウ 5,SHINOGICHO 5,,35.255893,136.987852
篠木町六丁目,シノギチョウ 6,SHINOGICHO 6,,35.256813,136.990867
篠木町七丁目,シノギチョウ 7,SHINOGICHO 7,,35.259489,136.993048
篠木町八丁目,シノギチョウ 8,SHINOGICHO 8,,35.261182,136.996604
篠田町,シノダチョウ,SHINODACHO,,35.232592,136.965773
下市場町,シモイチバチョウ,SHIMOICHIBACHO,,35.26139,137.010051
下市場町一丁目,シモイチバチョウ 1,SHIMOICHIBACHO 1,,35.255582,137.000057
下市場町二丁目,シモイチバチョウ 2,SHIMOICHIBACHO 2,,35.258748,137.000213
下市場町三丁目,シモイチバチョウ 3,SHIMOICHIBACHO 3,,35.258298,136.998145
下市場町四丁目,シモイチバチョウ 4,SHIMOICHIBACHO 4,,35.26098,137.002443
下市場町五丁目,シモイチバチョウ 5,SHIMOICHIBACHO 5,,35.258315,137.002747
下市場町六丁目,シモイチバチョウ 6,SHIMOICHIBACHO 6,,35.258903,137.006678
下津町,シモツチョウ,SHIMOTSUCHO,,35.227191,136.983631
下原町,シモハラチョウ,SHIMOHARACHO,,35.273819,136.984424
下屋敷町,シモヤシキチョウ,SHIMOYASHIKICHO,,35.24697,136.937756
下屋敷町一丁目,シモヤシキチョウ 1,SHIMOYASHIKICHO 1,,35.244367,136.939794
下屋敷町二丁目,シモヤシキチョウ 2,SHIMOYASHIKICHO 2,,35.245847,136.938724
十三塚町,ジュウサンヅカチョウ,JUSANZUKACHO,,35.26627,136.996635
上条町十丁目,ジョウジョウチョウ 10,JOJOCHO 10,,35.23062,136.984899
上条町一丁目,ジョウジョウチョウ 1,JOJOCHO 1,,35.243069,136.982188
上条町二丁目,ジョウジョウチョウ 2,JOJOCHO 2,,35.240761,136.983782
上条町三丁目,ジョウジョウチョウ 3,JOJOCHO 3,,35.241753,136.988056
上条町四丁目,ジョウジョウチョウ 4,JOJOCHO 4,,35.238225,136.98384
上条町五丁目,ジョウジョウチョウ 5,JOJOCHO 5,,35.238545,136.988106
上条町六丁目,ジョウジョウチョウ 6,JOJOCHO 6,,35.235994,136.983883
上条町七丁目,ジョウジョウチョウ 7,JOJOCHO 7,,35.234797,136.987954
上条町八丁目,ジョウジョウチョウ 8,JOJOCHO 8,,35.233317,136.982415
上条町九丁目,ジョウジョウチョウ 9,JOJOCHO 9,,35.230773,136.988434
白山町一丁目,シラヤマチョウ 1,SHIRAYAMACHO 1,,35.269932,137.039004
白山町二丁目,シラヤマチョウ 2,SHIRAYAMACHO 2,,35.269771,137.035945
白山町三丁目,シラヤマチョウ 3,SHIRAYAMACHO 3,,35.26982,137.032546
白山町四丁目,シラヤマチョウ 4,SHIRAYAMACHO 4,,35.270151,137.029056
白山町六丁目,シラヤマチョウ 6,SHIRAYAMACHO 6,,35.272551,137.033587
白山町七丁目,シラヤマチョウ 7,SHIRAYAMACHO 7,,35.274467,137.035885
白山町八丁目,シラヤマチョウ 8,SHIRAYAMACHO 8,,35.274939,137.032421
白山町九丁目,シラヤマチョウ 9,SHIRAYAMACHO 9,,35.276891,137.030804
新開町,シンカイチョウ,SHINKAICHO,,35.267732,136.942916
神明町,シンメイチョウ,SHIMMEICHO,,35.234862,136.951892
神領町,ジンリョウチョウ,JINRYOCHO,,35.24786,137.010197
神領町一丁目,ジンリョウチョウ 1,JINRYOCHO 1,,35.248804,137.008445
神領町二丁目,ジンリョウチョウ 2,JINRYOCHO 2,,35.254312,137.011132
神領町三丁目,ジンリョウチョウ 3,JINRYOCHO 3,,35.256568,137.013352
神領町北一丁目,ジンリョウチョウキタ 1,JINRYOCHOKITA 1,,35.260521,137.011464
神領町北二丁目,ジンリョウチョウキタ 2,JINRYOCHOKITA 2,,35.260104,137.013019
関田町一丁目,セキダチョウ 1,SEKIDACHO 1,,35.249604,136.98396
関田町二丁目,セキダチョウ 2,SEKIDACHO 2,,35.249848,136.986561
関田町三丁目,セキダチョウ 3,SEKIDACHO 3,,35.250168,136.989061
惣中町一丁目,ソウナカチョウ 1,SONAKACHO 1,,35.228581,136.946778
惣中町二丁目,ソウナカチョウ 2,SONAKACHO 2,,35.229912,136.94745
惣中町三丁目,ソウナカチョウ 3,SONAKACHO 3,,35.231284,136.947224
宗法町,ソウホウチョウ,SOHOCHO,,35.244836,136.933162
大泉寺町,ダイセンジチョウ,DAISENJICHO,,35.273358,137.00345
鷹来町,タカキチョウ,TAKAKICHO,,35.272864,136.964665
鷹来町一丁目,タカキチョウ 1,TAKAKICHO 1,,35.272201,136.969742
高座台一丁目,タカクラダイ 1,TAKAKURADAI 1,,35.268449,137.040648
高座台二丁目,タカクラダイ 2,TAKAKURADAI 2,,35.270106,137.04273
高座台三丁目,タカクラダイ 3,TAKAKURADAI 3,,35.269269,137.044517
高座台四丁目,タカクラダイ 4,TAKAKURADAI 4,,35.272506,137.04444
高座台五丁目,タカクラダイ 5,TAKAKURADAI 5,,35.275025,137.047055
高座町,タカクラチョウ,TAKAKURACHO,,35.272454,137.054684
高森台十丁目,タカモリダイ 10,TAKAMORIDAI 10,,35.289741,137.048355
高森台一丁目,タカモリダイ 1,TAKAMORIDAI 1,,35.289079,137.045465
高森台二丁目,タカモリダイ 2,TAKAMORIDAI 2,,35.289943,137.040225
高森台三丁目,タカモリダイ 3,TAKAMORIDAI 3,,35.292033,137.042653
高森台四丁目,タカモリダイ 4,TAKAMORIDAI 4,,35.294661,137.046893
高森台五丁目,タカモリダイ 5,TAKAMORIDAI 5,,35.296614,137.053322
高森台六丁目,タカモリダイ 6,TAKAMORIDAI 6,,35.297092,137.059783
高森台七丁目,タカモリダイ 7,TAKAMORIDAI 7,,35.294094,137.058393
高森台八丁目,タカモリダイ 8,TAKAMORIDAI 8,,35.292607,137.052028
高森台九丁目,タカモリダイ 9,TAKAMORIDAI 9,,35.289607,137.053927
高山町一丁目,タカヤマチョウ 1,TAKAYAMACHO 1,,35.252089,136.951619
高山町二丁目,タカヤマチョウ 2,TAKAYAMACHO 2,,35.255226,136.954845
高山町三丁目,タカヤマチョウ 3,TAKAYAMACHO 3,,35.257578,136.954365
玉野台一丁目,タマノダイ 1,TAMANODAI 1,,35.270762,137.068608
玉野台二丁目,タマノダイ 2,TAMANODAI 2,,35.273538,137.070695
玉野台三丁目,タマノダイ 3,TAMANODAI 3,,35.272292,137.074943
玉野町,タマノチョウ,TAMANOCHO,,35.275318,137.075253
田楽町,タラガチョウ,TARAGACHO,,35.274312,136.950908
知多町一丁目,チタチョウ 1,CHITACHO 1,,35.22932,136.94313
知多町二丁目,チタチョウ 2,CHITACHO 2,,35.231156,136.943621
知多町三丁目,チタチョウ 3,CHITACHO 3,,35.23303,136.94417
知多町四丁目,チタチョウ 4,CHITACHO 4,,35.235593,136.945748
中央台一丁目,チュウオウダイ 1,CHUODAI 1,,35.279737,137.048965
中央台二丁目,チュウオウダイ 2,CHUODAI 2,,35.284806,137.048391
中央台三丁目,チュウオウダイ 3,CHUODAI 3,,35.283462,137.050312
中央台四丁目,チュウオウダイ 4,CHUODAI 4,,35.286249,137.050504
中央台五丁目,チュウオウダイ 5,CHUODAI 5,,35.286357,137.052076
中央台六丁目,チュウオウダイ 6,CHUODAI 6,,35.286569,137.053961
中央台七丁目,チュウオウダイ 7,CHUODAI 7,,35.285336,137.057689
中央台八丁目,チュウオウダイ 8,CHUODAI 8,,35.283044,137.05297
中央通一丁目,チュウオウドオリ 1,CHUODORI 1,,35.245045,136.984159
中央通二丁目,チュウオウドオリ 2,CHUODORI 2,,35.248639,136.982234
町田町一丁目,チョウダチョウ 1,CHODACHO 1,,35.225998,136.955665
町田町二丁目,チョウダチョウ 2,CHODACHO 2,,35.226437,136.957999
追進町一丁目,ツイシンチョウ 1,TSUISHINCHO 1,,35.223611,136.942521
追進町二丁目,ツイシンチョウ 2,TSUISHINCHO 2,,35.225026,136.941995
追進町三丁目,ツイシンチョウ 3,TSUISHINCHO 3,,35.227311,136.942118
月見町,ツキミチョウ,TSUKIMICHO,,35.241256,136.974216
角崎町,ツノサキチョウ,TSUNOSAKICHO,,35.231221,136.952946
出川町,テガワチョウ,TEGAWACHO,,35.265009,137.012205
出川町一丁目,テガワチョウ 1,TEGAWACHO 1,,35.267632,137.016121
出川町二丁目,テガワチョウ 2,TEGAWACHO 2,,35.268537,137.022005
出川町三丁目,テガワチョウ 3,TEGAWACHO 3,,35.266495,137.024739
出川町四丁目,テガワチョウ 4,TEGAWACHO 4,,35.263992,137.025109
出川町五丁目,テガワチョウ 5,TEGAWACHO 5,,35.265344,137.020547
出川町六丁目,テガワチョウ 6,TEGAWACHO 6,,35.263141,137.020373
出川町七丁目,テガワチョウ 7,TEGAWACHO 7,,35.260928,137.016451
出川町八丁目,テガワチョウ 8,TEGAWACHO 8,,35.264403,137.015673
天神町,テンジンチョウ,TENJINCHO,,35.232228,136.949586
外之原町,トノハラチョウ,TONOHARACHO,,35.29591,137.074437
鳥居松町一丁目,トリイマツチョウ 1,TORIIMATSUCHO 1,,35.239676,136.967599
鳥居松町二丁目,トリイマツチョウ 2,TORIIMATSUCHO 2,,35.242071,136.96912
鳥居松町三丁目,トリイマツチョウ 3,TORIIMATSUCHO 3,,35.243637,136.97084
鳥居松町四丁目,トリイマツチョウ 4,TORIIMATSUCHO 4,,35.245001,136.972558
鳥居松町五丁目,トリイマツチョウ 5,TORIIMATSUCHO 5,,35.246812,136.973659
鳥居松町六丁目,トリイマツチョウ 6,TORIIMATSUCHO 6,,35.247413,136.976442
鳥居松町七丁目,トリイマツチョウ 7,TORIIMATSUCHO 7,,35.248659,136.978002
鳥居松町八丁目,トリイマツチョウ 8,TORIIMATSUCHO 8,,35.25008,136.979567
中切町,ナカギリチョウ,NAKAGIRICHO,,35.223886,136.976584
中切町一丁目,ナカギリチョウ 1,NAKAGIRICHO 1,,35.225782,136.97046
中切町二丁目,ナカギリチョウ 2,NAKAGIRICHO 2,,35.225737,136.973566
中切町三丁目,ナカギリチョウ 3,NAKAGIRICHO 3,,35.224115,136.972455
中新町一丁目,ナカシンチョウ 1,NAKASHINCHO 1,,35.22529,136.931216
中新町二丁目,ナカシンチョウ 2,NAKASHINCHO 2,,35.228376,136.930367
長塚町一丁目,ナガツカチョウ 1,NAGATSUKACHO 1,,35.220231,136.950804
長塚町二丁目,ナガツカチョウ 2,NAGATSUKACHO 2,,35.220163,136.953635
中野町一丁目,ナカノチョウ 1,NAKANOCHO 1,,35.229629,136.927283
中野町二丁目,ナカノチョウ 2,NAKANOCHO 2,,35.232086,136.928885
中町,ナカマチ,NAKAMACHI,,35.251267,136.932864
西高山町一丁目,ニシタカヤマチョウ 1,NISHITAKAYAMACHO 1,,35.254654,136.947041
西高山町二丁目,ニシタカヤマチョウ 2,NISHITAKAYAMACHO 2,,35.257245,136.948331
西高山町三丁目,ニシタカヤマチョウ 3,NISHITAKAYAMACHO 3,,35.254868,136.950086
西本町一丁目,ニシホンマチ 1,NISHIHOMMACHI 1,,35.234454,136.935659
西本町二丁目,ニシホンマチ 2,NISHIHOMMACHI 2,,35.234837,136.931731
西本町三丁目,ニシホンマチ 3,NISHIHOMMACHI 3,,35.237517,136.932135
西屋町,ニシヤチョウ,NISHIYACHO,,35.261379,136.938699
西山町,ニシヤマチョウ,NISHIYAMACHO,,35.280447,136.98102
西山町一丁目,ニシヤマチョウ 1,NISHIYAMACHO 1,,35.275087,136.970181
西山町二丁目,ニシヤマチョウ 2,NISHIYAMACHO 2,,35.274437,136.974087
西山町三丁目,ニシヤマチョウ 3,NISHIYAMACHO 3,,35.271482,136.975363
西山町四丁目,ニシヤマチョウ 4,NISHIYAMACHO 4,,35.274154,136.979137
西山町五丁目,ニシヤマチョウ 5,NISHIYAMACHO 5,,35.276977,136.981191
如意申町一丁目,ニョイサルチョウ 1,NYOISARUCHO 1,,35.245947,136.941924
如意申町二丁目,ニョイサルチョウ 2,NYOISARUCHO 2,,35.248671,136.942451
如意申町三丁目,ニョイサルチョウ 3,NYOISARUCHO 3,,35.245818,136.94667
如意申町四丁目,ニョイサルチョウ 4,NYOISARUCHO 4,,35.249064,136.947006
如意申町五丁目,ニョイサルチョウ 5,NYOISARUCHO 5,,35.249698,136.951851
如意申町六丁目,ニョイサルチョウ 6,NYOISARUCHO 6,,35.247113,136.951189
如意申町七丁目,ニョイサルチョウ 7,NYOISARUCHO 7,,35.245532,136.952034
如意申町八丁目,ニョイサルチョウ 8,NYOISARUCHO 8,,35.246447,136.955524
廻間町,ハザマチョウ,HAZAMACHO,,35.298447,137.043797
八幡町,ハチマンチョウ,HACHIMANCHO,,35.23868,136.957471
八光町一丁目,ハッコウチョウ 1,HAKKOCHO 1,,35.232679,136.956083
八光町二丁目,ハッコウチョウ 2,HAKKOCHO 2,,35.235842,136.955642
八光町三丁目,ハッコウチョウ 3,HAKKOCHO 3,,35.238494,136.955393
八光町四丁目,ハッコウチョウ 4,HAKKOCHO 4,,35.240794,136.955071
八光町五丁目,ハッコウチョウ 5,HAKKOCHO 5,,35.243296,136.954627
八田町一丁目,ハッタチョウ 1,HATTACHO 1,,35.251,136.969923
八田町二丁目,ハッタチョウ 2,HATTACHO 2,,35.253303,136.96833
八田町三丁目,ハッタチョウ 3,HATTACHO 3,,35.25359,136.964255
八田町四丁目,ハッタチョウ 4,HATTACHO 4,,35.255818,136.963033
八田町五丁目,ハッタチョウ 5,HATTACHO 5,,35.25793,136.961097
八田町六丁目,ハッタチョウ 6,HATTACHO 6,,35.258041,136.965632
八田町七丁目,ハッタチョウ 7,HATTACHO 7,,35.256069,136.970894
八田町八丁目,ハッタチョウ 8,HATTACHO 8,,35.253386,136.972153
花長町一丁目,ハナオサチョウ 1,HANAOSACHO 1,,35.230885,136.939279
花長町二丁目,ハナオサチョウ 2,HANAOSACHO 2,,35.23402,136.939873
林島町,ハヤシジマチョウ,HAYASHIJIMACHO,,35.250093,136.991179
林島町二丁目,ハヤシジマチョウ 2,HAYASHIJIMACHO 2,,35.24821,136.993878
林島町三丁目,ハヤシジマチョウ 3,HAYASHIJIMACHO 3,,35.25127,136.99322
林島町四丁目,ハヤシジマチョウ 4,HAYASHIJIMACHO 4,,35.252784,136.993589
春見町,ハルミチョウ,HARUMICHO,,35.249706,136.975464
東神明町,ヒガシシンミョウチョウ,HIGASHISHIMMYOCHO,,35.277988,137.017471
東神明町二丁目,ヒガシシンミョウチョウ 2,HIGASHISHIMMYOCHO 2,,35.274976,137.022479
東野新町一丁目,ヒガシノシンマチ 1,HIGASHINOSHIMMACHI 1,,35.260463,136.987534
東野新町二丁目,ヒガシノシンマチ 2,HIGASHINOSHIMMACHI 2,,35.262646,136.990565
東野町,ヒガシノチョウ,HIGASHINOCHO,,35.271097,136.989753
東野町十丁目,ヒガシノチョウ 10,HIGASHINOCHO 10,,35.262044,136.981792
東野町一丁目,ヒガシノチョウ 1,HIGASHINOCHO 1,,35.263256,136.979275
東野町二丁目,ヒガシノチョウ 2,HIGASHINOCHO 2,,35.265759,136.981832
東野町三丁目,ヒガシノチョウ 3,HIGASHINOCHO 3,,35.267879,136.985168
東野町四丁目,ヒガシノチョウ 4,HIGASHINOCHO 4,,35.2699,136.98547
東野町五丁目,ヒガシノチョウ 5,HIGASHINOCHO 5,,35.267254,136.991809
東野町六丁目,ヒガシノチョウ 6,HIGASHINOCHO 6,,35.26469,136.989497
東野町七丁目,ヒガシノチョウ 7,HIGASHINOCHO 7,,35.264622,136.986998
東野町八丁目,ヒガシノチョウ 8,HIGASHINOCHO 8,,35.265092,136.984188
東野町九丁目,ヒガシノチョウ 9,HIGASHINOCHO 9,,35.261727,136.985619
東野町西一丁目,ヒガシノチョウニシ 1,HIGASHINOCHONISHI 1,,35.264277,136.976531
東野町西二丁目,ヒガシノチョウニシ 2,HIGASHINOCHONISHI 2,,35.267918,136.977758
東野町西三丁目,ヒガシノチョウニシ 3,HIGASHINOCHONISHI 3,,35.269115,136.980415
東山町,ヒガシヤマチョウ,HIGASHIYAMACHO,,35.277068,136.992494
東山町一丁目,ヒガシヤマチョウ 1,HIGASHIYAMACHO 1,,35.281699,136.995905
東山町二丁目,ヒガシヤマチョウ 2,HIGASHIYAMACHO 2,,35.282071,136.997775
東山町三丁目,ヒガシヤマチョウ 3,HIGASHIYAMACHO 3,,35.282129,136.999559
東山町四丁目,ヒガシヤマチョウ 4,HIGASHIYAMACHO 4,,35.280973,137.001914
東山町五丁目,ヒガシヤマチョウ 5,HIGASHIYAMACHO 5,,35.279481,136.998798
不二ガ丘一丁目,フジガオカ 1,FUJIGAOKA 1,,35.267782,137.012625
不二ガ丘二丁目,フジガオカ 2,FUJIGAOKA 2,,35.269386,137.013553
不二ガ丘三丁目,フジガオカ 3,FUJIGAOKA 3,,35.270909,137.013313
不二町一丁目,フジチョウ 1,FUJICHO 1,,35.267393,137.026405
不二町二丁目,フジチョウ 2,FUJICHO 2,,35.269537,137.026607
藤山台十丁目,フジヤマダイ 10,FUJIYAMADAI 10,,35.287717,137.038641
藤山台一丁目,フジヤマダイ 1,FUJIYAMADAI 1,,35.284757,137.044734
藤山台二丁目,フジヤマダイ 2,FUJIYAMADAI 2,,35.282752,137.042779
藤山台三丁目,フジヤマダイ 3,FUJIYAMADAI 3,,35.284772,137.039082
藤山台四丁目,フジヤマダイ 4,FUJIYAMADAI 4,,35.281619,137.034733
藤山台五丁目,フジヤマダイ 5,FUJIYAMADAI 5,,35.278669,137.032444
藤山台八丁目,フジヤマダイ 8,FUJIYAMADAI 8,,35.282135,137.031898
藤山台九丁目,フジヤマダイ 9,FUJIYAMADAI 9,,35.285349,137.034639
二子町一丁目,フタゴチョウ 1,FUTAGOCHO 1,,35.2249,136.935072
二子町二丁目,フタゴチョウ 2,FUTAGOCHO 2,,35.227639,136.935134
細木町一丁目,ホソキチョウ 1,HOSOKICHO 1,,35.22381,136.955804
細野町,ホソノチョウ,HOSONOCHO,,35.301212,137.06522
堀ノ内町,ホリノウチチョウ,HORINOCHICHO,,35.254552,137.005703
堀ノ内町一丁目,ホリノウチチョウ 1,HORINOCHICHO 1,,35.252557,137.004426
堀ノ内町二丁目,ホリノウチチョウ 2,HORINOCHICHO 2,,35.251571,137.006079
堀ノ内町三丁目,ホリノウチチョウ 3,HORINOCHICHO 3,,35.254044,137.008119
堀ノ内町四丁目,ホリノウチチョウ 4,HORINOCHICHO 4,,35.250917,137.008076
堀ノ内町五丁目,ホリノウチチョウ 5,HORINOCHICHO 5,,35.249606,137.00441
堀ノ内町北一丁目,ホリノウチチョウキタ 1,HORINOCHICHOKITA 1,,35.254673,137.003042
堀ノ内町北二丁目,ホリノウチチョウキタ 2,HORINOCHICHOKITA 2,,35.256911,137.007203
前並町,マエナミチョウ,MAENAMICHO,,35.261892,136.948778
前並町一丁目,マエナミチョウ 1,MAENAMICHO 1,,35.258264,136.945964
前並町二丁目,マエナミチョウ 2,MAENAMICHO 2,,35.259793,136.949441
前並町三丁目,マエナミチョウ 3,MAENAMICHO 3,,35.260439,136.946376
町屋町,マチヤチョウ,MACHIYACHO,,35.272331,136.957319
町屋町一丁目,マチヤチョウ 1,MACHIYACHO 1,,35.269579,136.956983
松新町一丁目,マツシンチョウ 1,MATSUSHINCHO 1,,35.230503,136.955972
松新町二丁目,マツシンチョウ 2,MATSUSHINCHO 2,,35.232594,136.959323
松新町三丁目,マツシンチョウ 3,MATSUSHINCHO 3,,35.23154,136.960433
松新町四丁目,マツシンチョウ 4,MATSUSHINCHO 4,,35.230302,136.959487
松新町五丁目,マツシンチョウ 5,MATSUSHINCHO 5,,35.229618,136.958065
松新町六丁目,マツシンチョウ 6,MATSUSHINCHO 6,,35.229039,136.957104
松本町,マツモトチョウ,MATSUMOTOCHO,,35.273085,137.015962
松本町一丁目,マツモトチョウ 1,MATSUMOTOCHO 1,,35.271076,137.024084
松本町二丁目,マツモトチョウ 2,MATSUMOTOCHO 2,,35.272895,137.021869
瑞穂通一丁目,ミズホドオリ 1,MIZUHODORI 1,,35.243682,136.96326
瑞穂通二丁目,ミズホドオリ 2,MIZUHODORI 2,,35.245142,136.965331
瑞穂通三丁目,ミズホドオリ 3,MIZUHODORI 3,,35.246309,136.96713
瑞穂通四丁目,ミズホドオリ 4,MIZUHODORI 4,,35.24753,136.969276
瑞穂通五丁目,ミズホドオリ 5,MIZUHODORI 5,,35.249272,136.971198
瑞穂通六丁目,ミズホドオリ 6,MIZUHODORI 6,,35.250195,136.972933
瑞穂通七丁目,ミズホドオリ 7,MIZUHODORI 7,,35.252452,136.974231
瑞穂通八丁目,ミズホドオリ 8,MIZUHODORI 8,,35.25333,136.975942
南下原町,ミナミシモハラチョウ,MINAMISHIMOHARACHO,,35.268788,136.96519
南下原町一丁目,ミナミシモハラチョウ 1,MINAMISHIMOHARACHO 1,,35.264275,136.966967
南下原町二丁目,ミナミシモハラチョウ 2,MINAMISHIMOHARACHO 2,,35.266994,136.965403
南下原町三丁目,ミナミシモハラチョウ 3,MINAMISHIMOHARACHO 3,,35.268118,136.970249
南下原町四丁目,ミナミシモハラチョウ 4,MINAMISHIMOHARACHO 4,,35.269209,136.973724
南下原町五丁目,ミナミシモハラチョウ 5,MINAMISHIMOHARACHO 5,,35.26618,136.974002
南下原町六丁目,ミナミシモハラチョウ 6,MINAMISHIMOHARACHO 6,,35.264144,136.970924
南花長町,ミナミハナオサチョウ,MINAMIHANAOSACHO,,35.226433,136.938562
美濃町一丁目,ミノマチ 1,MINOMACHI 1,,35.241665,136.93828
美濃町二丁目,ミノマチ 2,MINOMACHI 2,,35.241193,136.941564
美濃町三丁目,ミノマチ 3,MINOMACHI 3,,35.240567,136.945511
宮町,ミヤマチ,MIYAMACHI,,35.252553,136.940298
宮町一丁目,ミヤマチ 1,MIYAMACHI 1,,35.251921,136.947269
宮町二丁目,ミヤマチ 2,MIYAMACHI 2,,35.250996,136.944759
宮町三丁目,ミヤマチ 3,MIYAMACHI 3,,35.254357,136.944707
御幸町一丁目,ミユキチョウ 1,MIYUKICHO 1,,35.218353,136.941042
御幸町二丁目,ミユキチョウ 2,MIYUKICHO 2,,35.219951,136.94211
御幸町三丁目,ミユキチョウ 3,MIYUKICHO 3,,35.222489,136.941521
妙慶町,ミョウケイチョウ,MYOKEICHO,,35.237232,136.952371
妙慶町二丁目,ミョウケイチョウ 2,MYOKEICHO 2,,35.23769,136.950427
妙慶町三丁目,ミョウケイチョウ 3,MYOKEICHO 3,,35.239882,136.951062
桃山町,モモヤマチョウ,MOMOYAMACHO,,35.28066,136.960979
桃山町一丁目,モモヤマチョウ 1,MOMOYAMACHO 1,,35.278712,136.96829
桃山町二丁目,モモヤマチョウ 2,MOMOYAMACHO 2,,35.282274,136.968749
桃山町三丁目,モモヤマチョウ 3,MOMOYAMACHO 3,,35.285712,136.970381
森山田町,モリヤマダチョウ,MORIYAMADACHO,,35.223033,136.953609
八事町一丁目,ヤゴトチョウ 1,YAGOTOCHO 1,,35.245678,136.977295
八事町二丁目,ヤゴトチョウ 2,YAGOTOCHO 2,,35.244844,136.978345
八事町三丁目,ヤゴトチョウ 3,YAGOTOCHO 3,,35.24453,136.980112
大和通一丁目,ヤマトドオリ 1,YAMATODORI 1,,35.230339,136.950746
大和通二丁目,ヤマトドオリ 2,YAMATODORI 2,,35.23327,136.952275
弥生町,ヤヨイチョウ,YAYOICHO,,35.239663,136.978768
弥生町一丁目,ヤヨイチョウ 1,YAYOICHO 1,,35.239814,136.975112
弥生町二丁目,ヤヨイチョウ 2,YAYOICHO 2,,35.241692,136.978212
四ツ家町,ヨツヤチョウ,YOTSUYACHO,,35.259698,136.94183
六軒屋町,ロッケンヤチョウ,ROKKENYACHO,,35.258135,136.981433
六軒屋町一丁目,ロッケンヤチョウ 1,ROKKENYACHO 1,,35.256248,136.974994
六軒屋町二丁目,ロッケンヤチョウ 2,ROKKENYACHO 2,,35.260111,136.971956
六軒屋町三丁目,ロッケンヤチョウ 3,ROKKENYACHO 3,,35.261691,136.97613
六軒屋町四丁目,ロッケンヤチョウ 4,ROKKENYACHO 4,,35.25982,136.975766
六軒屋町五丁目,ロッケンヤチョウ 5,ROKKENYACHO 5,,35.256935,136.976733
六軒屋町六丁目,ロッケンヤチョウ 6,ROKKENYACHO 6,,35.259764,136.979262
六軒屋町七丁目,ロッケンヤチョウ 7,ROKKENYACHO 7,,35.258612,136.980067
六軒屋町西一丁目,ロッケンヤチョウニシ 1,ROKKENYACHONISHI 1,,35.256155,136.973287
六軒屋町西二丁目,ロッケンヤチョウニシ 2,ROKKENYACHONISHI 2,,35.259121,136.969287
六軒屋町西三丁目,ロッケンヤチョウニシ 3,ROKKENYACHONISHI 3,,35.261435,136.969997
若草通一丁目,ワカクサドオリ 1,WAKAKUSADORI 1,,35.234369,136.955854
若草通二丁目,ワカクサドオリ 2,WAKAKUSADORI 2,,35.235746,136.957551
若草通三丁目,ワカクサドオリ 3,WAKAKUSADORI 3,,35.238076,136.959524
若草通四丁目,ワカクサドオリ 4,WAKAKUSADORI 4,,35.240422,136.961101
若草通五丁目,ワカクサドオリ 5,WAKAKUSADORI 5,,35.242258,136.961803
割塚町,ワリヅカチョウ,WARIZUKACHO,,35.2458,136.986195
高山町四丁目,タカヤマチョウ 4,TAKAYAMACHO 4,,35.260353,136.953285
高山町,タカヤマチョウ,TAKAYAMACHO,,35.2616,136.952509
松河戸町五丁目,マツカワドチョウ 5,MATSUKAWADOCHO 5,,35.219698,136.967682
松河戸町四丁目,マツカワドチョウ 4,MATSUKAWADOCHO 4,,35.222388,136.968635
松河戸町六丁目,マツカワドチョウ 6,MATSUKAWADOCHO 6,,35.220177,136.971609
細木町二丁目,ホソキチョウ 2,HOSOKICHO 2,,35.223717,136.958738
愛知町,アイチチョウ,AICHICHO,,35.221051,136.957753
松河戸町,マツカワドチョウ,MATSUKAWADOCHO,,35.218589,136.962684
松河戸町一丁目,マツカワドチョウ 1,MATSUKAWADOCHO 1,,35.221538,136.964026
松河戸町二丁目,マツカワドチョウ 2,MATSUKAWADOCHO 2,,35.223716,136.963741
松河戸町三丁目,マツカワドチョウ 3,MATSUKAWADOCHO 3,,35.223536,136.970421
庄名町,ショウナチョウ,SHONACHO,,35.278777,137.025584
藤山台七丁目,フジヤマダイ 7,FUJIYAMADAI 7,,35.279427,137.029286
東神明町一丁目,ヒガシシンミョウチョウ 1,HIGASHISHIMMYOCHO 1,,35.273179,137.024932
不二町三丁目,フジチョウ 3,FUJICHO 3,,35.272227,137.025619
庄名町一丁目,ショウナチョウ 1,SHONACHO 1,,35.273625,137.026628
藤山台六丁目,フジヤマダイ 6,FUJIYAMADAI 6,,35.277087,137.0291
庄名町二丁目,ショウナチョウ 2,SHONACHO 2,,35.276288,137.02648
白山町五丁目,シラヤマチョウ 5,SHIRAYAMACHO 5,,35.274277,137.029314
宗法町,ソウホウチョウ,SOHOCHO,宗法,35.243799,136.928678
春日井上ノ町,カスガイカミノチョウ,KASUGAIKAMINOCHO,上ノ町,35.254444,136.930646
春日井町,カスガイチョウ,KASUGAICHO,七ツ割,35.247591,136.934159
春日井上ノ町,カスガイカミノチョウ,KASUGAIKAMINOCHO,割畑,35.255878,136.934055
西屋町,ニシヤチョウ,NISHIYACHO,西屋敷,35.259373,136.933933
春日井町,カスガイチョウ,KASUGAICHO,町,35.249977,136.933094
西屋町,ニシヤチョウ,NISHIYACHO,割畑,35.258485,136.93414
春日井町,カスガイチョウ,KASUGAICHO,黒鉾,35.250687,136.935387
春日井町,カスガイチョウ,KASUGAICHO,土合,35.250969,136.93739
春日井上ノ町,カスガイカミノチョウ,KASUGAIKAMINOCHO,黒鉾,35.252454,136.934562
下屋敷町,シモヤシキチョウ,SHIMOYASHIKICHO,下屋敷,35.247635,136.937619
黒鉾町,クロボコチョウ,KUROBOKOCHO,大久手,35.255804,136.936564
宗法町,ソウホウチョウ,SOHOCHO,知光院,35.244949,136.935961
西屋町,ニシヤチョウ,NISHIYACHO,大久手,35.258124,136.935491
黒鉾町,クロボコチョウ,KUROBOKOCHO,黒鉾,35.253587,136.936618
宮町,ミヤマチ,MIYAMACHI,宮町,35.253914,136.941066
宮町,ミヤマチ,MIYAMACHI,下夕原,35.250812,136.940576
西屋町,ニシヤチョウ,NISHIYACHO,中新田,35.260406,136.939026
下屋敷町,シモヤシキチョウ,SHIMOYASHIKICHO,知光院,35.244091,136.938265
西屋町,ニシヤチョウ,NISHIYACHO,南野池,35.263141,136.940419
四ツ家町,ヨツヤチョウ,YOTSUYACHO,四ツ家,35.257636,136.942389
新開町,シンカイチョウ,SHINKAICHO,北野池,35.266719,136.941235
新開町,シンカイチョウ,SHINKAICHO,新開,35.269633,136.942354
宮町,ミヤマチ,MIYAMACHI,中島,35.251345,136.943049
四ツ家町,ヨツヤチョウ,YOTSUYACHO,二ツ杁,35.261813,136.9435
新開町,シンカイチョウ,SHINKAICHO,平渕,35.266045,136.945124
前並町,マエナミチョウ,MAENAMICHO,左右分,35.259479,136.944991
前並町,マエナミチョウ,MAENAMICHO,前並,35.262855,136.948348
前並町,マエナミチョウ,MAENAMICHO,東屋敷,35.260882,136.94837
高山町,タカヤマチョウ,TAKAYAMACHO,辻山,35.261221,136.952058
上田楽町,カミタラガチョウ,KAMITARAGACHO,庄司山,35.278553,136.959333
六軒屋町,ロッケンヤチョウ,ROKKENYACHO,向ヱ,35.262285,136.972043
六軒屋町,ロッケンヤチョウ,ROKKENYACHO,松山,35.257411,136.979146
六軒屋町,ロッケンヤチョウ,ROKKENYACHO,中山,35.256473,136.979094
六軒屋町,ロッケンヤチョウ,ROKKENYACHO,東丘,35.258458,136.983193
下原町,シモハラチョウ,SHIMOHARACHO,村東,35.272836,136.986614
東野町,ヒガシノチョウ,HIGASHINOCHO,上二本木,35.269605,136.992193
熊野町,クマノチョウ,KUMANOCHO,五反田,35.245861,136.994237
松本町,マツモトチョウ,MATSUMOTOCHO,下丁田,35.269387,137.016748
神屋町,カギヤチョウ,KAGIYACHO,地福,35.302918,137.019427
神屋町,カギヤチョウ,KAGIYACHO,南郷,35.301168,137.025296
神屋町,カギヤチョウ,KAGIYACHO,森,35.298746,137.026258
神屋町,カギヤチョウ,KAGIYACHO,上郷,35.304118,137.027958
神屋町,カギヤチョウ,KAGIYACHO,南海道,35.301479,137.028174
神屋町,カギヤチョウ,KAGIYACHO,北海道,35.302869,137.029675
廻間町,ハザマチョウ,HAZAMACHO,上杉森,35.286231,137.028932
廻間町,ハザマチョウ,HAZAMACHO,間瀬口,35.285142,137.030777
廻間町,ハザマチョウ,HAZAMACHO,石亀,35.28694,137.031185
廻間町,ハザマチョウ,HAZAMACHO,下巳新田,35.286599,137.032519
廻間町,ハザマチョウ,HAZAMACHO,上巳新田,35.287865,137.033652
廻間町,ハザマチョウ,HAZAMACHO,上新田,35.289412,137.034029
廻間町,ハザマチョウ,HAZAMACHO,地蔵前,35.290392,137.034984
廻間町,ハザマチョウ,HAZAMACHO,落重,35.292337,137.035931
廻間町,ハザマチョウ,HAZAMACHO,東出,35.29097,137.037915
廻間町,ハザマチョウ,HAZAMACHO,神屋洞,35.293775,137.037286
廻間町,ハザマチョウ,HAZAMACHO,浜居場,35.293432,137.038489
廻間町,ハザマチョウ,HAZAMACHO,明知洞,35.295901,137.03778
廻間町,ハザマチョウ,HAZAMACHO,西神多,35.295294,137.04073
廻間町,ハザマチョウ,HAZAMACHO,東神多,35.294254,137.040757
廻間町,ハザマチョウ,HAZAMACHO,高森,35.30278,137.04361
廻間町,ハザマチョウ,HAZAMACHO,上乱林,35.297765,137.043156
廻間町,ハザマチョウ,HAZAMACHO,馬不入,35.300335,137.054287
宮町,ミヤマチ,MIYAMACHI,長斉,35.252333,136.942055
東野町,ヒガシノチョウ,HIGASHINOCHO,小堤,35.274173,136.987639
東野町,ヒガシノチョウ,HIGASHINOCHO,茨沢,35.274325,136.989486
東野町,ヒガシノチョウ,HIGASHINOCHO,落合池,35.272414,136.98991
下原町,シモハラチョウ,SHIMOHARACHO,萱場,35.270886,136.97851
六軒屋町,ロッケンヤチョウ,ROKKENYACHO,水附,35.258691,136.986575
金ケ口町,カナガグチチョウ,KANAGAGUCHICHO,金ヶ口,35.265033,137.008537
廻間町,ハザマチョウ,HAZAMACHO,大洞,35.292943,137.032688
廻間町,ハザマチョウ,HAZAMACHO,後ノ田,35.293205,137.040008
廻間町,ハザマチョウ,HAZAMACHO,下乱林,35.297039,137.040623
廻間町,ハザマチョウ,HAZAMACHO,宮滝,35.299346,137.040947
