name,name_kana,name_romaji,nickname,latitude,longitude
相川一丁目,アイカワ 1,AIKAWA 1,,35.101565,136.967846
相川二丁目,アイカワ 2,AIKAWA 2,,35.101279,136.972218
相川三丁目,アイカワ 3,AIKAWA 3,,35.100793,136.975041
相原郷一丁目,アイバラゴウ 1,AIBARAGO 1,,35.081305,136.969451
相原郷二丁目,アイバラゴウ 2,AIBARAGO 2,,35.079485,136.969195
青山一丁目,アオヤマ 1,AOYAMA 1,,35.071023,136.947907
青山二丁目,アオヤマ 2,AOYAMA 2,,35.070226,136.950279
青山三丁目,アオヤマ 3,AOYAMA 3,,35.069492,136.952214
青山四丁目,アオヤマ 4,AOYAMA 4,,35.067453,136.951205
赤松,アカマツ,AKAMATSU,,35.101831,137.01793
旭出一丁目,アサヒデ 1,ASAHIDE 1,,35.085142,136.96535
旭出二丁目,アサヒデ 2,ASAHIDE 2,,35.087032,136.967959
旭出三丁目,アサヒデ 3,ASAHIDE 3,,35.089067,136.970866
有松,アリマツ,ARIMATSU,,35.066532,136.970207
有松三丁山,アリマツサンチョウヤマ,ARIMATSUSANCHOYAMA,,35.064674,136.966888
有松町大字有松,,,,35.064156,136.968766
有松南,アリマツミナミ,ARIMATSUMINAMI,,35.064211,136.964818
池上台一丁目,イケガミダイ 1,IKEGAMIDAI 1,,35.093449,136.963822
池上台二丁目,イケガミダイ 2,IKEGAMIDAI 2,,35.093289,136.967203
池上台三丁目,イケガミダイ 3,IKEGAMIDAI 3,,35.090503,136.9673
姥子山一丁目,ウバコヤマ 1,UBAKOYAMA 1,,35.074438,136.981788
姥子山二丁目,ウバコヤマ 2,UBAKOYAMA 2,,35.072,136.981795
姥子山三丁目,ウバコヤマ 3,UBAKOYAMA 3,,35.06976,136.981934
姥子山四丁目,ウバコヤマ 4,UBAKOYAMA 4,,35.06798,136.982704
姥子山五丁目,ウバコヤマ 5,UBAKOYAMA 5,,35.068911,136.985934
梅里一丁目,ウメサト 1,UMESATO 1,,35.107723,136.989805
梅里二丁目,ウメサト 2,UMESATO 2,,35.105837,136.991716
浦里一丁目,ウラサト 1,URASATO 1,,35.091083,136.944527
浦里二丁目,ウラサト 2,URASATO 2,,35.089858,136.948297
浦里三丁目,ウラサト 3,URASATO 3,,35.085937,136.947208
浦里四丁目,ウラサト 4,URASATO 4,,35.087071,136.943408
浦里五丁目,ウラサト 5,URASATO 5,,35.082638,136.944472
漆山,ウルシヤマ,URUSHIYAMA,,35.070152,136.955662
大形山,オオガタヤマ,OGATAYAMA,,35.0839,136.96874
大清水一丁目,オオシミズ 1,OSHIMIZU 1,,35.08069,136.987827
大清水二丁目,オオシミズ 2,OSHIMIZU 2,,35.080361,136.991118
大清水三丁目,オオシミズ 3,OSHIMIZU 3,,35.077582,136.991751
大清水四丁目,オオシミズ 4,OSHIMIZU 4,,35.075678,136.988128
大清水五丁目,オオシミズ 5,OSHIMIZU 5,,35.074398,136.991223
大清水西,オオシミズニシ,OSHIMIZUNISHI,,35.078345,136.988811
大清水東,オオシミズヒガシ,OSHIMIZUHIGASHI,,35.074102,136.993867
大高台一丁目,オオダカダイ 1,ODAKADAI 1,,35.058115,136.934802
大高台二丁目,オオダカダイ 2,ODAKADAI 2,,35.057798,136.937125
大高台三丁目,オオダカダイ 3,ODAKADAI 3,,35.061201,136.935778
大根山一丁目,オオネヤマ 1,ONEYAMA 1,,35.054256,136.956773
大根山二丁目,オオネヤマ 2,ONEYAMA 2,,35.050924,136.953708
桶狭間上の山,オケハザマウエノヤマ,OKEHAZAMAUENOYAMA,,35.047791,136.971624
桶狭間切戸,オケハザマキリト,OKEHAZAMAKIRITO,,35.046314,136.961159
桶狭間清水山,オケハザマシミズヤマ,OKEHAZAMASHIMIZUYAMA,,35.048498,136.960099
桶狭間南,オケハザマミナミ,OKEHAZAMAMINAMI,,35.044282,136.969344
桶狭間森前,オケハザマモリマエ,OKEHAZAMAMORIMAE,,35.048188,136.964856
尾崎山一丁目,オザキヤマ 1,OZAKIYAMA 1,,35.078092,136.977787
尾崎山二丁目,オザキヤマ 2,OZAKIYAMA 2,,35.076238,136.978438
鏡田,カガミダ,KAGAMIDA,,35.092873,137.013139
篭山一丁目,カゴヤマ 1,KAGOYAMA 1,,35.08489,136.984108
篭山二丁目,カゴヤマ 2,KAGOYAMA 2,,35.08302,136.98399
篭山三丁目,カゴヤマ 3,KAGOYAMA 3,,35.082029,136.984659
鎌倉台一丁目,カマクラダイ 1,KAMAKURADAI 1,,35.076307,136.981828
鎌倉台二丁目,カマクラダイ 2,KAMAKURADAI 2,,35.073186,136.985955
上旭一丁目,カミアサヒ 1,KAMIASAHI 1,,35.092874,136.974426
上旭二丁目,カミアサヒ 2,KAMIASAHI 2,,35.091055,136.973366
神沢一丁目,カミサワ 1,KAMISAWA 1,,35.098362,136.987607
神沢二丁目,カミサワ 2,KAMISAWA 2,,35.09569,136.985869
神沢三丁目,カミサワ 3,KAMISAWA 3,,35.093248,136.984605
神の倉一丁目,カミノクラ 1,KAMINOKURA 1,,35.103257,137.011589
神の倉二丁目,カミノクラ 2,KAMINOKURA 2,,35.103818,137.013355
神の倉三丁目,カミノクラ 3,KAMINOKURA 3,,35.101612,137.013997
神の倉四丁目,カミノクラ 4,KAMINOKURA 4,,35.100141,137.011472
亀が洞一丁目,カメガホラ 1,KAMEGAHORA 1,,35.09524,137.006468
亀が洞二丁目,カメガホラ 2,KAMEGAHORA 2,,35.093141,137.007879
亀が洞三丁目,カメガホラ 3,KAMEGAHORA 3,,35.093819,137.011622
倉坂,クラサカ,KURASAKA,,35.06598,136.949844
黒沢台一丁目,クロサワダイ 1,KUROSAWADAI 1,,35.104787,136.996875
黒沢台二丁目,クロサワダイ 2,KUROSAWADAI 2,,35.101816,136.998296
黒沢台三丁目,クロサワダイ 3,KUROSAWADAI 3,,35.101822,136.994403
黒沢台四丁目,クロサワダイ 4,KUROSAWADAI 4,,35.098385,136.993032
黒沢台五丁目,クロサワダイ 5,KUROSAWADAI 5,,35.098399,136.996333
鴻仏目一丁目,コウブツメ 1,KOBUTSUME 1,,35.081531,136.980788
鴻仏目二丁目,コウブツメ 2,KOBUTSUME 2,,35.080352,136.979749
小坂一丁目,コサカ 1,KOSAKA 1,,35.087357,136.983168
小坂二丁目,コサカ 2,KOSAKA 2,,35.082995,136.979304
古鳴海一丁目,コナルミ 1,KONARUMI 1,,35.09991,136.958486
古鳴海二丁目,コナルミ 2,KONARUMI 2,,35.097673,136.957929
境松一丁目,サカイマツ 1,SAKAIMATSU 1,,35.063363,136.974753
境松二丁目,サカイマツ 2,SAKAIMATSU 2,,35.062365,136.984067
左京山,サキョウヤマ,SAKYOYAMA,,35.069378,136.961273
作の山町,サクノヤマチョウ,SAKUNOYAMACHO,,35.085929,136.959681
潮見が丘一丁目,シオミガオカ 1,SHIOMIGAOKA 1,,35.083516,136.959718
潮見が丘二丁目,シオミガオカ 2,SHIOMIGAOKA 2,,35.083774,136.96234
潮見が丘三丁目,シオミガオカ 3,SHIOMIGAOKA 3,,35.081993,136.965175
鹿山一丁目,シカヤマ 1,SHIKAYAMA 1,,35.088803,136.962945
鹿山二丁目,シカヤマ 2,SHIKAYAMA 2,,35.089669,136.964289
鹿山三丁目,シカヤマ 3,SHIKAYAMA 3,,35.087908,136.965102
篠の風一丁目,シノノカゼ 1,SHINONOKAZE 1,,35.096908,136.97455
篠の風二丁目,シノノカゼ 2,SHINONOKAZE 2,,35.096806,136.979196
篠の風三丁目,シノノカゼ 3,SHINONOKAZE 3,,35.093546,136.979036
四本木,シホンギ,SHIHONGI,,35.070859,136.963284
清水山一丁目,シミズヤマ 1,SHIMIZUYAMA 1,,35.051487,136.959823
定納山一丁目,ジョウノウヤマ 1,JONOYAMA 1,,35.054693,136.934052
定納山二丁目,ジョウノウヤマ 2,JONOYAMA 2,,35.051691,136.933841
白土,シロツチ,SHIROTSUCHI,,35.100752,137.02118
砂田一丁目,スナダ 1,SUNADA 1,,35.079383,136.980458
砂田二丁目,スナダ 2,SUNADA 2,,35.08057,136.984387
曽根一丁目,ソネ 1,SONE 1,,35.076019,136.956373
曽根二丁目,ソネ 2,SONE 2,,35.074079,136.958172
曽根三丁目,ソネ 3,SONE 3,,35.072265,136.964204
太子一丁目,タイシ 1,TAISHI 1,,35.066199,136.976581
太子二丁目,タイシ 2,TAISHI 2,,35.06639,136.979893
太子三丁目,タイシ 3,TAISHI 3,,35.063161,136.977166
大将ケ根一丁目,タイショウガネ 1,TAISHOGANE 1,,35.065314,136.983078
大将ケ根二丁目,タイショウガネ 2,TAISHOGANE 2,,35.063026,136.981037
高根台,タカネダイ,TAKANEDAI,,35.095532,136.973005
滝ノ水一丁目,タキノミズ 1,TAKINOMIZU 1,,35.089944,136.977164
滝ノ水二丁目,タキノミズ 2,TAKINOMIZU 2,,35.089147,136.981161
滝ノ水三丁目,タキノミズ 3,TAKINOMIZU 3,,35.086673,136.977128
滝ノ水四丁目,タキノミズ 4,TAKINOMIZU 4,,35.08353,136.973814
滝ノ水五丁目,タキノミズ 5,TAKINOMIZU 5,,35.087138,136.972047
鶴が沢一丁目,ツルガサワ 1,TSURUGASAWA 1,,35.093023,137.002532
鶴が沢二丁目,ツルガサワ 2,TSURUGASAWA 2,,35.090979,137.006554
鶴が沢三丁目,ツルガサワ 3,TSURUGASAWA 3,,35.09013,137.009452
徳重一丁目,トクシゲ 1,TOKUSHIGE 1,,35.091346,136.998965
徳重二丁目,トクシゲ 2,TOKUSHIGE 2,,35.089296,137.000914
徳重三丁目,トクシゲ 3,TOKUSHIGE 3,,35.088618,137.004047
徳重四丁目,トクシゲ 4,TOKUSHIGE 4,,35.086387,137.002355
徳重五丁目,トクシゲ 5,TOKUSHIGE 5,,35.089059,136.995894
鳥澄一丁目,トリスミ 1,TORISUMI 1,,35.079438,136.975241
鳥澄二丁目,トリスミ 2,TORISUMI 2,,35.077787,136.973679
鳥澄三丁目,トリスミ 3,TORISUMI 3,,35.075412,136.975166
長根町,ナガネチョウ,NAGANECHO,,35.096694,136.961783
鳴丘一丁目,ナルオカ 1,NARUOKA 1,,35.093609,136.989853
鳴丘二丁目,ナルオカ 2,NARUOKA 2,,35.090928,136.988543
鳴丘三丁目,ナルオカ 3,NARUOKA 3,,35.089359,136.985555
鳴子町一丁目,ナルコチョウ 1,NARUKOCHO 1,,35.097602,136.964512
鳴子町二丁目,ナルコチョウ 2,NARUKOCHO 2,,35.099626,136.965375
鳴子町三丁目,ナルコチョウ 3,NARUKOCHO 3,,35.099515,136.969572
鳴子町四丁目,ナルコチョウ 4,NARUKOCHO 4,,35.096651,136.969963
鳴子町五丁目,ナルコチョウ 5,NARUKOCHO 5,,35.098828,136.973272
鳴海町,ナルミチョウ,NARUMICHO ,,35.086478,136.953366
南陵,ナンリョウ,NANRYO,,35.047411,136.967565
西神の倉一丁目,ニシカミノクラ 1,NISHIKAMINOKURA 1,,35.100726,137.004003
西神の倉二丁目,ニシカミノクラ 2,NISHIKAMINOKURA 2,,35.102465,137.005486
野末町,ノズエチョウ,NOZUECHO,,35.041814,136.962517
乗鞍一丁目,ノリクラ 1,NORIKURA 1,,35.095033,136.993238
乗鞍二丁目,ノリクラ 2,NORIKURA 2,,35.0932,136.996806
乗鞍三丁目,ノリクラ 3,NORIKURA 3,,35.089388,136.993312
東神の倉一丁目,ヒガシカミノクラ 1,HIGASHIKAMINOKURA 1,,35.106086,137.01478
東神の倉二丁目,ヒガシカミノクラ 2,HIGASHIKAMINOKURA 2,,35.107543,137.018978
東神の倉三丁目,ヒガシカミノクラ 3,HIGASHIKAMINOKURA 3,,35.104367,137.020186
久方二丁目,ヒサカタ 2,HISAKATA 2,,35.104313,136.984453
久方三丁目,ヒサカタ 3,HISAKATA 3,,35.103431,136.982869
兵庫一丁目,ヒョウゴ 1,HYOGO 1,,35.097151,137.011221
兵庫二丁目,ヒョウゴ 2,HYOGO 2,,35.095316,137.014205
平子が丘,ヒラコガオカ,HIRAKOGAOKA,,35.073723,136.9645
平手北一丁目,ヒラテキタ 1,HIRATEKITA 1,,35.084519,136.98816
平手北二丁目,ヒラテキタ 2,HIRATEKITA 2,,35.086513,136.991414
平手南一丁目,ヒラテミナミ 1,HIRATEMINAMI 1,,35.08332,136.989129
平手南二丁目,ヒラテミナミ 2,HIRATEMINAMI 2,,35.085616,136.993375
藤塚一丁目,フジヅカ 1,FUJIZUKA 1,,35.097413,137.015044
藤塚二丁目,フジヅカ 2,FUJIZUKA 2,,35.099475,137.016423
藤塚三丁目,フジヅカ 3,FUJIZUKA 3,,35.095362,137.01963
文久山,ブンキュウヤマ,BUNKYUYAMA,,35.054631,136.960373
細口一丁目,ホソグチ 1,HOSOGUCHI 1,,35.086667,136.986321
細口二丁目,ホソグチ 2,HOSOGUCHI 2,,35.087327,136.988827
細口三丁目,ホソグチ 3,HOSOGUCHI 3,,35.088871,136.988753
ほら貝一丁目,ホラガイ 1,HORAGAI 1,,35.100818,136.979288
ほら貝二丁目,ホラガイ 2,HORAGAI 2,,35.101125,136.98431
ほら貝三丁目,ホラガイ 3,HORAGAI 3,,35.0985,136.982677
松が根台,マツガネダイ,MATSUGANEDAI,,35.093554,136.953594
万場山一丁目,マンバヤマ 1,MAMBAYAMA 1,,35.094379,136.970431
万場山二丁目,マンバヤマ 2,MAMBAYAMA 2,,35.091021,136.970739
水広一丁目,ミズヒロ 1,MIZUHIRO 1,,35.082016,136.993845
水広二丁目,ミズヒロ 2,MIZUHIRO 2,,35.078928,136.996743
水広三丁目,ミズヒロ 3,MIZUHIRO 3,,35.077685,136.994953
桃山一丁目,モモヤマ 1,MOMOYAMA 1,,35.105372,136.987942
桃山二丁目,モモヤマ 2,MOMOYAMA 2,,35.103405,136.990922
桃山三丁目,モモヤマ 3,MOMOYAMA 3,,35.099773,136.989902
桃山四丁目,モモヤマ 4,MOMOYAMA 4,,35.102845,136.985875
森の里一丁目,モリノサト 1,MORINOSATO 1,,35.062286,136.942071
森の里二丁目,モリノサト 2,MORINOSATO 2,,35.061862,136.93948
諸の木一丁目,モロノキ 1,MORONOKI 1,,35.082297,137.006709
八つ松一丁目,ヤツマツ 1,YATSUMATSU 1,,35.07717,136.985696
八つ松二丁目,ヤツマツ 2,YATSUMATSU 2,,35.076317,136.984259
横吹町,ヨコブキチョウ,YOKOBUKICHO,,35.085218,136.994972
六田一丁目,ロクデン 1,ROKUDEN 1,,35.078023,136.957426
六田二丁目,ロクデン 2,ROKUDEN 2,,35.078808,136.962611
若田一丁目,ワカタ 1,WAKATA 1,,35.076542,136.963409
若田二丁目,ワカタ 2,WAKATA 2,,35.077721,136.968384
若田三丁目,ワカタ 3,WAKATA 3,,35.075683,136.967585
茨谷山,イバラダニヤマ,IBARADANIYAMA,,35.050266,136.943007
清水山二丁目,シミズヤマ 2,SHIMIZUYAMA 2,,35.048095,136.954294
大高町,オオダカチョウ,ODAKACHO,,35.058498,136.948783
南大高一丁目,ミナミオオダカ 1,MINAMIODAKA 1,,35.057544,136.944237
南大高二丁目,ミナミオオダカ 2,MINAMIODAKA 2,,35.053516,136.947185
高根山一丁目,タカネヤマ 1,TAKANEYAMA 1,,35.046181,136.946117
高根山二丁目,タカネヤマ 2,TAKANEYAMA 2,,35.045663,136.949604
別所山,ベッショヤマ,BESSHOYAMA,,35.049059,136.94556
忠治山,チュウジヤマ,CHUJIYAMA,,35.049024,136.949158
南大高三丁目,ミナミオオダカ 3,MINAMIODAKA 3,,35.052982,136.943923
南大高四丁目,ミナミオオダカ 4,MINAMIODAKA 4,,35.054999,136.941111
緑花台,リョッカダイ,RYOKKADAI,,35.058422,136.962264
武路町,タケジチョウ,TAKEJICHO,,35.059953,136.972011
桶狭間,オケハザマ,OKEHAZAMA,,35.05178,136.972318
桶狭間北三丁目,オケハザマキタ 3,OKEHAZAMAKITA 3,,35.054769,136.971402
有松愛宕,アリマツアタゴ,ARIMATSUATAGO,,35.060781,136.964521
桶狭間神明,オケハザマシンメイ,OKEHAZAMASHIMMEI,,35.05331,136.964815
有松町大字桶狭間,,,,35.062877,136.969654
桶狭間西,オケハザマニシ,OKEHAZAMANISHI,,35.058241,136.966012
桶狭間北二丁目,オケハザマキタ 2,OKEHAZAMAKITA 2,,35.057523,136.971533
桶狭間巻山,オケハザママキヤマ,OKEHAZAMAMAKIYAMA,,35.056021,136.968394
有松幕山,アリマツマクヤマ,ARIMATSUMAKUYAMA,,35.060146,136.968381
熊の前一丁目,クマノマエ 1,KUMANOMAE 1,,35.097166,137.004635
熊の前二丁目,クマノマエ 2,KUMANOMAE 2,,35.098658,137.007449
元徳重一丁目,モトトクシゲ 1,MOTOTOKUSHIGE 1,,35.095569,137.001002
元徳重二丁目,モトトクシゲ 2,MOTOTOKUSHIGE 2,,35.097954,137.002021
諸の木三丁目,モロノキ 3,MORONOKI 3,,35.077218,137.000956
諸の木二丁目,モロノキ 2,MORONOKI 2,,35.078694,137.005789
