name,name_kana,name_romaji,nickname,latitude,longitude
上り戸一丁目,アガリド 1,AGARIDO 1,,34.955687,136.875098
上り戸二丁目,アガリド 2,AGARIDO 2,,34.955948,136.878483
上り戸三丁目,アガリド 3,AGARIDO 3,,34.955303,136.882471
上り戸四丁目,アガリド 4,AGARIDO 4,,34.95312,136.878108
朝倉町,アサクラマチ,ASAKURAMACHI,,34.99144,136.867752
旭一丁目,アサヒ 1,ASAHI 1,,34.955721,136.8417
旭二丁目,アサヒ 2,ASAHI 2,,34.95517,136.846354
旭三丁目,アサヒ 3,ASAHI 3,,34.953928,136.84421
旭四丁目,アサヒ 4,ASAHI 4,,34.953866,136.839666
旭五丁目,アサヒ 5,ASAHI 5,,34.952203,136.838568
旭六丁目,アサヒ 6,ASAHI 6,,34.951375,136.84418
阿原一丁目,アワラ 1,AWARA 1,,34.984106,136.880184
阿原二丁目,アワラ 2,AWARA 2,,34.982424,136.880553
伊賀坂一丁目,イガサカ 1,IGASAKA 1,,34.985386,136.886633
伊賀坂二丁目,イガサカ 2,IGASAKA 2,,34.987848,136.88935
伊賀坂三丁目,イガサカ 3,IGASAKA 3,,34.984343,136.889938
梅が丘一丁目,ウメガオカ 1,UMEGAOKA 1,,34.97269,136.875515
梅が丘二丁目,ウメガオカ 2,UMEGAOKA 2,,34.971315,136.879663
大草,オオクサ,OKUSA,,34.944028,136.829465
大僧一丁目,オオソウ 1,OSO 1,,34.944701,136.86444
大僧二丁目,オオソウ 2,OSO 2,,34.944504,136.869992
大僧三丁目,オオソウ 3,OSO 3,,34.942323,136.870263
大僧四丁目,オオソウ 4,OSO 4,,34.942576,136.865231
岡田,オカダ,OKADA,,34.965909,136.871035
岡田美里町,オカダミサトマチ,OKADAMISATOMACHI,,34.967803,136.854063
岡田緑が丘,オカダミドリガオカ,OKADAMIDORIGAOKA,,34.970896,136.865642
笠松一丁目,1,1,,34.986656,136.892621
笠松二丁目,2,2,,34.986059,136.895238
笠松三丁目,3,3,,34.982451,136.894035
金沢,カナザワ,KANAZAWA,,34.948206,136.843074
鎌が谷一丁目,1,1,,34.981169,136.896182
鎌が谷二丁目,2,2,,34.979799,136.901188
神田一丁目,カンダ 1,KANDA 1,,34.946117,136.841909
神田二丁目,カンダ 2,KANDA 2,,34.943102,136.846123
神田三丁目,カンダ 3,KANDA 3,,34.941634,136.847959
神田四丁目,カンダ 4,KANDA 4,,34.939909,136.848128
北浜町,キタハママチ,KITAHAMAMACHI,,34.996736,136.853962
旭桃台,キョクトウダイ,KYOKUTODAI,,34.952968,136.856532
旭南一丁目,キョクナン 1,KYOKUNAN 1,,34.948757,136.835966
旭南二丁目,キョクナン 2,KYOKUNAN 2,,34.947509,136.83387
旭南三丁目,キョクナン 3,KYOKUNAN 3,,34.94536,136.836906
旭南四丁目,キョクナン 4,KYOKUNAN 4,,34.942347,136.836413
旭南五丁目,キョクナン 5,KYOKUNAN 5,,34.942413,136.833477
旭南六丁目,キョクナン 6,KYOKUNAN 6,,34.93887,136.831401
こうの巣一丁目,1,1,,34.976964,136.892064
こうの巣二丁目,2,2,,34.9731,136.895372
三反田一丁目,サンタンダ 1,SANTANDA 1,,34.978689,136.893157
三反田二丁目,サンタンダ 2,SANTANDA 2,,34.98038,136.89308
三反田三丁目,サンタンダ 3,SANTANDA 3,,34.976186,136.897473
清水が丘二丁目,シミズガオカ 2,SHIMIZUGAOKA 2,,34.988961,136.874831
新刀池一丁目,シンカタナイケ 1,SHINKATANAIKE 1,,34.948686,136.868319
新刀池二丁目,シンカタナイケ 2,SHINKATANAIKE 2,,34.948332,136.871172
新知,シンチ,SHINCHI,,34.979242,136.858701
新知台一丁目,シンチダイ 1,SHINCHIDAI 1,,34.986108,136.863284
新知台二丁目,シンチダイ 2,SHINCHIDAI 2,,34.983039,136.867198
新知西町,シンチニシマチ,SHINCHINISHIMACHI,,34.985388,136.862337
新知東町一丁目,シンチヒガシマチ 1,SHINCHIHIGASHIMACHI 1,,34.982055,136.864996
新知東町二丁目,シンチヒガシマチ 2,SHINCHIHIGASHIMACHI 2,,34.97898,136.866681
新知東町三丁目,シンチヒガシマチ 3,SHINCHIHIGASHIMACHI 3,,34.976271,136.869695
新長根一丁目,シンナガネ 1,SHINNAGANE 1,,34.95559,136.86467
新長根二丁目,シンナガネ 2,SHINNAGANE 2,,34.953714,136.866906
新長根三丁目,シンナガネ 3,SHINNAGANE 3,,34.95311,136.864099
新広見,シンヒロミ,SHINHIROMI,,34.949891,136.856354
新舞子,シンマイコ,SHIMMAIKO,,34.954501,136.830812
新舞子東町一丁目,シンマイコヒガシマチ 1,SHIMMAIKOHIGASHIMACHI 1,,34.954265,136.835882
新舞子東町二丁目,シンマイコヒガシマチ 2,SHIMMAIKOHIGASHIMACHI 2,,34.95211,136.834212
佐布里,ソウリ,SORI,,34.967539,136.884138
佐布里台一丁目,ソウリダイ 1,SORIDAI 1,,34.970098,136.886737
佐布里台二丁目,ソウリダイ 2,SORIDAI 2,,34.969807,136.890265
佐布里台三丁目,ソウリダイ 3,SORIDAI 3,,34.966353,136.887322
大興寺,ダイコウジ,DAIKOJI,,34.944396,136.857771
巽が丘一丁目,タツミガオカ 1,TATSUMIGAOKA 1,,34.963361,136.911041
巽が丘二丁目,タツミガオカ 2,TATSUMIGAOKA 2,,34.963713,136.913739
巽が丘三丁目,タツミガオカ 3,TATSUMIGAOKA 3,,34.963973,136.916291
巽が丘四丁目,タツミガオカ 4,TATSUMIGAOKA 4,,34.961547,136.91311
つつじが丘一丁目,ツツジガオカ 1,TSUTSUJIGAOKA 1,,34.987333,136.870591
つつじが丘二丁目,ツツジガオカ 2,TSUTSUJIGAOKA 2,,34.985722,136.874422
つつじが丘三丁目,ツツジガオカ 3,TSUTSUJIGAOKA 3,,34.982889,136.872894
つつじが丘四丁目,ツツジガオカ 4,TSUTSUJIGAOKA 4,,34.985524,136.867737
寺本新町一丁目,テラモトシンマチ 1,TERAMOTOSHIMMACHI 1,,34.996034,136.877097
寺本新町二丁目,テラモトシンマチ 2,TERAMOTOSHIMMACHI 2,,35.000586,136.880794
寺本台一丁目,テラモトダイ 1,TERAMOTODAI 1,,34.995542,136.883704
寺本台二丁目,テラモトダイ 2,TERAMOTODAI 2,,34.99197,136.883512
寺本台三丁目,テラモトダイ 3,TERAMOTODAI 3,,34.989297,136.883637
寺本台四丁目,テラモトダイ 4,TERAMOTODAI 4,,34.988174,136.884987
長浦一丁目,ナガウラ 1,NAGAURA 1,,34.97951,136.849139
長浦二丁目,ナガウラ 2,NAGAURA 2,,34.975803,136.850536
長浦三丁目,ナガウラ 3,NAGAURA 3,,34.975978,136.846662
中原一丁目,ナカハラ 1,NAKAHARA 1,,34.949629,136.860994
中原二丁目,ナカハラ 2,NAKAHARA 2,,34.950392,136.865116
中原三丁目,ナカハラ 3,NAKAHARA 3,,34.947238,136.865057
中原四丁目,ナカハラ 4,NAKAHARA 4,,34.947372,136.859796
西巽が丘一丁目,ニシタツミガオカ 1,NISHITATSUMIGAOKA 1,,34.964019,136.90718
西巽が丘二丁目,ニシタツミガオカ 2,NISHITATSUMIGAOKA 2,,34.961131,136.906261
西巽が丘三丁目,ニシタツミガオカ 3,NISHITATSUMIGAOKA 3,,34.959199,136.906282
にしの台一丁目,ニシノダイ 1,NISHINODAI 1,,34.981809,136.877512
にしの台二丁目,ニシノダイ 2,NISHINODAI 2,,34.97658,136.875273
にしの台三丁目,ニシノダイ 3,NISHINODAI 3,,34.974458,136.872688
にしの台四丁目,ニシノダイ 4,NISHINODAI 4,,34.979738,136.871962
原一丁目,ハラ 1,HARA 1,,34.976199,136.908146
原二丁目,ハラ 2,HARA 2,,34.973383,136.909859
東大僧一丁目,ヒガシオオソウ 1,HIGASHIOSO 1,,34.950374,136.876675
東大僧二丁目,ヒガシオオソウ 2,HIGASHIOSO 2,,34.947444,136.878157
東大僧三丁目,ヒガシオオソウ 3,HIGASHIOSO 3,,34.943379,136.875427
日長,ヒナガ,HINAGA,,34.964663,136.842811
日長台,ヒナガダイ,HINAGADAI,,34.955198,136.852439
日長東田一丁目,1,1,,34.96599,136.850135
日長東田二丁目,2,2,,34.967232,136.848744
日長東田三丁目,3,3,,34.966805,136.84519
平野一丁目,ヒラノ 1,HIRANO 1,,34.999078,136.881214
平野二丁目,ヒラノ 2,HIRANO 2,,34.998365,136.882949
平野三丁目,ヒラノ 3,HIRANO 3,,34.997187,136.885158
吹込一丁目,フキコミ 1,FUKIKOMI 1,,34.959284,136.867196
吹込二丁目,フキコミ 2,FUKIKOMI 2,,34.958564,136.870208
吹込三丁目,フキコミ 3,FUKIKOMI 3,,34.959083,136.87306
吹込四丁目,フキコミ 4,FUKIKOMI 4,,34.956422,136.87128
吹込五丁目,フキコミ 5,FUKIKOMI 5,,34.956637,136.866606
馬背口一丁目,1,1,,34.982567,136.884995
馬背口二丁目,2,2,,34.979834,136.888563
馬背口三丁目,3,3,,34.977758,136.887623
緑浜町,,,,34.957678,136.819
緑町,ミドリマチ,MIDORIMACHI,,34.997415,136.865442
南粕谷一丁目,ミナミカスヤ 1,MINAMIKASUYA 1,,34.935399,136.850313
南粕谷二丁目,ミナミカスヤ 2,MINAMIKASUYA 2,,34.934233,136.852526
南粕谷三丁目,ミナミカスヤ 3,MINAMIKASUYA 3,,34.939185,136.851864
南粕谷四丁目,ミナミカスヤ 4,MINAMIKASUYA 4,,34.937941,136.854441
南粕谷新海一丁目,ミナミカスヤシンカイ 1,MINAMIKASUYASHINKAI 1,,34.939877,136.838157
南粕谷新海二丁目,ミナミカスヤシンカイ 2,MINAMIKASUYASHINKAI 2,,34.936635,136.842398
南粕谷新海三丁目,ミナミカスヤシンカイ 3,MINAMIKASUYASHINKAI 3,,34.937382,136.838641
南粕谷新海四丁目,ミナミカスヤシンカイ 4,MINAMIKASUYASHINKAI 4,,34.938108,136.834954
南粕谷東坂一丁目,ミナミカスヤヒガシザカ 1,MINAMIKASUYAHIGASHIZAKA 1,,34.935848,136.856538
南粕谷東坂二丁目,ミナミカスヤヒガシザカ 2,MINAMIKASUYAHIGASHIZAKA 2,,34.938291,136.859333
南粕谷本町一丁目,ミナミカスヤホンマチ 1,MINAMIKASUYAHOMMACHI 1,,34.940072,136.842134
南粕谷本町二丁目,ミナミカスヤホンマチ 2,MINAMIKASUYAHOMMACHI 2,,34.939846,136.845069
南粕谷本町三丁目,ミナミカスヤホンマチ 3,MINAMIKASUYAHOMMACHI 3,,34.937063,136.848886
南粕谷本町四丁目,ミナミカスヤホンマチ 4,MINAMIKASUYAHOMMACHI 4,,34.936372,136.846106
南粕谷本町五丁目,ミナミカスヤホンマチ 5,MINAMIKASUYAHOMMACHI 5,,34.933764,136.846459
南巽が丘一丁目,ミナミタツミガオカ 1,MINAMITATSUMIGAOKA 1,,34.961524,136.908993
南巽が丘二丁目,ミナミタツミガオカ 2,MINAMITATSUMIGAOKA 2,,34.96053,136.911071
南巽が丘三丁目,ミナミタツミガオカ 3,MINAMITATSUMIGAOKA 3,,34.959862,136.908826
南巽が丘四丁目,ミナミタツミガオカ 4,MINAMITATSUMIGAOKA 4,,34.958749,136.909472
南谷一丁目,ミナミダニ 1,MINAMIDANI 1,,34.96244,136.863121
南谷二丁目,ミナミダニ 2,MINAMIDANI 2,,34.963391,136.860414
南谷三丁目,ミナミダニ 3,MINAMIDANI 3,,34.959582,136.860903
南谷四丁目,ミナミダニ 4,MINAMIDANI 4,,34.957258,136.861237
南浜町,ミナミハママチ,MINAMIHAMAMACHI,,34.973987,136.835357
社山一丁目,1,1,,34.99511,136.891608
社山二丁目,2,2,,34.991798,136.892176
柳花一丁目,1,1,,34.992714,136.88572
柳花二丁目,2,2,,34.996857,136.887836
柳花三丁目,3,3,,34.991302,136.888769
山屋敷一丁目,ヤマヤシキ 1,YAMAYASHIKI 1,,34.953532,136.868717
山屋敷二丁目,ヤマヤシキ 2,YAMAYASHIKI 2,,34.95371,136.872045
山屋敷三丁目,ヤマヤシキ 3,YAMAYASHIKI 3,,34.952724,136.875469
八幡新町二丁目,ヤワタシンマチ 2,YAWATASHIMMACHI 2,,34.991498,136.872274
八幡新町三丁目,ヤワタシンマチ 3,YAWATASHIMMACHI 3,,34.989545,136.871167
八幡新町一丁目,ヤワタシンマチ 1,YAWATASHIMMACHI 1,,34.993897,136.868448
清水が丘一丁目,シミズガオカ 1,SHIMIZUGAOKA 1,,34.991559,136.876702
八幡,ヤワタ,YAWATA,,34.993423,136.872817
東七曲,,,,34.971648,136.901659
