name,name_kana,name_romaji,nickname,latitude,longitude
中川運河,,,,35.133953,136.8768
富田町大字万場,,,,35.153849,136.835894
富田町大字伏屋,,,,35.142164,136.832687
富田町大字供米田,,,,35.131167,136.811475
富田町大字前田,,,,35.138916,136.834253
富田町大字包里,,,,35.127441,136.813499
富田町大字千音寺,,,,35.160588,136.809918
富田町大字千音寺,,,一本松,35.166519,136.810415
富田町大字千音寺,,,三ノ坪,35.15699,136.816345
富田町大字千音寺,,,三角,35.167611,136.809557
富田町大字千音寺,,,上之坪,35.165573,136.807367
富田町大字千音寺,,,上屋敷,35.162774,136.813293
富田町大字千音寺,,,上川西,35.164407,136.804076
富田町大字千音寺,,,下前田畔,35.163788,136.805312
富田町大字千音寺,,,下川西,35.162359,136.802722
富田町大字千音寺,,,中地,35.1624,136.809658
富田町大字千音寺,,,中屋敷,35.160703,136.814215
富田町大字千音寺,,,中狭間,35.162611,136.806649
富田町大字千音寺,,,佛供田,35.158283,136.810635
富田町大字千音寺,,,供木,35.161128,136.816963
富田町大字千音寺,,,六供,35.166923,136.807834
富田町大字千音寺,,,十六割,35.155473,136.814528
富田町大字千音寺,,,南屋敷,35.160368,136.812289
富田町大字千音寺,,,南島,35.155319,136.812455
富田町大字千音寺,,,向江,35.154304,136.811416
富田町大字千音寺,,,土坪,35.15845,136.814526
富田町大字千音寺,,,川原田,35.16047,136.80392
富田町大字千音寺,,,市場上屋敷,35.160902,136.815609
富田町大字千音寺,,,市場下屋敷,35.159217,136.814811
富田町大字千音寺,,,平毛,35.165086,136.811264
富田町大字千音寺,,,東五反田,35.161328,136.811728
富田町大字千音寺,,,東六反畑,35.163737,136.817909
富田町大字千音寺,,,東尼ケ塚,35.166448,136.81239
富田町大字千音寺,,,東屋敷,35.162727,136.814659
富田町大字千音寺,,,東川岸塚,35.161006,136.808825
富田町大字千音寺,,,東福正,35.154582,136.816622
富田町大字千音寺,,,松ノ木,35.156238,136.810085
富田町大字千音寺,,,桜木,35.161888,136.803836
富田町大字千音寺,,,烏帽子,35.167366,136.80741
富田町大字千音寺,,,狭間,35.159257,136.816725
富田町大字千音寺,,,猪ノ木,35.163909,136.807354
富田町大字千音寺,,,甚目寺田,35.160823,136.806987
富田町大字千音寺,,,稲屋,35.165067,136.814298
富田町大字千音寺,,,粉諸,35.164399,136.811817
富田町大字千音寺,,,西五反田,35.160721,136.810348
富田町大字千音寺,,,西六反畑,35.163445,136.814953
富田町大字千音寺,,,西尼ケ塚,35.167579,136.811234
富田町大字千音寺,,,西屋敷,35.161313,136.812454
富田町大字千音寺,,,西川岸塚,35.161422,136.80736
富田町大字千音寺,,,西福正,35.154422,136.814456
富田町大字千音寺,,,諸桑,35.155235,136.810752
富田町大字千音寺,,,赤星裏,35.158795,136.815624
富田町大字千音寺,,,郷東,35.162193,136.816162
富田町大字千音寺,,,間渡里,35.158647,136.813005
富田町大字戸田,,,,35.147846,136.812067
富田町大字春田,,,,35.145967,136.811211
富田町大字服部,,,,35.152929,136.811946
富田町大字榎津,,,,35.134663,136.823194
富田町大字榎津,,,布部田,35.137413,136.819319
富田町大字榎津,,,郷中,35.136223,136.82345
富田町大字江松,,,,35.126187,136.824334
富田町大字長須賀,,,,35.147916,136.828231
富田町大字長須賀,,,東出,35.145105,136.828604
尾頭橋通一丁目, 1, 1,,35.14222,136.895422
愛知町,アイチチョウ,AICHICHO,,35.154072,136.876174
熱田新田東組,アツタシンデンヒガシグミ,ATSUTASHINDENHIGASHIGUMI,,35.122146,136.878838
荒江町,アラエチョウ,ARAECHO,,35.142888,136.885887
荒子一丁目,アラコ 1,ARAKO 1,,35.141895,136.858825
荒子二丁目,アラコ 2,ARAKO 2,,35.138367,136.859018
荒子四丁目,アラコ 4,ARAKO 4,,35.134712,136.855602
荒子五丁目,アラコ 5,ARAKO 5,,35.133008,136.855342
荒越町一丁目,アラコシチョウ 1,ARAKOSHICHO 1,,35.134897,136.884192
荒越町二丁目,アラコシチョウ 2,ARAKOSHICHO 2,,35.133119,136.88333
荒越町三丁目,アラコシチョウ 3,ARAKOSHICHO 3,,35.133241,136.884641
荒子町,アラコチョウ,ARAKOCHO,,35.134436,136.858561
荒子町,アラコチョウ,ARAKOCHO,亭方西,35.133518,136.856093
荒子町,アラコチョウ,ARAKOCHO,六田池,35.136409,136.855059
荒子町,アラコチョウ,ARAKOCHO,地蔵前,35.13409,136.858657
荒子町,アラコチョウ,ARAKOCHO,塔堂屋敷,35.136884,136.855499
荒子町,アラコチョウ,ARAKOCHO,大和ケ池,35.135804,136.856179
荒子町,アラコチョウ,ARAKOCHO,大門東,35.135191,136.860204
荒子町,アラコチョウ,ARAKOCHO,大門西,35.135127,136.85796
荒子町,アラコチョウ,ARAKOCHO,宮窓,35.136632,136.860377
荒子町,アラコチョウ,ARAKOCHO,小城,35.136526,136.860819
荒子町,アラコチョウ,ARAKOCHO,念仏池,35.133034,136.856685
荒中町,アラナカチョウ,ARANAKACHO,,35.134084,136.852565
一色新町一丁目,イシキシンマチ 1,ISHIKISHIMMACHI 1,,35.129017,136.831071
一色新町二丁目,イシキシンマチ 2,ISHIKISHIMMACHI 2,,35.129846,136.827496
一色新町三丁目,イシキシンマチ 3,ISHIKISHIMMACHI 3,,35.126862,136.827653
石場町一丁目,イシバチョウ 1,ISHIBACHO 1,,35.148769,136.883989
石場町二丁目,イシバチョウ 2,ISHIBACHO 2,,35.148045,136.883515
石場町三丁目,イシバチョウ 3,ISHIBACHO 3,,35.147255,136.883759
石場町四丁目,イシバチョウ 4,ISHIBACHO 4,,35.146457,136.883582
一柳通一丁目,イチヤナギドオリ 1,ICHIYANAGIDORI 1,,35.145669,136.847
一柳通二丁目,イチヤナギドオリ 2,ICHIYANAGIDORI 2,,35.145016,136.845401
岩塚町,イワツカチョウ,IWATSUKACHO,,35.148262,136.851228
牛立町一丁目,ウシダテチョウ 1,USHIDATECHO 1,,35.139551,136.885234
牛立町二丁目,ウシダテチョウ 2,USHIDATECHO 2,,35.138871,136.883125
牛立町三丁目,ウシダテチョウ 3,USHIDATECHO 3,,35.137653,136.884996
牛立町四丁目,ウシダテチョウ 4,USHIDATECHO 4,,35.137362,136.88315
牛立町五丁目,ウシダテチョウ 5,USHIDATECHO 5,,35.136212,136.884811
打出一丁目,ウチデ 1,UCHIDE 1,,35.138532,136.841239
打出二丁目,ウチデ 2,UCHIDE 2,,35.134619,136.840551
打出町,ウチデチョウ,UCHIDECHO,,35.13193,136.841139
打出本町七丁目,ウチデホンマチ 7,UCHIDEHOMMACHI 7,,35.132172,136.842183
打中一丁目,ウチナカ 1,UCHINAKA 1,,35.138578,136.843527
打中二丁目,ウチナカ 2,UCHINAKA 2,,35.134565,136.843507
馬手町一丁目,ウマテチョウ 1,UMATECHO 1,,35.130382,136.864752
馬手町二丁目,ウマテチョウ 2,UMATECHO 2,,35.128739,136.865009
馬手町三丁目,ウマテチョウ 3,UMATECHO 3,,35.127524,136.865224
運河町,ウンガチョウ,UNGACHO,,35.159582,136.885099
運河通一丁目,ウンガトオリ 1,UNGATORI 1,,35.158679,136.8852
榎津西町,エノキヅニシマチ,ENOKIZUNISHIMACHI,,35.13475,136.819445
榎松町,エノキマツチョウ,ENOKIMATSUCHO,,35.132504,136.818648
江松一丁目,エマツ 1,EMATSU 1,,35.12988,136.822483
江松二丁目,エマツ 2,EMATSU 2,,35.127824,136.821795
江松三丁目,エマツ 3,EMATSU 3,,35.123105,136.824709
江松四丁目,エマツ 4,EMATSU 4,,35.120165,136.826139
江松五丁目,エマツ 5,EMATSU 5,,35.123128,136.822461
江松西町,エマツニシマチ,EMATSUNISHIMACHI,,35.12866,136.819174
笈瀬町一丁目,オイセチョウ 1,OISECHO 1,,35.150896,136.881922
笈瀬町二丁目,オイセチョウ 2,OISECHO 2,,35.149602,136.881185
応仁町一丁目,オウジンチョウ 1,OJINCHO 1,,35.13872,136.881287
応仁町二丁目,オウジンチョウ 2,OJINCHO 2,,35.137286,136.881618
大塩町一丁目,オオシオチョウ 1,OSHIOCHO 1,,35.130746,136.860441
大塩町二丁目,オオシオチョウ 2,OSHIOCHO 2,,35.129558,136.860749
大塩町三丁目,オオシオチョウ 3,OSHIOCHO 3,,35.128564,136.860462
大畑町一丁目,オオハタチョウ 1,OHATACHO 1,,35.132793,136.867029
大畑町二丁目,オオハタチョウ 2,OHATACHO 2,,35.130437,136.867311
大山町,オオヤマチョウ,OYAMACHO,,35.130018,136.878932
押元町一丁目,オシモトチョウ 1,OSHIMOTOCHO 1,,35.139493,136.866176
押元町二丁目,オシモトチョウ 2,OSHIMOTOCHO 2,,35.138881,136.868098
尾頭橋一丁目,オトウバシ 1,OTOBASHI 1,,35.144159,136.894215
尾頭橋二丁目,オトウバシ 2,OTOBASHI 2,,35.143382,136.889666
尾頭橋三丁目,オトウバシ 3,OTOBASHI 3,,35.145061,136.890372
尾頭橋四丁目,オトウバシ 4,OTOBASHI 4,,35.148106,136.889315
小本一丁目,オモトチョウ 1,OMOTOCHO 1,,35.148517,136.862385
小本二丁目,オモトチョウ 2,OMOTOCHO 2,,35.144935,136.863068
小本三丁目,オモトチョウ 3,OMOTOCHO 3,,35.144812,136.861095
開平町一丁目,カイヘイチョウ 1,KAIHEICHO 1,,35.146108,136.846571
開平町二丁目,カイヘイチョウ 2,KAIHEICHO 2,,35.145512,136.845093
掛入町一丁目,カケイリチョウ 1,KAKEIRICHO 1,,35.127605,136.862753
掛入町二丁目,カケイリチョウ 2,KAKEIRICHO 2,,35.126568,136.862411
掛入町三丁目,カケイリチョウ 3,KAKEIRICHO 3,,35.125566,136.862491
烏森町,カスモリチョウ,KASUMORICHO,,35.151146,136.862239
烏森町,カスモリチョウ,KASUMORICHO,四反畑,35.151469,136.862584
烏森町,カスモリチョウ,KASUMORICHO,蓮池,35.150667,136.862143
かの里一丁目,カノサト 1,KANOSATO 1,,35.1324,136.814006
かの里二丁目,カノサト 2,KANOSATO 2,,35.128308,136.817
かの里三丁目,カノサト 3,KANOSATO 3,,35.12847,136.814983
上高畑一丁目,カミタカバタ 1,KAMITAKABATA 1,,35.144319,136.858302
上高畑二丁目,カミタカバタ 2,KAMITAKABATA 2,,35.144589,136.854667
上流町一丁目,カミナガレチョウ 1,KAMINAGARECHO 1,,35.133678,136.863957
上流町二丁目,カミナガレチョウ 2,KAMINAGARECHO 2,,35.132316,136.864541
上脇町一丁目,カミワキチョウ 1,KAMIWAKICHO 1,,35.137424,136.872476
上脇町二丁目,カミワキチョウ 2,KAMIWAKICHO 2,,35.135798,136.872368
川前町,カワマエチョウ,KAWAMAECHO,,35.145187,136.836896
北江町一丁目,キタエチョウ 1,KITAECHO 1,,35.126172,136.86802
北江町二丁目,キタエチョウ 2,KITAECHO 2,,35.126157,136.867068
北江町三丁目,キタエチョウ 3,KITAECHO 3,,35.126169,136.865176
清川町一丁目,キヨカワチョウ 1,KIYOKAWACHO 1,,35.139658,136.877489
清川町二丁目,キヨカワチョウ 2,KIYOKAWACHO 2,,35.138549,136.87762
清川町三丁目,キヨカワチョウ 3,KIYOKAWACHO 3,,35.137199,136.877652
清川町四丁目,キヨカワチョウ 4,KIYOKAWACHO 4,,35.135632,136.877708
清川町五丁目,キヨカワチョウ 5,KIYOKAWACHO 5,,35.133902,136.877662
清川町六丁目,キヨカワチョウ 6,KIYOKAWACHO 6,,35.132255,136.877681
清船町一丁目,キヨフネチョウ 1,KIYOFUNECHO 1,,35.139186,136.874777
清船町二丁目,キヨフネチョウ 2,KIYOFUNECHO 2,,35.137094,136.874717
清船町三丁目,キヨフネチョウ 3,KIYOFUNECHO 3,,35.135523,136.874866
清船町四丁目,キヨフネチョウ 4,KIYOFUNECHO 4,,35.133865,136.874803
清船町五丁目,キヨフネチョウ 5,KIYOFUNECHO 5,,35.132173,136.874858
吉良町,キラチョウ,KIRACHO,,35.139898,136.861608
草平町一丁目,クサヒラチョウ 1,KUSAHIRACHO 1,,35.13099,136.855248
草平町二丁目,クサヒラチョウ 2,KUSAHIRACHO 2,,35.129639,136.855352
供米田一丁目,クマイデン 1,KUMAIDEN 1,,35.136007,136.816784
供米田二丁目,クマイデン 2,KUMAIDEN 2,,35.135409,136.813612
供米田三丁目,クマイデン 3,KUMAIDEN 3,,35.135119,136.810323
小碓通一丁目,コウスドオリ 1,KOSUDORI 1,,35.123971,136.869108
小碓通二丁目,コウスドオリ 2,KOSUDORI 2,,35.122855,136.869225
小碓通三丁目,コウスドオリ 3,KOSUDORI 3,,35.121732,136.869367
小碓通四丁目,コウスドオリ 4,KOSUDORI 4,,35.120533,136.869364
小碓通五丁目,コウスドオリ 5,KOSUDORI 5,,35.119183,136.869057
九重町,ココノエチョウ,KOKONOECHO,,35.156976,136.875184
小城町一丁目,コシロチョウ 1,KOSHIROCHO 1,,35.135582,136.862018
小城町二丁目,コシロチョウ 2,KOSHIROCHO 2,,35.135175,136.860872
小塚町,コヅカチョウ,KOZUKACHO,,35.138657,136.863975
小本本町一丁目,コモトホンマチ 1,KOMOTOHOMMACHI 1,,35.146256,136.865984
小本本町二丁目,コモトホンマチ 2,KOMOTOHOMMACHI 2,,35.1443,136.865422
小本本町三丁目,コモトホンマチ 3,KOMOTOHOMMACHI 3,,35.142252,136.864462
五女子一丁目,ゴニョウシ 1,GONYOSHI 1,,35.144431,136.884555
五女子二丁目,ゴニョウシ 2,GONYOSHI 2,,35.14233,136.8837
五女子町一丁目,ゴニョシチョウ 1,GONYOSHICHO 1,,35.145242,136.882801
五女子町二丁目,ゴニョシチョウ 2,GONYOSHICHO 2,,35.144461,136.882377
五女子町三丁目,ゴニョシチョウ 3,GONYOSHICHO 3,,35.143367,136.882281
五女子町四丁目,ゴニョシチョウ 4,GONYOSHICHO 4,,35.142525,136.882081
五女子町五丁目,ゴニョシチョウ 5,GONYOSHICHO 5,,35.141588,136.881564
五月通一丁目,サツキトオリ 1,SATSUKITORI 1,,35.155961,136.872433
五月通二丁目,サツキトオリ 2,SATSUKITORI 2,,35.15522,136.872891
五月通三丁目,サツキトオリ 3,SATSUKITORI 3,,35.154109,136.872639
五月通四丁目,サツキトオリ 4,SATSUKITORI 4,,35.153171,136.872422
五月南通一丁目,サツキミナミトオリ 1,SATSUKIMINAMITORI 1,,35.15221,136.872505
五月南通二丁目,サツキミナミトオリ 2,SATSUKIMINAMITORI 2,,35.151078,136.872451
五月南通三丁目,サツキミナミトオリ 3,SATSUKIMINAMITORI 3,,35.14994,136.872435
山王一丁目,サンノウ 1,SANNO 1,,35.153366,136.891141
山王二丁目,サンノウ 2,SANNO 2,,35.148875,136.893575
山王三丁目,サンノウ 3,SANNO 3,,35.150789,136.891015
山王四丁目,サンノウ 4,SANNO 4,,35.14758,136.891806
四女子町一丁目,シニョシチョウ 1,SHINYOSHICHO 1,,35.145739,136.872938
四女子町二丁目,シニョシチョウ 2,SHINYOSHICHO 2,,35.14407,136.872847
四女子町三丁目,シニョシチョウ 3,SHINYOSHICHO 3,,35.145781,136.870792
四女子町四丁目,シニョシチョウ 4,SHINYOSHICHO 4,,35.144551,136.870323
篠原橋通一丁目,シノハラバシトオリ 1,SHINOHARABASHITORI 1,,35.140913,136.872869
篠原橋通二丁目,シノハラバシトオリ 2,SHINOHARABASHITORI 2,,35.140507,136.86845
篠原橋通三丁目,シノハラバシトオリ 3,SHINOHARABASHITORI 3,,35.140466,136.864469
島井町,シマイチョウ,SHIMAICHO,,35.155769,136.817989
下之一色町,シモノイッシキチョウ,SHIMONOISSHIKICHO,,35.119252,136.835954
下之一色町,シモノイッシキチョウ,SHIMONOISSHIKICHO,三角,35.115455,136.83516
下之一色町,シモノイッシキチョウ,SHIMONOISSHIKICHO,中ノ切,35.120783,136.832314
下之一色町,シモノイッシキチョウ,SHIMONOISSHIKICHO,北ノ切,35.12172,136.83408
下之一色町,シモノイッシキチョウ,SHIMONOISSHIKICHO,北起,35.123284,136.835293
下之一色町,シモノイッシキチョウ,SHIMONOISSHIKICHO,南ノ切,35.119877,136.834115
下之一色町,シモノイッシキチョウ,SHIMONOISSHIKICHO,古川,35.123068,136.831146
下之一色町,シモノイッシキチョウ,SHIMONOISSHIKICHO,宮分,35.125764,136.834611
下之一色町,シモノイッシキチョウ,SHIMONOISSHIKICHO,戌亥島,35.122323,136.82985
下之一色町,シモノイッシキチョウ,SHIMONOISSHIKICHO,操出,35.119162,136.834882
下之一色町,シモノイッシキチョウ,SHIMONOISSHIKICHO,東ノ切,35.121457,136.835002
下之一色町,シモノイッシキチョウ,SHIMONOISSHIKICHO,松蔭一丁目,35.127924,136.839824
下之一色町,シモノイッシキチョウ,SHIMONOISSHIKICHO,松蔭七丁目,35.119373,136.839096
下之一色町,シモノイッシキチョウ,SHIMONOISSHIKICHO,松蔭三丁目,35.12418,136.839108
下之一色町,シモノイッシキチョウ,SHIMONOISSHIKICHO,松蔭二丁目,35.125715,136.839319
下之一色町,シモノイッシキチョウ,SHIMONOISSHIKICHO,松蔭五丁目,35.122179,136.839267
下之一色町,シモノイッシキチョウ,SHIMONOISSHIKICHO,松蔭六丁目,35.121161,136.839989
下之一色町,シモノイッシキチョウ,SHIMONOISSHIKICHO,松蔭四丁目,35.122704,136.839316
下之一色町,シモノイッシキチョウ,SHIMONOISSHIKICHO,権野,35.124112,136.82813
下之一色町,シモノイッシキチョウ,SHIMONOISSHIKICHO,波花,35.125349,136.831041
下之一色町,シモノイッシキチョウ,SHIMONOISSHIKICHO,西ノ切,35.121906,136.831549
正徳町一丁目,ショウトクチョウ 1,SHOTOKUCHO 1,,35.121652,136.863714
松年町一丁目,ショウネンチョウ 1,SHONENCHO 1,,35.123983,136.873384
松年町二丁目,ショウネンチョウ 2,SHONENCHO 2,,35.122804,136.873341
松年町三丁目,ショウネンチョウ 3,SHONENCHO 3,,35.121767,136.873335
松年町四丁目,ショウネンチョウ 4,SHONENCHO 4,,35.120284,136.873304
松年町五丁目,ショウネンチョウ 5,SHONENCHO 5,,35.119152,136.873384
昭明町一丁目,ショウメイチョウ 1,SHOMEICHO 1,,35.124059,136.871423
昭明町二丁目,ショウメイチョウ 2,SHOMEICHO 2,,35.12286,136.870918
昭明町三丁目,ショウメイチョウ 3,SHOMEICHO 3,,35.121763,136.871041
昭明町四丁目,ショウメイチョウ 4,SHOMEICHO 4,,35.120662,136.870962
昭明町五丁目,ショウメイチョウ 5,SHOMEICHO 5,,35.119094,136.870714
昭和橋通一丁目,ショウワバシトオリ 1,SHOWABASHITORI 1,,35.125031,136.873376
昭和橋通二丁目,ショウワバシトオリ 2,SHOWABASHITORI 2,,35.124916,136.870685
昭和橋通三丁目,ショウワバシトオリ 3,SHOWABASHITORI 3,,35.124916,136.868091
昭和橋通四丁目,ショウワバシトオリ 4,SHOWABASHITORI 4,,35.124671,136.864966
昭和橋通五丁目,ショウワバシトオリ 5,SHOWABASHITORI 5,,35.124457,136.861335
昭和橋通六丁目,ショウワバシトオリ 6,SHOWABASHITORI 6,,35.124284,136.857531
昭和橋通九丁目,ショウワバシトオリ 9,SHOWABASHITORI 9,,35.123743,136.842902
神郷町一丁目,シンゴウチョウ 1,SHINGOCHO 1,,35.135149,136.881739
神郷町二丁目,シンゴウチョウ 2,SHINGOCHO 2,,35.132966,136.880815
神郷町三丁目,シンゴウチョウ 3,SHINGOCHO 3,,35.130045,136.879928
十一番町一丁目,ジュウイチバンチョウ 1,JUICHIBANCHO 1,,35.124974,136.87996
十一番町二丁目,ジュウイチバンチョウ 2,JUICHIBANCHO 2,,35.124183,136.879786
十一番町三丁目,ジュウイチバンチョウ 3,JUICHIBANCHO 3,,35.122839,136.879965
十一番町四丁目,ジュウイチバンチョウ 4,JUICHIBANCHO 4,,35.121796,136.880033
十一番町五丁目,ジュウイチバンチョウ 5,JUICHIBANCHO 5,,35.120718,136.879854
十一番町六丁目,ジュウイチバンチョウ 6,JUICHIBANCHO 6,,35.119781,136.87988
十一番町七丁目,ジュウイチバンチョウ 7,JUICHIBANCHO 7,,35.118915,136.879883
十番町一丁目,ジュウバンチョウ 1,JUBANCHO 1,,35.124773,136.882336
十番町二丁目,ジュウバンチョウ 2,JUBANCHO 2,,35.123838,136.882306
十番町三丁目,ジュウバンチョウ 3,JUBANCHO 3,,35.12286,136.882229
十番町四丁目,ジュウバンチョウ 4,JUBANCHO 4,,35.121779,136.882149
十番町五丁目,ジュウバンチョウ 5,JUBANCHO 5,,35.120612,136.882125
十番町六丁目,ジュウバンチョウ 6,JUBANCHO 6,,35.119777,136.881948
十番町七丁目,ジュウバンチョウ 7,JUBANCHO 7,,35.118912,136.881861
助光一丁目,スケミツ 1,SUKEMITSU 1,,35.138298,136.827251
助光二丁目,スケミツ 2,SUKEMITSU 2,,35.135741,136.827148
助光三丁目,スケミツ 3,SUKEMITSU 3,,35.132698,136.827366
澄池町,スミイケチョウ,SUMIIKECHO,,35.150638,136.874513
宗円町一丁目,ソウエンチョウ 1,SOENCHO 1,,35.145998,136.868456
宗円町二丁目,ソウエンチョウ 2,SOENCHO 2,,35.14524,136.86816
外新町一丁目,ソトシンチョウ 1,SOTOSHINCHO 1,,35.12832,136.88359
外新町二丁目,ソトシンチョウ 2,SOTOSHINCHO 2,,35.128389,136.882127
外新町三丁目,ソトシンチョウ 3,SOTOSHINCHO 3,,35.128332,136.880604
外新町四丁目,ソトシンチョウ 4,SOTOSHINCHO 4,,35.128071,136.879048
太平通一丁目,タイヘイトオリ 1,TAIHEITORI 1,,35.142422,136.870625
太平通二丁目,タイヘイトオリ 2,TAIHEITORI 2,,35.139383,136.870598
太平通三丁目,タイヘイトオリ 3,TAIHEITORI 3,,35.136657,136.86982
太平通四丁目,タイヘイトオリ 4,TAIHEITORI 4,,35.134285,136.869339
太平通五丁目,タイヘイトオリ 5,TAIHEITORI 5,,35.131812,136.869062
太平通六丁目,タイヘイトオリ 6,TAIHEITORI 6,,35.129348,136.869161
太平通七丁目,タイヘイトオリ 7,TAIHEITORI 7,,35.126776,136.869048
高杉町,タカスギチョウ,TAKASUGICHO,,35.125802,136.842793
高畑一丁目,タカバタ 1,TAKABATA 1,,35.141879,136.855125
高畑二丁目,タカバタ 2,TAKABATA 2,,35.137513,136.855056
高畑三丁目,タカバタ 3,TAKABATA 3,,35.138455,136.852206
高畑四丁目,タカバタ 4,TAKABATA 4,,35.141914,136.851393
高畑五丁目,タカバタ 5,TAKABATA 5,,35.144839,136.851188
玉川町一丁目,タマカワチョウ 1,TAMAKAWACHO 1,,35.12348,136.877982
玉川町二丁目,タマカワチョウ 2,TAMAKAWACHO 2,,35.121367,136.878164
玉川町三丁目,タマカワチョウ 3,TAMAKAWACHO 3,,35.120055,136.878218
玉川町四丁目,タマカワチョウ 4,TAMAKAWACHO 4,,35.118842,136.878154
玉船町一丁目,タマフネチョウ 1,TAMAFUNECHO 1,,35.12337,136.875251
玉船町二丁目,タマフネチョウ 2,TAMAFUNECHO 2,,35.121404,136.875194
玉船町三丁目,タマフネチョウ 3,TAMAFUNECHO 3,,35.11998,136.875338
玉船町四丁目,タマフネチョウ 4,TAMAFUNECHO 4,,35.118849,136.875357
丹後町一丁目,タンゴチョウ 1,TANGOCHO 1,,35.135428,136.88262
丹後町二丁目,タンゴチョウ 2,TANGOCHO 2,,35.133218,136.881978
大地,ダイチ,DAICHI,,35.161605,136.833154
大当郎一丁目,ダイトウロウ 1,DAITORO 1,,35.133315,136.834655
大当郎二丁目,ダイトウロウ 2,DAITORO 2,,35.133345,136.831248
大当郎三丁目,ダイトウロウ 3,DAITORO 3,,35.129402,136.834235
大蟷螂町,ダイトウロウチョウ,DAITOROCHO,,35.131944,136.836712
中京南通二丁目,チュウキョウミナミトオリ 2,CHUKYOMINAMITORI 2,,35.148204,136.874344
中京南通三丁目,チュウキョウミナミトオリ 3,CHUKYOMINAMITORI 3,,35.147343,136.873322
中郷一丁目,チュウゴウ 1,CHUGO 1,,35.138453,136.849446
中郷二丁目,チュウゴウ 2,CHUGO 2,,35.138929,136.845986
中郷三丁目,チュウゴウ 3,CHUGO 3,,35.134533,136.846371
中郷四丁目,チュウゴウ 4,CHUGO 4,,35.134383,136.849729
中郷五丁目,チュウゴウ 5,CHUGO 5,,35.130992,136.849915
月島町,ツキシマチョウ,TSUKISHIMACHO,,35.156232,136.88231
辻畑町,ツジバタチョウ,TSUJIBATACHO,,35.146912,136.864662
蔦元町一丁目,ツタモトチョウ 1,TSUTAMOTOCHO 1,,35.143256,136.872985
蔦元町二丁目,ツタモトチョウ 2,TSUTAMOTOCHO 2,,35.14194,136.872853
土野町,ツチノチョウ,TSUCHINOCHO,,35.14498,136.840563
露橋一丁目,ツユハシ 1,TSUYUHASHI 1,,35.151706,136.887127
露橋二丁目,ツユハシ 2,TSUYUHASHI 2,,35.147151,136.886175
露橋町,ツユハシチョウ,TSUYUHASHICHO,,35.151662,136.883631
戸田一丁目,トダ 1,TODA 1,,35.141656,136.807491
戸田二丁目,トダ 2,TODA 2,,35.139439,136.807356
戸田三丁目,トダ 3,TODA 3,,35.137665,136.807177
戸田四丁目,トダ 4,TODA 4,,35.135529,136.806914
戸田五丁目,トダ 5,TODA 5,,35.133343,136.80656
戸田西一丁目,トダニシ 1,TODANISHI 1,,35.141421,136.80247
戸田西二丁目,トダニシ 2,TODANISHI 2,,35.139447,136.8023
戸田西三丁目,トダニシ 3,TODANISHI 3,,35.137241,136.802213
戸田明正一丁目,トダメイセイ 1,TODAMEISEI 1,,35.14544,136.808892
戸田明正二丁目,トダメイセイ 2,TODAMEISEI 2,,35.145212,136.805948
戸田明正三丁目,トダメイセイ 3,TODAMEISEI 3,,35.145195,136.80277
戸田ゆたか一丁目,トダユタカ 1,TODAYUTAKA 1,,35.134754,136.802219
戸田ゆたか二丁目,トダユタカ 2,TODAYUTAKA 2,,35.13233,136.802951
富川町一丁目,トミカワチョウ 1,TOMIKAWACHO 1,,35.14637,136.877286
富川町二丁目,トミカワチョウ 2,TOMIKAWACHO 2,,35.144414,136.877327
富川町三丁目,トミカワチョウ 3,TOMIKAWACHO 3,,35.143103,136.877389
富川町四丁目,トミカワチョウ 4,TOMIKAWACHO 4,,35.142004,136.877534
富川町五丁目,トミカワチョウ 5,TOMIKAWACHO 5,,35.14072,136.877556
富永一丁目,トミナガ 1,TOMINAGA 1,,35.124255,136.812723
富永二丁目,トミナガ 2,TOMINAGA 2,,35.123567,136.809756
富永三丁目,トミナガ 3,TOMINAGA 3,,35.122885,136.807601
富永四丁目,トミナガ 4,TOMINAGA 4,,35.123007,136.804915
富船町一丁目,トミフネチョウ 1,TOMIFUNECHO 1,,35.147195,136.874506
富船町二丁目,トミフネチョウ 2,TOMIFUNECHO 2,,35.146026,136.874652
富船町三丁目,トミフネチョウ 3,TOMIFUNECHO 3,,35.144326,136.874494
富船町四丁目,トミフネチョウ 4,TOMIFUNECHO 4,,35.142462,136.874663
富船町五丁目,トミフネチョウ 5,TOMIFUNECHO 5,,35.140664,136.874613
中島新町一丁目,ナカジマシンチョウ 1,NAKAJIMASHINCHO 1,,35.130782,136.852802
中島新町二丁目,ナカジマシンチョウ 2,NAKAJIMASHINCHO 2,,35.127936,136.851447
中島新町三丁目,ナカジマシンチョウ 3,NAKAJIMASHINCHO 3,,35.125366,136.851839
中島新町四丁目,ナカジマシンチョウ 4,NAKAJIMASHINCHO 4,,35.122618,136.852894
中須町,ナカスチョウ,NAKASUCHO,,35.134341,136.83788
中野新町一丁目,ナカノシンチョウ 1,NAKANOSHINCHO 1,,35.128159,136.872053
中野新町二丁目,ナカノシンチョウ 2,NAKANOSHINCHO 2,,35.12784,136.87121
中野新町三丁目,ナカノシンチョウ 3,NAKANOSHINCHO 3,,35.12752,136.872082
中野新町四丁目,ナカノシンチョウ 4,NAKANOSHINCHO 4,,35.127005,136.872043
中野新町五丁目,ナカノシンチョウ 5,NAKANOSHINCHO 5,,35.126671,136.872407
中野新町六丁目,ナカノシンチョウ 6,NAKANOSHINCHO 6,,35.126289,136.873272
中野新町七丁目,ナカノシンチョウ 7,NAKANOSHINCHO 7,,35.125881,136.872095
中野本町一丁目,ナカノホンマチ 1,NAKANOHOMMACHI 1,,35.132035,136.8838
中野本町二丁目,ナカノホンマチ 2,NAKANOHOMMACHI 2,,35.131742,136.880353
中花町,ナカハナチョウ,NAKAHANACHO,,35.130998,136.846483
長須賀一丁目,ナガスカ 1,NAGASUKA 1,,35.150403,136.825619
長須賀二丁目,ナガスカ 2,NAGASUKA 2,,35.147516,136.825708
長須賀三丁目,ナガスカ 3,NAGASUKA 3,,35.144925,136.826434
長良町一丁目,ナガラチョウ 1,NAGARACHO 1,,35.15322,136.86883
長良町二丁目,ナガラチョウ 2,NAGARACHO 2,,35.150874,136.869395
長良町三丁目,ナガラチョウ 3,NAGARACHO 3,,35.149571,136.870217
長良町四丁目,ナガラチョウ 4,NAGARACHO 4,,35.148598,136.87044
長良町五丁目,ナガラチョウ 5,NAGARACHO 5,,35.148349,136.869043
新家一丁目,ニイエ 1,NIIE 1,,35.157532,136.807271
新家二丁目,ニイエ 2,NIIE 2,,35.155184,136.807436
新家三丁目,ニイエ 3,NIIE 3,,35.157394,136.803402
西中島一丁目,ニシナカジマ 1,NISHINAKAJIMA 1,,35.12189,136.849032
西中島二丁目,ニシナカジマ 2,NISHINAKAJIMA 2,,35.121572,136.846648
西日置一丁目,ニシヒオキ 1,NISHIHIOKI 1,,35.157595,136.889962
西日置二丁目,ニシヒオキ 2,NISHIHIOKI 2,,35.155805,136.890125
西日置町,ニシヒオキチョウ,NISHIHIOKICHO,,35.154453,136.891907
西日置町十丁目,ニシヒオキチョウ 10,NISHIHIOKICHO 10,,35.157633,136.885169
西日置町九丁目,ニシヒオキチョウ 9,NISHIHIOKICHO 9,,35.157805,136.886838
西伏屋一丁目,ニシフシヤ 1,NISHIFUSHIYA 1,,35.145351,136.822226
西伏屋二丁目,ニシフシヤ 2,NISHIFUSHIYA 2,,35.142925,136.820849
西伏屋三丁目,ニシフシヤ 3,NISHIFUSHIYA 3,,35.14054,136.821481
二女子町一丁目,ニニョシチョウ 1,NINYOSHICHO 1,,35.146192,136.879995
二女子町二丁目,ニニョシチョウ 2,NINYOSHICHO 2,,35.145494,136.880286
二女子町三丁目,ニニョシチョウ 3,NINYOSHICHO 3,,35.145106,136.879348
二女子町四丁目,ニニョシチョウ 4,NINYOSHICHO 4,,35.144576,136.878944
二女子町五丁目,ニニョシチョウ 5,NINYOSHICHO 5,,35.143585,136.879727
二女子町六丁目,ニニョシチョウ 6,NINYOSHICHO 6,,35.142781,136.879604
二女子町七丁目,ニニョシチョウ 7,NINYOSHICHO 7,,35.141737,136.879289
野田一丁目,ノダ 1,NODA 1,,35.143245,136.847108
野田二丁目,ノダ 2,NODA 2,,35.143241,136.842804
野田三丁目,ノダ 3,NODA 3,,35.1424,136.838462
乗越町一丁目,ノリコシチョウ 1,NORIKOSHICHO 1,,35.154179,136.871143
乗越町二丁目,ノリコシチョウ 2,NORIKOSHICHO 2,,35.153271,136.87092
乗越町三丁目,ノリコシチョウ 3,NORIKOSHICHO 3,,35.152261,136.87123
葉池町一丁目,ハイケチョウ 1,HAIKECHO 1,,35.12887,136.867482
葉池町二丁目,ハイケチョウ 2,HAIKECHO 2,,35.127536,136.867696
畑田町一丁目,ハタダチョウ 1,HATADACHO 1,,35.12351,136.862278
畑田町二丁目,ハタダチョウ 2,HATADACHO 2,,35.123375,136.860592
畑田町三丁目,ハタダチョウ 3,HATADACHO 3,,35.123292,136.85861
畑田町四丁目,ハタダチョウ 4,HATADACHO 4,,35.123124,136.856665
幡野町,ハタノチョウ,HATANOCHO,,35.140532,136.888247
八剱町一丁目,ハチケンチョウ 1,HACHIKENCHO 1,,35.126343,136.883421
八剱町二丁目,ハチケンチョウ 2,HACHIKENCHO 2,,35.126341,136.882222
八剱町三丁目,ハチケンチョウ 3,HACHIKENCHO 3,,35.12623,136.880697
八剱町四丁目,ハチケンチョウ 4,HACHIKENCHO 4,,35.126015,136.879109
八田町,ハッタチョウ,HATTACHO,,35.147622,136.853596
八田本町,ハッタホンマチ,HATTAHOMMACHI,,35.14647,136.847745
服部一丁目,ハットリ 1,HATTORI 1,,35.151382,136.816985
服部二丁目,ハットリ 2,HATTORI 2,,35.148575,136.815765
服部三丁目,ハットリ 3,HATTORI 3,,35.149184,136.812425
服部四丁目,ハットリ 4,HATTORI 4,,35.15127,136.813085
服部五丁目,ハットリ 5,HATTORI 5,,35.150783,136.809924
花池町一丁目,ハナイケチョウ 1,HANAIKECHO 1,,35.147714,136.849254
花池町二丁目,ハナイケチョウ 2,HANAIKECHO 2,,35.147343,136.84922
花池町三丁目,ハナイケチョウ 3,HANAIKECHO 3,,35.146955,136.849476
花塚町一丁目,ハナヅカチョウ 1,HANAZUKACHO 1,,35.130529,136.884388
花塚町二丁目,ハナヅカチョウ 2,HANAZUKACHO 2,,35.130407,136.883301
花塚町三丁目,ハナヅカチョウ 3,HANAZUKACHO 3,,35.130885,136.881468
花塚町四丁目,ハナヅカチョウ 4,HANAZUKACHO 4,,35.129837,136.881501
春田一丁目,ハルタ 1,HARUTA 1,,35.145117,136.81192
春田二丁目,ハルタ 2,HARUTA 2,,35.144832,136.814484
春田三丁目,ハルタ 3,HARUTA 3,,35.141625,136.813977
春田四丁目,ハルタ 4,HARUTA 4,,35.138533,136.812715
春田五丁目,ハルタ 5,HARUTA 5,,35.141124,136.811477
東起町一丁目,ヒガシオコシチョウ 1,HIGASHIOKOSHICHO 1,,35.122747,136.842955
東起町二丁目,ヒガシオコシチョウ 2,HIGASHIOKOSHICHO 2,,35.121838,136.843002
東起町三丁目,ヒガシオコシチョウ 3,HIGASHIOKOSHICHO 3,,35.120823,136.843044
東起町四丁目,ヒガシオコシチョウ 4,HIGASHIOKOSHICHO 4,,35.119407,136.842813
東起町五丁目,ヒガシオコシチョウ 5,HIGASHIOKOSHICHO 5,,35.118157,136.841688
東かの里町,ヒガシカノサトチョウ,HIGASHIKANOSATOCHO,,35.131438,136.817541
東中島町一丁目,ヒガシナカジマチョウ 1,HIGASHINAKAJIMACHO 1,,35.127729,136.859856
東中島町二丁目,ヒガシナカジマチョウ 2,HIGASHINAKAJIMACHO 2,,35.126793,136.859849
東中島町三丁目,ヒガシナカジマチョウ 3,HIGASHINAKAJIMACHO 3,,35.125846,136.859844
東中島町四丁目,ヒガシナカジマチョウ 4,HIGASHINAKAJIMACHO 4,,35.125166,136.859853
東中島町五丁目,ヒガシナカジマチョウ 5,HIGASHINAKAJIMACHO 5,,35.12824,136.855482
東中島町六丁目,ヒガシナカジマチョウ 6,HIGASHINAKAJIMACHO 6,,35.126783,136.85642
東中島町七丁目,ヒガシナカジマチョウ 7,HIGASHINAKAJIMACHO 7,,35.126023,136.856567
東中島町八丁目,ヒガシナカジマチョウ 8,HIGASHINAKAJIMACHO 8,,35.125166,136.856735
東春田一丁目,ヒガシハルタ 1,HIGASHIHARUTA 1,,35.145234,136.817394
東春田二丁目,ヒガシハルタ 2,HIGASHIHARUTA 2,,35.141637,136.817663
東春田三丁目,ヒガシハルタ 3,HIGASHIHARUTA 3,,35.138745,136.816888
七反田町,ヒチタンダチョウ,HICHITANDACHO,,35.152717,136.814315
平戸町一丁目,ヒラトチョウ 1,HIRATOCHO 1,,35.130369,136.862659
平戸町二丁目,ヒラトチョウ 2,HIRATOCHO 2,,35.128672,136.862741
広川町一丁目,ヒロカワチョウ 1,HIROKAWACHO 1,,35.153399,136.882633
広川町二丁目,ヒロカワチョウ 2,HIROKAWACHO 2,,35.152594,136.881406
広川町三丁目,ヒロカワチョウ 3,HIROKAWACHO 3,,35.151444,136.880543
広川町四丁目,ヒロカワチョウ 4,HIROKAWACHO 4,,35.150195,136.879476
広川町五丁目,ヒロカワチョウ 5,HIROKAWACHO 5,,35.148586,136.878097
広住町,ヒロスミチョウ,HIROSUMICHO,,35.155646,136.884171
広田町一丁目,ヒロタチョウ 1,HIROTACHO 1,,35.130751,136.857795
広田町二丁目,ヒロタチョウ 2,HIROTACHO 2,,35.129493,136.857874
広田町三丁目,ヒロタチョウ 3,HIROTACHO 3,,35.128409,136.857972
福川町一丁目,フクカワチョウ 1,FUKUKAWACHO 1,,35.130801,136.877846
福川町二丁目,フクカワチョウ 2,FUKUKAWACHO 2,,35.12903,136.877959
福川町三丁目,フクカワチョウ 3,FUKUKAWACHO 3,,35.127601,136.877827
福川町四丁目,フクカワチョウ 4,FUKUKAWACHO 4,,35.126115,136.877958
福川町五丁目,フクカワチョウ 5,FUKUKAWACHO 5,,35.125102,136.877918
福島一丁目,フクシマ 1,FUKUSHIMA 1,,35.123841,136.801773
福島二丁目,フクシマ 2,FUKUSHIMA 2,,35.123642,136.798773
福島三丁目,フクシマ 3,FUKUSHIMA 3,,35.126705,136.798698
福住町,フクズミチョウ,FUKUZUMICHO,,35.157134,136.880781
福船町一丁目,フクフネチョウ 1,FUKUFUNECHO 1,,35.13069,136.874907
福船町二丁目,フクフネチョウ 2,FUKUFUNECHO 2,,35.129081,136.87505
福船町三丁目,フクフネチョウ 3,FUKUFUNECHO 3,,35.12758,136.875103
福船町四丁目,フクフネチョウ 4,FUKUFUNECHO 4,,35.126241,136.875142
福船町五丁目,フクフネチョウ 5,FUKUFUNECHO 5,,35.125088,136.875181
伏屋一丁目,フシヤ 1,FUSHIYA 1,,35.144163,136.824789
伏屋二丁目,フシヤ 2,FUSHIYA 2,,35.141961,136.829099
伏屋三丁目,フシヤ 3,FUSHIYA 3,,35.140623,136.829274
伏屋四丁目,フシヤ 4,FUSHIYA 4,,35.140115,136.825289
伏屋五丁目,フシヤ 5,FUSHIYA 5,,35.14289,136.825105
舟戸町,フナトチョウ,FUNATOCHO,,35.151173,136.877979
豊成町,ホウセイチョウ,HOSEICHO,,35.156055,136.877854
法蔵町一丁目,ホウゾウチョウ 1,HOZOCHO 1,,35.124028,136.867654
法蔵町二丁目,ホウゾウチョウ 2,HOZOCHO 2,,35.123685,136.864872
細米町一丁目,ホソコメチョウ 1,HOSOKOMECHO 1,,35.136589,136.863626
細米町二丁目,ホソコメチョウ 2,HOSOKOMECHO 2,,35.135517,136.864414
法華一丁目,ホッケ 1,HOKKE 1,,35.127846,136.846724
法華二丁目,ホッケ 2,HOKKE 2,,35.125524,136.846818
法華西町,ホッケニシマチ,HOKKENISHIMACHI,,35.12997,136.843933
法華西町一丁目,ホッケニシマチ 1,HOKKENISHIMACHI 1,,35.131839,136.842324
法華西町二丁目,ホッケニシマチ 2,HOKKENISHIMACHI 2,,35.130884,136.841821
法華西町三丁目,ホッケニシマチ 3,HOKKENISHIMACHI 3,,35.129774,136.842022
法華西町四丁目,ホッケニシマチ 4,HOKKENISHIMACHI 4,,35.128836,136.842207
法華西町五丁目,ホッケニシマチ 5,HOKKENISHIMACHI 5,,35.127931,136.841917
法華西町六丁目,ホッケニシマチ 6,HOKKENISHIMACHI 6,,35.127479,136.843045
本前田町,ホンマエダチョウ,HOMMAEDACHO,,35.143366,136.836126
前田西町一丁目,マエダニシマチ 1,MAEDANISHIMACHI 1,,35.139593,136.831333
前田西町二丁目,マエダニシマチ 2,MAEDANISHIMACHI 2,,35.137572,136.831974
前田西町三丁目,マエダニシマチ 3,MAEDANISHIMACHI 3,,35.135897,136.831891
前並町,マエナミチョウ,MAENAMICHO,,35.149797,136.883603
松重町,マツシゲチョウ,MATSUSHIGECHO,,35.156993,136.892676
松ノ木町一丁目,マツノキチョウ 1,MATSUNOKICHO 1,,35.137801,136.86591
松ノ木町二丁目,マツノキチョウ 2,MATSUNOKICHO 2,,35.136959,136.865299
松葉町一丁目,マツバチョウ 1,MATSUBACHO 1,,35.152534,136.865834
松葉町二丁目,マツバチョウ 2,MATSUBACHO 2,,35.151326,136.865691
松葉町三丁目,マツバチョウ 3,MATSUBACHO 3,,35.150425,136.864887
松葉町四丁目,マツバチョウ 4,MATSUBACHO 4,,35.149687,136.86417
松葉町五丁目,マツバチョウ 5,MATSUBACHO 5,,35.148541,136.865025
的場町一丁目,マトバチョウ 1,MATOBACHO 1,,35.133475,136.859257
的場町二丁目,マトバチョウ 2,MATOBACHO 2,,35.132159,136.859128
的場町三丁目,マトバチョウ 3,MATOBACHO 3,,35.131895,136.856916
丸米町一丁目,マルコメチョウ 1,MARUKOMECHO 1,,35.134387,136.872182
丸米町二丁目,マルコメチョウ 2,MARUKOMECHO 2,,35.132973,136.87198
万町,マンチョウ,MANCHO,,35.147107,136.857935
万場一丁目,マンバ 1,MAMBA 1,,35.156282,136.834613
万場二丁目,マンバ 2,MAMBA 2,,35.156049,136.831669
万場三丁目,マンバ 3,MAMBA 3,,35.153519,136.831308
万場四丁目,マンバ 4,MAMBA 4,,35.153007,136.826978
万場五丁目,マンバ 5,MAMBA 5,,35.156167,136.827556
水里一丁目,ミズサト 1,MIZUSATO 1,,35.128635,136.811882
水里二丁目,ミズサト 2,MIZUSATO 2,,35.129317,136.809274
水里三丁目,ミズサト 3,MIZUSATO 3,,35.129203,136.80697
水里四丁目,ミズサト 4,MIZUSATO 4,,35.128794,136.805232
水里五丁目,ミズサト 5,MIZUSATO 5,,35.128562,136.802764
三ツ池町一丁目,ミツイケチョウ 1,MITSUIKECHO 1,,35.155378,136.871821
三ツ池町二丁目,ミツイケチョウ 2,MITSUIKECHO 2,,35.154591,136.872201
三ツ屋町一丁目,ミツヤチョウ 1,MITSUYACHO 1,,35.139784,136.872655
三ツ屋町二丁目,ミツヤチョウ 2,MITSUYACHO 2,,35.138787,136.87263
南八熊町,ミナミヤグマチョウ,MINAMIYAGUMACHO,,35.139422,136.892723
南脇町一丁目,ミナミワキチョウ 1,MINAMIWAKICHO 1,,35.147747,136.868865
南脇町二丁目,ミナミワキチョウ 2,MINAMIWAKICHO 2,,35.147552,136.868006
南脇町三丁目,ミナミワキチョウ 3,MINAMIWAKICHO 3,,35.147122,136.867653
宮脇町一丁目,ミヤワキチョウ 1,MIYAWAKICHO 1,,35.137063,136.868129
宮脇町二丁目,ミヤワキチョウ 2,MIYAWAKICHO 2,,35.135358,136.867118
明徳町一丁目,メイトクチョウ 1,MEITOKUCHO 1,,35.122593,136.867693
明徳町二丁目,メイトクチョウ 2,MEITOKUCHO 2,,35.122368,136.866061
明徳町三丁目,メイトクチョウ 3,MEITOKUCHO 3,,35.12229,136.864578
明徳町四丁目,メイトクチョウ 4,MEITOKUCHO 4,,35.119612,136.866136
元中野町一丁目,モトナカノチョウ 1,MOTONAKANOCHO 1,,35.138299,136.878838
元中野町二丁目,モトナカノチョウ 2,MOTONAKANOCHO 2,,35.136607,136.879938
元中野町三丁目,モトナカノチョウ 3,MOTONAKANOCHO 3,,35.134858,136.879758
元中野町四丁目,モトナカノチョウ 4,MOTONAKANOCHO 4,,35.133043,136.879358
百船町,モモフネチョウ,MOMOFUNECHO,,35.158667,136.879814
八神町一丁目,ヤガミチョウ 1,YAGAMICHO 1,,35.139974,136.882707
八神町二丁目,ヤガミチョウ 2,YAGAMICHO 2,,35.139929,136.880142
八神町三丁目,ヤガミチョウ 3,YAGAMICHO 3,,35.139519,136.880264
八神町四丁目,ヤガミチョウ 4,YAGAMICHO 4,,35.139048,136.879506
八神町五丁目,ヤガミチョウ 5,YAGAMICHO 5,,35.138612,136.879646
八熊一丁目,ヤグマ 1,YAGUMA 1,,35.141273,136.894795
八熊二丁目,ヤグマ 2,YAGUMA 2,,35.14143,136.891495
八熊三丁目,ヤグマ 3,YAGUMA 3,,35.141826,136.888366
八熊通四丁目,ヤグマドオリ 4,YAGUMADORI 4,,35.14035,136.884339
八熊通五丁目,ヤグマドオリ 5,YAGUMADORI 5,,35.140876,136.882638
八熊通六丁目,ヤグマドオリ 6,YAGUMADORI 6,,35.140927,136.879615
八家町一丁目,ヤツヤチョウ 1,YATSUYACHO 1,,35.13125,136.872017
八家町二丁目,ヤツヤチョウ 2,YATSUYACHO 2,,35.130065,136.872055
八家町三丁目,ヤツヤチョウ 3,YATSUYACHO 3,,35.128797,136.872094
八家町六丁目,ヤツヤチョウ 6,YATSUYACHO 6,,35.128481,136.873558
柳川町,ヤナガワチョウ,YANAGAWACHO,,35.138251,136.895744
柳島町一丁目,ヤナギシマチョウ 1,YANAGISHIMACHO 1,,35.14866,136.881928
柳島町二丁目,ヤナギシマチョウ 2,YANAGISHIMACHO 2,,35.148342,136.880882
柳島町三丁目,ヤナギシマチョウ 3,YANAGISHIMACHO 3,,35.147967,136.881103
柳島町四丁目,ヤナギシマチョウ 4,YANAGISHIMACHO 4,,35.14767,136.880769
柳島町五丁目,ヤナギシマチョウ 5,YANAGISHIMACHO 5,,35.147303,136.880803
柳島町六丁目,ヤナギシマチョウ 6,YANAGISHIMACHO 6,,35.146923,136.880812
柳田町一丁目,ヤナギダチョウ 1,YANAGIDACHO 1,,35.146465,136.845327
柳田町二丁目,ヤナギダチョウ 2,YANAGIDACHO 2,,35.14597,136.843806
柳堀町,ヤナギボリチョウ,YANAGIBORICHO,,35.155621,136.886678
柳瀬町一丁目,ヤナセチョウ 1,YANASECHO 1,,35.146497,136.849501
柳瀬町二丁目,ヤナセチョウ 2,YANASECHO 2,,35.146088,136.849604
柳瀬町三丁目,ヤナセチョウ 3,YANASECHO 3,,35.145505,136.849218
柳森町,ヤナモリチョウ,YANAMORICHO,,35.149426,136.85816
八幡本通一丁目,ヤハタホントオリ 1,YAHATAHONTORI 1,,35.146506,136.880665
八幡本通二丁目,ヤハタホントオリ 2,YAHATAHONTORI 2,,35.145681,136.883624
横井一丁目,ヨコイ 1,YOKOI 1,,35.148067,136.836189
横井二丁目,ヨコイ 2,YOKOI 2,,35.146164,136.835514
横堀町一丁目,ヨコボリチョウ 1,YOKOBORICHO 1,,35.15362,136.884643
横堀町二丁目,ヨコボリチョウ 2,YOKOBORICHO 2,,35.152972,136.884648
横堀町三丁目,ヨコボリチョウ 3,YOKOBORICHO 3,,35.152369,136.884375
横前町,ヨコマエチョウ,YOKOMAECHO,,35.148119,136.837638
吉津一丁目,ヨシヅ 1,YOSHIZU 1,,35.156464,136.822304
吉津二丁目,ヨシヅ 2,YOSHIZU 2,,35.153619,136.821986
吉津三丁目,ヨシヅ 3,YOSHIZU 3,,35.150824,136.821379
吉津四丁目,ヨシヅ 4,YOSHIZU 4,,35.148075,136.820697
吉津五丁目,ヨシヅ 5,YOSHIZU 5,,35.145818,136.819527
好本町一丁目,ヨシモトチョウ 1,YOSHIMOTOCHO 1,,35.143739,136.869582
好本町二丁目,ヨシモトチョウ 2,YOSHIMOTOCHO 2,,35.143001,136.868058
好本町三丁目,ヨシモトチョウ 3,YOSHIMOTOCHO 3,,35.141855,136.867846
若山町一丁目,ワカヤマチョウ 1,WAKAYAMACHO 1,,35.133676,136.862194
若山町二丁目,ワカヤマチョウ 2,WAKAYAMACHO 2,,35.131919,136.862232
若山町三丁目,ワカヤマチョウ 3,WAKAYAMACHO 3,,35.133795,136.860759
若山町四丁目,ワカヤマチョウ 4,WAKAYAMACHO 4,,35.132112,136.860888
