name,name_kana,name_romaji,nickname,latitude,longitude
西堤楠町一丁目,ニシヅツミクスノキチョウ 1,NISHIZUTSUMI KUSUNOKICHO 1,,34.671693,135.576378
横枕南,ヨコマクラミナミ,YOKOMAKURA MINAMI,,34.677834,135.607255
三ノ瀬三丁目,サンノセ 3,SANNOSE 3,,34.659556,135.567182
御厨五丁目,ミクリヤ 5,MIKURIYA 5,,34.671177,135.589238
足代南二丁目,アジロミナミ 2,AJIROMINAMI 2,,34.6609,135.564772
三ノ瀬二丁目,サンノセ 2,SANNOSE 2,,34.659112,135.566061
西堤西,ニシツツミニシ,NISHITSUTSUMI NISHI,,34.676899,135.574458
上小阪一丁目,カミコサカ 1,KAMIKOSAKA 1,,34.654916,135.581314
藤戸新田二丁目,フジトシンデン 2,FUJITOSHINDEN 2,,34.673677,135.58872
寺前町一丁目,テラマエチョウ 1,TERAMAECHO 1,,34.656753,135.565971
長田東五丁目,ナガタヒガシ 5,NAGATA HIGASHI 5,,34.684572,135.593365
西堤学園町一丁目,ニシヅツミガクエンチョウ 1,NISHIZUTSUMI GAKUENCHO 1,,34.671105,135.582058
俊徳町一丁目,シュントクチョウ 1,SHUNTOKUCHO 1,,34.657259,135.570766
大蓮北一丁目,オオハスキタ 1,OHASU KITA 1,,34.639363,135.578444
御厨西ノ町一丁目,ミクリヤニシノチョウ 1,MIKURIYA NISHINOCHO 1,,34.672031,135.583199
寺前町二丁目,テラマエチョウ 2,TERAMAECHO 2,,34.654235,135.566456
西堤楠町二丁目,ニシヅツミクスノキチョウ 2,NISHIZUTSUMI KUSUNOKICHO 2,,34.6735,135.576234
徳庵本町,トクアンホンマチ,TOKUANHOMMACHI,,34.694099,135.582237
東上小阪,ヒガシカミコサカ,HIGASHIKAMIKOSAKA,,34.65319,135.591301
岸田堂西一丁目,キシダドウニシ 1,KISHIDADO NISHI 1,,34.65537,135.560721
高井田西五丁目,タカイダニシ 5,TAKAIDA NISHI 5,,34.677395,135.564409
高井田本通五丁目,タカイダホンドオリ 5,TAKAIDA HONDORI 5,,34.676846,135.5662
長田中五丁目,ナガタナカ 5,NAGATA NAKA 5,,34.684473,135.5903
御厨二丁目,ミクリヤ 2,MIKURIYA 2,,34.674304,135.584939
御厨西ノ町二丁目,ミクリヤニシノチョウ 2,MIKURIYA NISHINOCHO 2,,34.676057,135.583363
西堤二丁目,ニシヅツミ 2,NISHIZUTSUMI 2,,34.678132,135.580364
瓜生堂三丁目,ウリュウドウ 3,URYUDO 3,,34.663047,135.59662
岸田堂北町,キシダドウキタマチ,KISHIDADO KITAMACHI,,34.656429,135.564328
俊徳町三丁目,シュントクチョウ 3,SHUNTOKUCHO 3,,34.655241,135.57191
御厨四丁目,ミクリヤ 4,MIKURIYA 4,,34.671484,135.587605
俊徳町二丁目,シュントクチョウ 2,SHUNTOKUCHO 2,,34.65625,135.571164
高井田本通三丁目,タカイダホンドオリ 3,TAKAIDA HONDORI 3,,34.673968,135.56606
足代二丁目,アジロ 2,AJIRO 2,,34.662566,135.563804
太平寺一丁目,タイヘイジ 1,TAIHEIJI 1,,34.656772,135.567891
新家一丁目,シンケ 1,SHINKE 1,,34.672488,135.591169
高井田西四丁目,タカイダニシ 4,TAKAIDA NISHI 4,,34.67559,135.564179
長田中一丁目,ナガタナカ 1,NAGATA NAKA 1,,34.678071,135.589902
金岡二丁目,カナオカ 2,KANAOKA 2,,34.639162,135.584034
足代南一丁目,アジロミナミ 1,AJIROMINAMI 1,,34.659867,135.562371
長田西三丁目,ナガタニシ 3,NAGATA NISHI 3,,34.679639,135.58355
御厨南一丁目,ミクリヤミナミ 1,MIKURIYA MINAMI 1,,34.666184,135.587872
若江北町一丁目,ワカエキタマチ 1,WAKAE KITAMACHI 1,,34.660565,135.600453
長田一丁目,ナガタ 1,NAGATA 1,,34.676001,135.586015
中野二丁目,ナカノ 2,NAKANO 2,,34.682402,135.612094
宝持二丁目,ホウジ 2,HOJI 2,,34.654809,135.588224
高井田本通六丁目,タカイダホンドオリ 6,TAKAIDA HONDORI 6,,34.67688,135.567788
高井田本通一丁目,タカイダホンドオリ 1,TAKAIDA HONDORI 1,,34.670764,135.565908
西堤学園町二丁目,ニシヅツミガクエンチョウ 2,NISHIZUTSUMI GAKUENCHO 2,,34.673512,135.58193
足代三丁目,アジロ 3,AJIRO 3,,34.662477,135.565426
中野南,ナカノミナミ,NAKANO MINAMI,,34.677424,135.609178
小若江四丁目,コワカエ 4,KOWAKAE 4,,34.652194,135.583613
長田西五丁目,ナガタニシ 5,NAGATA NISHI 5,,34.681225,135.583559
西堤本通西二丁目,ニシヅツミホンドオリニシ 2,NISHIZUTSUMI HONDORINISHI 2,,34.673334,135.578152
宝持一丁目,ホウジ 1,HOJI 1,,34.656388,135.587004
新家東町,シンケヒガシマチ,SHINKE HIGASHIMACHI,,34.674793,135.596214
西堤本通西三丁目,ニシヅツミホンドオリニシ 3,NISHIZUTSUMI HONDORINISHI 3,,34.676016,135.577962
若江本町一丁目,ワカエホンマチ 1,WAKAE HOMMACHI 1,,34.658519,135.607719
本庄二丁目,ホンジョウ 2,HONJO 2,,34.683676,135.607381
菱屋西五丁目,ヒシヤニシ 5,HISHIYANISHI 5,,34.665457,135.578259
西堤本通東二丁目,ニシヅツミホンドオリヒガシ 2,NISHIZUTSUMI HONDORIHIGASHI 2,,34.673435,135.580077
荒本西二丁目,アラモトニシ 2,ARAMOTO NISHI 2,,34.674204,135.599635
御厨栄町一丁目,ミクリヤサカエマチ 1,MIKURIYA SAKAEMACHI 1,,34.66633,135.581934
高井田中二丁目,タカイダナカ 2,TAKAIDA NAKA 2,,34.671554,135.570245
西堤本通東一丁目,ニシヅツミホンドオリヒガシ 1,NISHIZUTSUMI HONDORIHIGASHI 1,,34.67093,135.580363
足代北一丁目,アジロキタ 1,AJIROKITA 1,,34.666838,135.558385
長田西一丁目,ナガタニシ 1,NAGATA NISHI 1,,34.677886,135.583444
御厨中二丁目,ミクリヤナカ 2,MIKURIYA NAKA 2,,34.668964,135.589545
花園西町二丁目,ハナゾノニシマチ 2,HANAZONO NISHIMACHI 2,,34.658564,135.615013
新庄東,シンジョウヒガシ,SHINJO HIGASHI,,34.687613,135.608155
高井田西一丁目,タカイダニシ 1,TAKAIDA NISHI 1,,34.669905,135.563549
藤戸新田一丁目,フジトシンデン 1,FUJITOSHINDEN 1,,34.674258,135.586967
御厨栄町三丁目,ミクリヤサカエマチ 3,MIKURIYA SAKAEMACHI 3,,34.668695,135.584282
鴻池町二丁目,コウノイケチョウ 2,KONOIKECHO 2,,34.69726,135.60507
吉松一丁目,ヨシマツ 1,YOSHIMATSU 1,,34.647992,135.577533
西堤本通東三丁目,ニシヅツミホンドオリヒガシ 3,NISHIZUTSUMI HONDORIHIGASHI 3,,34.676146,135.579823
新家中町,シンケナカマチ,SHINKE NAKAMACHI,,34.674711,135.593679
池島町一丁目,イケシマチョウ 1,IKESHIMACHO 1,,34.649684,135.633819
川中,カワナカ,KAWANAKA,,34.682368,135.628433
御厨三丁目,ミクリヤ 3,MIKURIYA 3,,34.671783,135.586186
高井田本通四丁目,タカイダホンドオリ 4,TAKAIDA HONDORI 4,,34.673879,135.567637
友井一丁目,トモイ 1,TOMOI 1,,34.644115,135.5832
長田西四丁目,ナガタニシ 4,NAGATA NISHI 4,,34.679826,135.586208
玉串町西一丁目,タマクシチョウニシ 1,TAMAKUSHICHO NISHI 1,,34.656452,135.6156
俊徳町四丁目,シュントクチョウ 4,SHUNTOKUCHO 4,,34.65426,135.571928
御厨一丁目,ミクリヤ 1,MIKURIYA 1,,34.671726,135.584348
西堤学園町三丁目,ニシヅツミガクエンチョウ 3,NISHIZUTSUMI GAKUENCHO 3,,34.676255,135.581776
御厨六丁目,ミクリヤ 6,MIKURIYA 6,,34.671128,135.591079
高井田西二丁目,タカイダニシ 2,TAKAIDA NISHI 2,,34.671657,135.563691
大蓮東三丁目,オオハスヒガシ 3,OHASU HIGASHI 3,,34.636439,135.582417
長田西二丁目,ナガタニシ 2,NAGATA NISHI 2,,34.677527,135.586133
小阪三丁目,コサカ 3,KOSAKA 3,,34.664151,135.591588
横沼町二丁目,ヨコヌマチョウ 2,YOKONUMACHO 2,,34.655259,135.575934
高井田西六丁目,タカイダニシ 6,TAKAIDA NISHI 6,,34.678969,135.565224
新池島町四丁目,シンイケシマチョウ 4,SHINIKESHIMACHO 4,,34.661581,135.629351
長田三丁目,ナガタ 3,NAGATA 3,,34.676394,135.59483
若江南町四丁目,ワカエミナミマチ 4,WAKAE MINAMIMACHI 4,,34.651465,135.603342
御厨南三丁目,ミクリヤミナミ 3,MIKURIYA MINAMI 3,,34.666276,135.592064
長田西六丁目,ナガタニシ 6,NAGATA NISHI 6,,34.681162,135.586614
西鴻池町三丁目,ニシコウノイケチョウ 3,NISHIKONOIKECHO 3,,34.698033,135.590282
東鴻池町三丁目,ヒガシコウノイケチョウ 3,HIGASHIKONOIKECHO 3,,34.690581,135.614639
若江南町三丁目,ワカエミナミマチ 3,WAKAE MINAMIMACHI 3,,34.65368,135.600191
横沼町一丁目,ヨコヌマチョウ 1,YOKONUMACHO 1,,34.652854,135.57633
中小阪二丁目,ナカコサカ 2,NAKAKOSAKA 2,,34.659492,135.58693
高井田本通二丁目,タカイダホンドオリ 2,TAKAIDA HONDORI 2,,34.670707,135.567482
上小阪二丁目,カミコサカ 2,KAMIKOSAKA 2,,34.654802,135.582736
長田東四丁目,ナガタヒガシ 4,NAGATA HIGASHI 4,,34.683014,135.593588
西堤一丁目,ニシヅツミ 1,NISHIZUTSUMI 1,,34.678055,135.576791
西上小阪,ニシカミコサカ,NISHIKAMIKOSAKA,,34.651988,135.580493
若江東町三丁目,ワカエヒガシマチ 3,WAKAE HIGASHIMACHI 3,,34.656225,135.60943
菱江五丁目,ヒシエ 5,HISHIE 5,,34.672012,135.608658
長瀬町二丁目,ナガセチョウ 2,NAGASECHO 2,,34.649294,135.574508
高井田中四丁目,タカイダナカ 4,TAKAIDA NAKA 4,,34.675423,135.570311
菱屋東三丁目,ヒシヤヒガシ 3,HISHIYAHIGASHI 3,,34.673595,135.605815
若江東町一丁目,ワカエヒガシマチ 1,WAKAE HIGASHIMACHI 1,,34.658534,135.611081
長堂二丁目,チョウドウ 2,CHODO 2,,34.666674,135.565485
長田中四丁目,ナガタナカ 4,NAGATA NAKA 4,,34.683018,135.590208
寿町二丁目,コトブキチョウ 2,KOTOBUKICHO 2,,34.651177,135.567117
新喜多二丁目,シギタ 2,SHIGITA 2,,34.6721,135.57517
高井田中五丁目,タカイダナカ 5,TAKAIDA NAKA 5,,34.677234,135.57038
西堤楠町三丁目,ニシヅツミクスノキチョウ 3,NISHIZUTSUMI KUSUNOKICHO 3,,34.675804,135.575898
長田中三丁目,ナガタナカ 3,NAGATA NAKA 3,,34.681035,135.590465
高井田西三丁目,タカイダニシ 3,TAKAIDA NISHI 3,,34.673619,135.563869
松原二丁目,マツバラ 2,MATSUBARA 2,,34.672781,135.631212
若江本町三丁目,ワカエホンマチ 3,WAKAE HOMMACHI 3,,34.65614,135.607225
若江南町五丁目,ワカエミナミマチ 5,WAKAE MINAMIMACHI 5,,34.651612,135.599922
宝持四丁目,ホウジ 4,HOJI 4,,34.656073,135.591882
新喜多一丁目,シギタ 1,SHIGITA 1,,34.672651,135.573927
菱屋西二丁目,ヒシヤニシ 2,HISHIYANISHI 2,,34.653744,135.577948
上小阪四丁目,カミコサカ 4,KAMIKOSAKA 4,,34.653975,135.587389
若江東町五丁目,ワカエヒガシマチ 5,WAKAE HIGASHIMACHI 5,,34.651592,135.611661
菱江四丁目,ヒシエ 4,HISHIE 4,,34.674755,135.608912
足代北二丁目,アジロキタ 2,AJIROKITA 2,,34.666668,135.560799
高井田本通七丁目,タカイダホンドオリ 7,TAKAIDA HONDORI 7,,34.678945,135.569511
金岡四丁目,カナオカ 4,KANAOKA 4,,34.634113,135.588189
柏田西一丁目,カシタニシ 1,KASHITA NISHI 1,,34.649281,135.567565
箕輪一丁目,ミノワ 1,MINOWA 1,,34.684139,135.612482
若江本町二丁目,ワカエホンマチ 2,WAKAE HOMMACHI 2,,34.658568,135.60468
善根寺町二丁目,ゼンコンジチョウ 2,ZENKONJICHO 2,,34.698417,135.646322
大蓮南一丁目,オオハスミナミ 1,OHASU MINAMI 1,,34.635185,135.579705
太平寺二丁目,タイヘイジ 2,TAIHEIJI 2,,34.654289,135.568171
大蓮東五丁目,オオハスヒガシ 5,OHASU HIGASHI 5,,34.633722,135.582762
玉串町西二丁目,タマクシチョウニシ 2,TAMAKUSHICHO NISHI 2,,34.653918,135.615111
御厨栄町四丁目,ミクリヤサカエマチ 4,MIKURIYA SAKAEMACHI 4,,34.666438,135.58524
長田中二丁目,ナガタナカ 2,NAGATA NAKA 2,,34.679479,135.589989
南鴻池町一丁目,ミナミコウノイケチョウ 1,MINAMIKONOIKECHO 1,,34.694352,135.598852
大蓮北二丁目,オオハスキタ 2,OHASU KITA 2,,34.637194,135.579583
西鴻池町四丁目,ニシコウノイケチョウ 4,NISHIKONOIKECHO 4,,34.700468,135.590783
中小阪三丁目,ナカコサカ 3,NAKAKOSAKA 3,,34.657728,135.587341
俊徳町五丁目,シュントクチョウ 5,SHUNTOKUCHO 5,,34.653225,135.571926
鴻池元町,コウノイケモトマチ,KONOIKE MOTOMACHI,,34.698024,135.600559
大蓮南二丁目,オオハスミナミ 2,OHASU MINAMI 2,,34.633259,135.579822
池島町二丁目,イケシマチョウ 2,IKESHIMACHO 2,,34.652729,135.634319
大蓮南三丁目,オオハスミナミ 3,OHASU MINAMI 3,,34.633194,135.576358
下六万寺町二丁目,シモロクマンジチョウ 2,SHIMOROKUMANJICHO 2,,34.653077,135.637306
中石切町七丁目,ナカイシキリチョウ 7,NAKAISHIKIRICHO 7,,34.686475,135.634991
上小阪三丁目,カミコサカ 3,KAMIKOSAKA 3,,34.654563,135.584881
吉松二丁目,ヨシマツ 2,YOSHIMATSU 2,,34.64722,135.575885
西堤本通西一丁目,ニシヅツミホンドオリニシ 1,NISHIZUTSUMI HONDORINISHI 1,,34.670674,135.577855
三ノ瀬一丁目,サンノセ 1,SANNOSE 1,,34.659144,135.564322
若江北町二丁目,ワカエキタマチ 2,WAKAE KITAMACHI 2,,34.658569,135.601043
若江南町一丁目,ワカエミナミマチ 1,WAKAE MINAMIMACHI 1,,34.652659,135.605789
足代新町,アジロシンマチ,AJIROSHIMMACHI,,34.664874,135.559582
西石切町四丁目,ニシイシキリチョウ 4,NISHIISHIKIRICHO 4,,34.683867,135.637768
長田東三丁目,ナガタヒガシ 3,NAGATA HIGASHI 3,,34.681131,135.593855
新家西町,シンケニシマチ,SHINKE NISHIMACHI,,34.674547,135.590486
吉原一丁目,ヨシハラ 1,YOSHIHARA 1,,34.685862,135.61956
小阪本町一丁目,コサカホンマチ 1,KOSAKAHOMMACHI 1,,34.662379,135.581117
出雲井本町,イズモイホンマチ,IZUMOIHOMMACHI,,34.669424,135.646556
角田三丁目,スミダ 3,SUMIDA 3,,34.683145,135.617222
西石切町六丁目,ニシイシキリチョウ 6,NISHIISHIKIRICHO 6,,34.684044,135.634976
菱屋西三丁目,ヒシヤニシ 3,HISHIYANISHI 3,,34.66039,135.579448
横沼町三丁目,ヨコヌマチョウ 3,YOKONUMACHO 3,,34.65665,135.575629
花園東町三丁目,ハナゾノヒガシマチ 3,HANAZONO HIGASHIMACHI 3,,34.658271,135.623871
御厨南二丁目,ミクリヤミナミ 2,MIKURIYA MINAMI 2,,34.666144,135.590003
新家三丁目,シンケ 3,SHINKE 3,,34.672147,135.596305
小阪二丁目,コサカ 2,KOSAKA 2,,34.664686,135.586373
寿町一丁目,コトブキチョウ 1,KOTOBUKICHO 1,,34.650877,135.569539
金物町,カナモノチョウ,KANAMONOCHO,,34.644095,135.593217
衣摺一丁目,キズリ 1,KIZURI 1,,34.643129,135.576483
岸田堂西二丁目,キシダドウニシ 2,KISHIDADO NISHI 2,,34.653966,135.561176
下六万寺町一丁目,シモロクマンジチョウ 1,SHIMOROKUMANJICHO 1,,34.650985,135.636955
金岡三丁目,カナオカ 3,KANAOKA 3,,34.63686,135.586013
長田東一丁目,ナガタヒガシ 1,NAGATA HIGASHI 1,,34.677653,135.594405
川俣三丁目,カワマタ 3,KAWAMATA 3,,34.681319,135.579097
荒本北二丁目,アラモトキタ 2,ARAMOTO KITA 2,,34.68039,135.602373
川俣本町,カワマタホンマチ,KAWAMATAHOMMACHI,,34.681087,135.581028
近江堂二丁目,オウミドウ 2,OMIDO 2,,34.64667,135.583597
荒川一丁目,アラカワ 1,ARAKAWA 1,,34.662168,135.567713
菱江六丁目,ヒシエ 6,HISHIE 6,,34.674072,135.606934
西石切町五丁目,ニシイシキリチョウ 5,NISHIISHIKIRICHO 5,,34.681132,135.63755
小阪一丁目,コサカ 1,KOSAKA 1,,34.66494,135.581491
新家二丁目,シンケ 2,SHINKE 2,,34.672093,135.593685
若江南町二丁目,ワカエミナミマチ 2,WAKAE MINAMIMACHI 2,,34.653518,135.603193
若江西新町五丁目,ワカエニシシンマチ 5,WAKAE NISHISHIMMACHI 5,,34.65161,135.596228
吉田本町二丁目,ヨシタホンマチ 2,YOSHITA HOMMACHI 2,,34.673698,135.625094
岸田堂南町,キシダドウミナミマチ,KISHIDADO MINAMIMACHI,,34.654013,135.564465
西石切町七丁目,ニシイシキリチョウ 7,NISHIISHIKIRICHO 7,,34.681181,135.634836
長田東二丁目,ナガタヒガシ 2,NAGATA HIGASHI 2,,34.679349,135.594129
高井田中一丁目,タカイダナカ 1,TAKAIDA NAKA 1,,34.669945,135.57023
高井田中三丁目,タカイダナカ 3,TAKAIDA NAKA 3,,34.673415,135.570275
友井四丁目,トモイ 4,TOMOI 4,,34.641226,135.588895
荒本新町,アラモトシンマチ,ARAMOTO SHIMMACHI,,34.677541,135.604194
布市町四丁目,ヌノイチチョウ 4,NUNOICHICHO 4,,34.69679,135.639358
下小阪二丁目,シモコサカ 2,SHIMOKOSAKA 2,,34.662892,135.586452
小阪本町二丁目,コサカホンマチ 2,KOSAKAHOMMACHI 2,,34.658686,135.58108
横枕,ヨコマクラ,YOKOMAKURA,,34.680353,135.607522
渋川町四丁目,シブカワチョウ 4,SHIBUKAWACHO 4,,34.641889,135.563289
若江本町四丁目,ワカエホンマチ 4,WAKAE HOMMACHI 4,,34.656115,135.604558
金岡一丁目,カナオカ 1,KANAOKA 1,,34.642266,135.580779
永和三丁目,エイワ 3,EIWA 3,,34.65994,135.576872
東石切町五丁目,ヒガシイシキリチョウ 5,HIGASHIISHIKIRICHO 5,,34.684839,135.649679
渋川町一丁目,シブカワチョウ 1,SHIBUKAWACHO 1,,34.649201,135.56306
下小阪三丁目,シモコサカ 3,SHIMOKOSAKA 3,,34.660889,135.586483
吉田一丁目,ヨシタ 1,YOSHITA 1,,34.663958,135.61921
善根寺町五丁目,ゼンコンジチョウ 5,ZENKONJICHO 5,,34.700685,135.646338
中野一丁目,ナカノ 1,NAKANO 1,,34.680261,135.609965
玉串町西三丁目,タマクシチョウニシ 3,TAMAKUSHICHO NISHI 3,,34.651522,135.614768
荒本西四丁目,アラモトニシ 4,ARAMOTO NISHI 4,,34.677511,135.599255
本庄東,ホンジョウヒガシ,HONJO HIGASHI,,34.686241,135.608639
大蓮南五丁目,オオハスミナミ 5,OHASU MINAMI 5,,34.634968,135.571018
箕輪三丁目,ミノワ 3,MINOWA 3,,34.686931,135.614226
桜町,サクラマチ,SAKURAMACHI,,34.664916,135.633633
近江堂三丁目,オウミドウ 3,OMIDO 3,,34.646534,135.587728
東石切町三丁目,ヒガシイシキリチョウ 3,HIGASHIISHIKIRICHO 3,,34.680857,135.652427
小若江二丁目,コワカエ 2,KOWAKAE 2,,34.6496,135.584505
大蓮南四丁目,オオハスミナミ 4,OHASU MINAMI 4,,34.635053,135.575707
元町二丁目,モトマチ 2,MOTOMACHI 2,,34.697793,135.635777
元町一丁目,モトマチ 1,MOTOMACHI 1,,34.694872,135.634218
島之内一丁目,シマノウチ 1,SHIMANOCHI 1,,34.677843,135.618272
中石切町一丁目,ナカイシキリチョウ 1,NAKAISHIKIRICHO 1,,34.683684,135.645103
新庄一丁目,シンジョウ 1,SHINJO 1,,34.689613,135.604926
日下町三丁目,クサカチョウ 3,KUSAKACHO 3,,34.691765,135.64579
本庄一丁目,ホンジョウ 1,HONJO 1,,34.683408,135.609442
吉田二丁目,ヨシタ 2,YOSHITA 2,,34.667912,135.618872
大蓮東四丁目,オオハスヒガシ 4,OHASU HIGASHI 4,,34.633715,135.58565
下小阪五丁目,シモコサカ 5,SHIMOKOSAKA 5,,34.662797,135.591453
西鴻池町二丁目,ニシコウノイケチョウ 2,NISHIKONOIKECHO 2,,34.698466,135.594885
稲田新町一丁目,イナダシンマチ 1,INADASHIMMACHI 1,,34.689369,135.583428
下小阪四丁目,シモコサカ 4,SHIMOKOSAKA 4,,34.661203,135.591427
長田二丁目,ナガタ 2,NAGATA 2,,34.676357,135.590014
大蓮東二丁目,オオハスヒガシ 2,OHASU HIGASHI 2,,34.637581,135.582962
河内町,カワチチョウ,KAWACHICHO,,34.664983,135.645476
菱屋東二丁目,ヒシヤヒガシ 2,HISHIYAHIGASHI 2,,34.669919,135.607597
大蓮北三丁目,オオハスキタ 3,OHASU KITA 3,,34.637267,135.575583
御厨中一丁目,ミクリヤナカ 1,MIKURIYA NAKA 1,,34.668881,135.587018
荒本西三丁目,アラモトニシ 3,ARAMOTO NISHI 3,,34.676199,135.599593
本庄中二丁目,ホンジョウナカ 2,HONJO NAKA 2,,34.686249,135.604049
東鴻池町四丁目,ヒガシコウノイケチョウ 4,HIGASHIKONOIKECHO 4,,34.693783,135.608302
吉田八丁目,ヨシタ 8,YOSHITA 8,,34.665308,135.630191
東石切町二丁目,ヒガシイシキリチョウ 2,HIGASHIISHIKIRICHO 2,,34.680848,135.650343
御厨栄町二丁目,ミクリヤサカエマチ 2,MIKURIYA SAKAEMACHI 2,,34.668496,135.581518
足代一丁目,アジロ 1,AJIRO 1,,34.662776,135.56105
中鴻池町二丁目,ナカコウノイケチョウ 2,NAKAKONOIKECHO 2,,34.696322,135.598825
花園本町一丁目,ハナゾノホンマチ 1,HANAZONO HOMMACHI 1,,34.661492,135.617843
菱屋西六丁目,ヒシヤニシ 6,HISHIYANISHI 6,,34.667818,135.578403
日下町四丁目,クサカチョウ 4,KUSAKACHO 4,,34.692271,135.643162
箕輪二丁目,ミノワ 2,MINOWA 2,,34.687289,135.611446
西石切町三丁目,ニシイシキリチョウ 3,NISHIISHIKIRICHO 3,,34.681052,135.64055
中小阪五丁目,ナカコサカ 5,NAKAKOSAKA 5,,34.659544,135.591564
友井三丁目,トモイ 3,TOMOI 3,,34.640922,135.58527
新庄南,シンジョウミナミ,SHINJO MINAMI,,34.687519,135.604339
西岩田一丁目,ニシイワタ 1,NISHIIWATA 1,,34.664977,135.603228
西石切町二丁目,ニシイシキリチョウ 2,NISHIISHIKIRICHO 2,,34.683649,135.640943
瓜生堂二丁目,ウリュウドウ 2,URYUDO 2,,34.660541,135.604139
長瀬町一丁目,ナガセチョウ 1,NAGASECHO 1,,34.651139,135.574813
稲田三島町,イナダミシマチョウ,INADAMISHIMACHO,,34.694416,135.590796
新庄西,シンジョウニシ,SHINJO NISHI,,34.688541,135.599482
本庄西二丁目,ホンジョウニシ 2,HONJO NISHI 2,,34.686262,135.599475
西岩田二丁目,ニシイワタ 2,NISHIIWATA 2,,34.664962,135.600184
長瀬町三丁目,ナガセチョウ 3,NAGASECHO 3,,34.65065,135.571671
日下町五丁目,クサカチョウ 5,KUSAKACHO 5,,34.695815,135.642689
柏田西三丁目,カシタニシ 3,KASHITA NISHI 3,,34.64435,135.567052
高井田元町一丁目,タカイダモトマチ 1,TAKAIDA MOTOMACHI 1,,34.666543,135.573365
鴻池本町,コウノイケホンマチ,KONOIKE HOMMACHI,,34.700058,135.600883
若江西新町二丁目,ワカエニシシンマチ 2,WAKAE NISHISHIMMACHI 2,,34.658633,135.596683
池島町六丁目,イケシマチョウ 6,IKESHIMACHO 6,,34.645925,135.627216
岩田町三丁目,イワタチョウ 3,IWATACHO 3,,34.661293,135.607872
岩田町四丁目,イワタチョウ 4,IWATACHO 4,,34.664195,135.607161
菱屋東一丁目,ヒシヤヒガシ 1,HISHIYAHIGASHI 1,,34.666325,135.611547
荒本北三丁目,アラモトキタ 3,ARAMOTO KITA 3,,34.684044,135.595962
北鴻池町,キタコウノイケチョウ,KITAKONOIKECHO,,34.7019,135.594102
中小阪四丁目,ナカコサカ 4,NAKAKOSAKA 4,,34.657738,135.59171
宝持三丁目,ホウジ 3,HOJI 3,,34.654168,135.591915
東石切町一丁目,ヒガシイシキリチョウ 1,HIGASHIISHIKIRICHO 1,,34.681554,135.647133
加納一丁目,カノウ 1,KANO 1,,34.694377,135.619693
東石切町六丁目,ヒガシイシキリチョウ 6,HIGASHIISHIKIRICHO 6,,34.687733,135.652513
御厨東一丁目,ミクリヤヒガシ 1,MIKURIYA HIGASHI 1,,34.668004,135.592357
本庄西三丁目,ホンジョウニシ 3,HONJO NISHI 3,,34.687177,135.595697
中小阪一丁目,ナカコサカ 1,NAKAKOSAKA 1,,34.657863,135.583731
南鴻池町二丁目,ミナミコウノイケチョウ 2,MINAMIKONOIKECHO 2,,34.694387,135.603474
稲葉四丁目,イナバ 4,INABA 4,,34.667081,135.612877
中鴻池町三丁目,ナカコウノイケチョウ 3,NAKAKONOIKECHO 3,,34.696132,135.604001
川田一丁目,カワダ 1,KAWADA 1,,34.690354,135.618372
下小阪一丁目,シモコサカ 1,SHIMOKOSAKA 1,,34.661512,135.583053
稲田本町三丁目,イナダホンマチ 3,INADAHOMMACHI 3,,34.689337,135.580538
額田町,ヌカタチョウ,NUKATACHO,,34.677791,135.650442
花園東町一丁目,ハナゾノヒガシマチ 1,HANAZONO HIGASHIMACHI 1,,34.659999,135.620898
本庄西一丁目,ホンジョウニシ 1,HONJO NISHI 1,,34.683666,135.599608
衣摺二丁目,キズリ 2,KIZURI 2,,34.643969,135.57186
柏田東町,カシタヒガシマチ,KASHITA HIGASHIMACHI,,34.646795,135.573997
下六万寺町三丁目,シモロクマンジチョウ 3,SHIMOROKUMANJICHO 3,,34.654722,135.636054
善根寺町三丁目,ゼンコンジチョウ 3,ZENKONJICHO 3,,34.698282,135.641287
日下町六丁目,クサカチョウ 6,KUSAKACHO 6,,34.695248,135.646215
花園西町一丁目,ハナゾノニシマチ 1,HANAZONO NISHIMACHI 1,,34.661184,135.614387
御幸町,ミユキチョウ,MIYUKICHO,,34.658978,135.637333
中新開一丁目,ナカシンカイ 1,NAKASHINKAI 1,,34.681992,135.619407
布市町二丁目,ヌノイチチョウ 2,NUNOICHICHO 2,,34.692982,135.638522
西鴻池町一丁目,ニシコウノイケチョウ 1,NISHIKONOIKECHO 1,,34.699736,135.594923
六万寺町二丁目,ロクマンジチョウ 2,ROKUMANJICHO 2,,34.650817,135.641293
永和一丁目,エイワ 1,EIWA 1,,34.660838,135.573179
神田町,カンダチョウ,KANDACHO,,34.660957,135.637419
中石切町六丁目,ナカイシキリチョウ 6,NAKAISHIKIRICHO 6,,34.689484,135.635228
稲葉三丁目,イナバ 3,INABA 3,,34.665473,135.61728
衣摺六丁目,キズリ 6,KIZURI 6,,34.640546,135.566484
横枕西,ヨコマクラニシ,YOKOMAKURA NISHI,,34.680384,135.604872
花園本町二丁目,ハナゾノホンマチ 2,HANAZONO HOMMACHI 2,,34.658612,135.618018
玉串町東一丁目,タマクシチョウヒガシ 1,TAMAKUSHICHO HIGASHI 1,,34.65646,135.622653
新鴻池町,シンコウノイケチョウ,SHINKONOIKECHO,,34.690427,135.612668
小若江一丁目,コワカエ 1,KOWAKAE 1,,34.649939,135.581329
若江東町二丁目,ワカエヒガシマチ 2,WAKAE HIGASHIMACHI 2,,34.656941,135.612059
渋川町二丁目,シブカワチョウ 2,SHIBUKAWACHO 2,,34.646885,135.563071
荒本一丁目,アラモト 1,ARAMOTO 1,,34.672067,135.60342
玉串元町一丁目,タマクシモトマチ 1,TAMAKUSHIMOTOMACHI 1,,34.655298,135.6182
若江東町四丁目,ワカエヒガシマチ 4,WAKAE HIGASHIMACHI 4,,34.653814,135.61146
鳥居町,トリイチョウ,TORIICHO,,34.669145,135.642693
大蓮東一丁目,オオハスヒガシ 1,OHASU HIGASHI 1,,34.64153,135.578531
中鴻池町一丁目,ナカコウノイケチョウ 1,NAKAKONOIKECHO 1,,34.696386,135.594381
寿町三丁目,コトブキチョウ 3,KOTOBUKICHO 3,,34.651358,135.564008
森河内東二丁目,モリカワチヒガシ 2,MORIKAWACHI HIGASHI 2,,34.683384,135.571395
新庄二丁目,シンジョウ 2,SHINJO 2,,34.691392,135.602346
新庄三丁目,シンジョウ 3,SHINJO 3,,34.692269,135.606229
柏田西二丁目,カシタニシ 2,KASHITA NISHI 2,,34.647091,135.56735
荒本二丁目,アラモト 2,ARAMOTO 2,,34.675139,135.603638
角田二丁目,スミダ 2,SUMIDA 2,,34.682347,135.614675
大蓮北四丁目,オオハスキタ 4,OHASU KITA 4,,34.63716,135.570924
上石切町一丁目,カミイシキリチョウ 1,KAMIISHIKIRICHO(2-CHOME863.1451-BAN 1,,34.681588,135.654625
菱屋西四丁目,ヒシヤニシ 4,HISHIYANISHI 4,,34.660581,135.578345
荒川二丁目,アラカワ 2,ARAKAWA 2,,34.659259,135.569442
稲葉二丁目,イナバ 2,INABA 2,,34.669312,135.6168
若江西新町四丁目,ワカエニシシンマチ 4,WAKAE NISHISHIMMACHI 4,,34.653971,135.596643
中石切町四丁目,ナカイシキリチョウ 4,NAKAISHIKIRICHO 4,,34.688615,135.645421
源氏ケ丘,ゲンジガオカ,GENJIGAOKA,,34.644876,135.579431
若江北町三丁目,ワカエキタマチ 3,WAKAE KITAMACHI 3,,34.656163,135.601153
渋川町三丁目,シブカワチョウ 3,SHIBUKAWACHO 3,,34.644271,135.56324
近江堂一丁目,オウミドウ 1,OMIDO 1,,34.645472,135.581125
末広町,スエヒロチョウ,SUEHIROCHO,,34.656738,135.637159
箱殿町,ハコドノチョウ,HAKODONOCHO,,34.671872,135.642783
玉串町東二丁目,タマクシチョウヒガシ 2,TAMAKUSHICHO HIGASHI 2,,34.652982,135.620737
西石切町一丁目,ニシイシキリチョウ 1,NISHIISHIKIRICHO 1,,34.681089,135.643902
若草町,ワカクサチョウ,WAKAKUSACHO,,34.658661,135.63367
花園東町二丁目,ハナゾノヒガシマチ 2,HANAZONO HIGASHIMACHI 2,,34.660946,135.62395
吉田六丁目,ヨシタ 6,YOSHITA 6,,34.664944,135.625744
南四条町,ミナミシジョウチョウ,MINAMISHIJOCHO,,34.657061,135.642669
布市町一丁目,ヌノイチチョウ 1,NUNOICHICHO 1,,34.692972,135.640764
三島一丁目,ミシマ 1,MISHIMA 1,,34.691738,135.599308
岩田町六丁目,イワタチョウ 6,IWATACHO 6,,34.668513,135.603989
豊浦町,トヨウラチョウ,TOYORACHO,,34.672043,135.647288
本町,ホンマチ,HOMMACHI,,34.663522,135.642147
吉田九丁目,ヨシタ 9,YOSHITA 9,,34.664938,135.632014
吉田四丁目,ヨシタ 4,YOSHITA 4,,34.670226,135.622282
今米二丁目,イマゴメ 2,IMAGOME 2,,34.686125,135.627521
横小路町三丁目,ヨコショウジチョウ 3,YOKOSHOJICHO 3,,34.64704,135.641898
楠根一丁目,クスネ 1,KUSUNE 1,,34.683173,135.585102
玉串元町二丁目,タマクシモトマチ 2,TAMAKUSHIMOTOMACHI 2,,34.651958,135.617993
鴻池徳庵町,コウノイケトクアンチョウ,KONOIKE TOKUANCHO,,34.697998,135.586306
三島二丁目,ミシマ 2,MISHIMA 2,,34.69209,135.596396
荒本西一丁目,アラモトニシ 1,ARAMOTO NISHI 1,,34.672202,135.59963
若江西新町三丁目,ワカエニシシンマチ 3,WAKAE NISHISHIMMACHI 3,,34.656303,135.596765
川田四丁目,カワダ 4,KAWADA 4,,34.689698,135.62864
加納二丁目,カノウ 2,KANO 2,,34.693899,135.62224
瓢箪山町,ヒョウタンヤマチョウ,HYOTANYAMACHO,,34.661267,135.643496
菱屋西一丁目,ヒシヤニシ 1,HISHIYANISHI 1,,34.652809,135.5789
吉田本町三丁目,ヨシタホンマチ 3,YOSHITA HOMMACHI 3,,34.678129,135.624493
稲田上町一丁目,イナダウエマチ 1,INADAUEMACHI 1,,34.692348,135.583857
御厨東二丁目,ミクリヤヒガシ 2,MIKURIYA HIGASHI 2,,34.667895,135.594785
柏田本町,カシタホンマチ,KASHITA HOMMACHI,,34.646615,135.571114
新池島町三丁目,シンイケシマチョウ 3,SHINIKESHIMACHO 3,,34.658292,135.626889
松原南二丁目,マツバラミナミ 2,MATSUBARAMINAMI 2,,34.670047,135.631113
友井五丁目,トモイ 5,TOMOI 5,,34.643662,135.591051
楠根三丁目,クスネ 3,KUSUNE 3,,34.687125,135.585153
日下町二丁目,クサカチョウ 2,KUSAKACHO 2,,34.691717,135.649861
瓜生堂一丁目,ウリュウドウ 1,URYUDO 1,,34.662251,135.602778
水走四丁目,ミズハイ 4,MIZUHAI 4,,34.685666,135.631497
水走五丁目,ミズハイ 5,MIZUHAI 5,,34.689692,135.631788
四条町,シジョウチョウ,SHIJOCHO,,34.658824,135.642832
若江東町六丁目,ワカエヒガシマチ 6,WAKAE HIGASHIMACHI 6,,34.652668,135.608334
本庄中一丁目,ホンジョウナカ 1,HONJO NAKA 1,,34.683719,135.60403
新池島町一丁目,シンイケシマチョウ 1,SHINIKESHIMACHO 1,,34.658167,135.631519
吉田七丁目,ヨシタ 7,YOSHITA 7,,34.664869,135.628071
吉田三丁目,ヨシタ 3,YOSHITA 3,,34.667742,135.621811
川田三丁目,カワダ 3,KAWADA 3,,34.689823,135.625426
岩田町一丁目,イワタチョウ 1,IWATACHO 1,,34.664159,135.612401
角田一丁目,スミダ 1,SUMIDA 1,,34.679815,135.614691
池島町五丁目,イケシマチョウ 5,IKESHIMACHO 5,,34.643803,135.632125
新池島町二丁目,シンイケシマチョウ 2,SHINIKESHIMACHO 2,,34.658128,135.629241
立花町,タチバナチョウ,TACHIBANACHO,,34.674768,135.648578
川田二丁目,カワダ 2,KAWADA 2,,34.690023,135.621705
長栄寺,チョウエイジ,CHOEIJI,,34.666585,135.570754
松原一丁目,マツバラ 1,MATSUBARA 1,,34.673732,135.627531
稲田本町二丁目,イナダホンマチ 2,INADAHOMMACHI 2,,34.685114,135.57961
中新開二丁目,ナカシンカイ 2,NAKASHINKAI 2,,34.682387,135.622182
池島町七丁目,イケシマチョウ 7,IKESHIMACHO 7,,34.649161,135.627294
中石切町二丁目,ナカイシキリチョウ 2,NAKAISHIKIRICHO 2,,34.68588,135.646306
池島町四丁目,イケシマチョウ 4,IKESHIMACHO 4,,34.64919,135.630807
岩田町二丁目,イワタチョウ 2,IWATACHO 2,,34.661002,135.611052
鴻池町一丁目,コウノイケチョウ 1,KONOIKECHO 1,,34.699323,135.604748
高井田元町二丁目,タカイダモトマチ 2,TAKAIDA MOTOMACHI 2,,34.6666,135.575805
長堂三丁目,チョウドウ 3,CHODO 3,,34.666583,135.567671
吉田五丁目,ヨシタ 5,YOSHITA 5,,34.665182,135.623424
東鴻池町二丁目,ヒガシコウノイケチョウ 2,HIGASHIKONOIKECHO 2,,34.692248,135.615416
日下町七丁目,クサカチョウ 7,KUSAKACHO 7,,34.694247,135.650604
横小路町六丁目,ヨコショウジチョウ 6,YOKOSHOJICHO 6,,34.647155,135.634038
衣摺四丁目,キズリ 4,KIZURI 4,,34.639571,135.574306
新庄四丁目,シンジョウ 4,SHINJO 4,,34.690443,135.608885
六万寺町三丁目,ロクマンジチョウ 3,ROKUMANJICHO 3,,34.653796,135.641272
永和二丁目,エイワ 2,EIWA 2,,34.660798,135.574963
長堂一丁目,チョウドウ 1,CHODO 1,,34.666433,135.563458
池之端町,イケノハタチョウ,IKENOHATACHO,,34.696409,135.648969
衣摺三丁目,キズリ 3,KIZURI 3,,34.64146,135.573918
七軒家,シチケンヤ,SHICHIKENYA,,34.686842,135.591051
池島町三丁目,イケシマチョウ 3,IKESHIMACHO 3,,34.653274,135.630985
東鴻池町五丁目,ヒガシコウノイケチョウ 5,HIGASHIKONOIKECHO 5,,34.695321,135.610208
池島町八丁目,イケシマチョウ 8,IKESHIMACHO 8,,34.653262,135.627351
西岩田四丁目,ニシイワタ 4,NISHIIWATA 4,,34.6684,135.600689
若江西新町一丁目,ワカエニシシンマチ 1,WAKAE NISHISHIMMACHI 1,,34.661215,135.596616
横小路町四丁目,ヨコショウジチョウ 4,YOKOSHOJICHO 4,,34.646977,135.639545
松原南一丁目,マツバラミナミ 1,MATSUBARAMINAMI 1,,34.66943,135.627305
稲葉一丁目,イナバ 1,INABA 1,,34.669602,135.612351
水走二丁目,ミズハイ 2,MIZUHAI 2,,34.67772,135.627774
横小路町二丁目,ヨコショウジチョウ 2,YOKOSHOJICHO 2,,34.64686,135.644134
北石切町,キタイシキリチョウ,KITAISHIKIRICHO,,34.688581,135.649503
島之内二丁目,シマノウチ 2,SHIMANOCHI 2,,34.677815,135.621224
岩田町五丁目,イワタチョウ 5,IWATACHO 5,,34.667016,135.607212
吉田本町一丁目,ヨシタホンマチ 1,YOSHITA HOMMACHI 1,,34.673394,135.622648
古箕輪一丁目,コミノワ 1,KOMINOWA 1,,34.686638,135.617182
横小路町五丁目,ヨコショウジチョウ 5,YOKOSHOJICHO 5,,34.647166,135.636892
菱江二丁目,ヒシエ 2,HISHIE 2,,34.675139,135.613521
南上小阪,ミナミカミコサカ,MINAMIKAMIKOSAKA,,34.64727,135.592254
東石切町四丁目,ヒガシイシキリチョウ 4,HIGASHIISHIKIRICHO 4,,34.685458,135.652777
昭和町,ショウワチョウ,SHOWACHO,,34.663348,135.63739
菱江三丁目,ヒシエ 3,HISHIE 3,,34.67786,135.613685
布市町三丁目,ヌノイチチョウ 3,NUNOICHICHO 3,,34.693227,135.636032
衣摺五丁目,キズリ 5,KIZURI 5,,34.640578,135.569487
加納六丁目,カノウ 6,KANO 6,,34.70042,135.627349
楠根二丁目,クスネ 2,KUSUNE 2,,34.685114,135.584949
稲田本町一丁目,イナダホンマチ 1,INADAHOMMACHI 1,,34.685672,135.57689
中石切町三丁目,ナカイシキリチョウ 3,NAKAISHIKIRICHO 3,,34.68608,135.63978
吉原二丁目,ヨシハラ 2,YOSHIHARA 2,,34.686538,135.623208
喜里川町,キリカワチョウ,KIRIKAWACHO,,34.666478,135.642009
加納八丁目,カノウ 8,KANO 8,,34.698839,135.620145
善根寺町四丁目,ゼンコンジチョウ 4,ZENKONJICHO 4,,34.700626,135.641595
高井田,タカイダ,TAKAIDA,,34.673669,135.572742
稲田新町三丁目,イナダシンマチ 3,INADASHIMMACHI 3,,34.689225,135.591257
稲田新町二丁目,イナダシンマチ 2,INADASHIMMACHI 2,,34.690299,135.587073
荒川三丁目,アラカワ 3,ARAKAWA 3,,34.660922,135.571213
旭町,アサヒマチ,ASAHIMACHI,,34.666243,135.637192
森河内西二丁目,モリカワチニシ 2,MORIKAWACHI NISHI 2,,34.685858,135.569261
南荘町,ナンソウチョウ,NANSOCHO,,34.675099,135.643551
今米一丁目,イマゴメ 1,IMAGOME 1,,34.68244,135.625952
吉田下島,ヨシタシモジマ,YOSHITA SHIMOJIMA,,34.673734,135.618838
森河内西一丁目,モリカワチニシ 1,MORIKAWACHI NISHI 1,,34.683118,135.565872
川俣二丁目,カワマタ 2,KAWAMATA 2,,34.684929,135.574959
玉串町東三丁目,タマクシチョウヒガシ 3,TAMAKUSHICHO HIGASHI 3,,34.65297,135.623719
友井二丁目,トモイ 2,TOMOI 2,,34.643736,135.58716
加納七丁目,カノウ 7,KANO 7,,34.698722,135.623841
日下町一丁目,クサカチョウ 1,KUSAKACHO 1,,34.689245,135.656137
新上小阪,シンカミコサカ,SHINKAMIKOSAKA,,34.65071,135.591901
弥生町,ヤヨイチョウ,YAYOICHO,,34.678278,135.637232
加納三丁目,カノウ 3,KANO 3,,34.694134,135.626017
中石切町五丁目,ナカイシキリチョウ 5,NAKAISHIKIRICHO 5,,34.688933,135.640311
水走三丁目,ミズハイ 3,MIZUHAI 3,,34.682364,135.631137
菱江一丁目,ヒシエ 1,HISHIE 1,,34.672472,135.613376
荒本北一丁目,アラモトキタ 1,ARAMOTO KITA 1,,34.680333,135.598761
小若江三丁目,コワカエ 3,KOWAKAE 3,,34.650264,135.587498
森河内東一丁目,モリカワチヒガシ 1,MORIKAWACHI HIGASHI 1,,34.681782,135.569475
川俣一丁目,カワマタ 1,KAWAMATA 1,,34.680307,135.575526
東鴻池町一丁目,ヒガシコウノイケチョウ 1,HIGASHIKONOIKECHO 1,,34.695918,135.615579
新町,シンマチ,SHIMMACHI,,34.672268,135.636859
東山町,ヒガシヤマチョウ,HIGASHIYAMACHO,,34.678323,135.645126
三島三丁目,ミシマ 3,MISHIMA 3,,34.69307,135.593741
稲田上町二丁目,イナダウエマチ 2,INADAUEMACHI 2,,34.69426,135.586238
水走一丁目,ミズハイ 1,MIZUHAI 1,,34.676839,135.631234
鷹殿町,タカドノチョウ,TAKADONOCHO,,34.669306,135.636568
西岩田三丁目,ニシイワタ 3,NISHIIWATA 3,,34.667012,135.597401
加納五丁目,カノウ 5,KANO 5,,34.699134,135.631288
加納四丁目,カノウ 4,KANO 4,,34.694215,135.630881
宝町,タカラマチ,TAKARAMACHI,,34.675471,135.637024
善根寺町六丁目,ゼンコンジチョウ 6,ZENKONJICHO 6,,34.700538,135.654904
五条町,ゴジョウチョウ,GOJOCHO,,34.666227,135.652713
出雲井町,イズモイチョウ,IZUMOICHO,,34.669072,135.656251
客坊町,キャクボウチョウ,KYAKUBOCHO,,34.663209,135.650977
上六万寺町,カミロクマンジチョウ,KAMIROKUMANJICHO,,34.655092,135.654874
六万寺町一丁目,ロクマンジチョウ 1,ROKUMANJICHO 1,,34.652648,135.654192
善根寺町一丁目,ゼンコンジチョウ 1,ZENKONJICHO 1,,34.697842,135.661047
日下町八丁目,クサカチョウ 8,KUSAKACHO 8,,34.692481,135.662888
横小路町一丁目,ヨコショウジチョウ 1,YOKOSHOJICHO 1,,34.646754,135.655374
東豊浦町,ヒガシトヨウラチョウ,HIGASHITOYORACHO,,34.669277,135.665136
山手町,ヤマテチョウ,YAMATECHO,,34.676824,135.664838
上四条町,カミシジョウチョウ,KAMISHIJOCHO,,34.661281,135.660513
上石切町二丁目,カミイシキリチョウ 2,KAMIISHIKIRICHO(2-CHOME863.1451-BAN 2,,34.68412,135.667836
