name,name_kana,name_romaji,nickname,latitude,longitude
大字二俣,,,,34.601077,135.620255
大字八尾木,,,,34.609775,135.619216
大字刑部,,,,34.609666,135.621801
大字千塚,,,,34.631139,135.638721
大字垣内,,,,34.611375,135.643262
大字大窪,,,,34.628514,135.652113
大字山畑,,,,34.627418,135.647736
大字恩智,,,,34.605667,135.643328
大字教興寺,,,,34.613174,135.655632
大字服部川,,,,34.619447,135.653
大字木本,,,,34.598399,135.582603
大字東弓削,,,,34.602483,135.620269
大字楽音寺,,,,34.640919,135.654921
大字神宮寺,,,,34.601822,135.637956
大字神立,,,,34.63563,135.657398
大字郡川,,,,34.615792,135.649554
大字都塚,,,,34.606099,135.620706
大字黒谷,,,,34.611465,135.647658
相生町一丁目,アイオイチョウ 1,AIOICHO 1,,34.613136,135.601872
相生町二丁目,アイオイチョウ 2,AIOICHO 2,,34.612009,135.60096
相生町三丁目,アイオイチョウ 3,AIOICHO 3,,34.611275,135.602983
相生町四丁目,アイオイチョウ 4,AIOICHO 4,,34.610386,135.605463
青山町一丁目,アオヤマチョウ 1,AOYAMACHO 1,,34.625329,135.610889
青山町二丁目,アオヤマチョウ 2,AOYAMACHO 2,,34.623976,135.610716
青山町三丁目,アオヤマチョウ 3,AOYAMACHO 3,,34.622974,135.613085
青山町四丁目,アオヤマチョウ 4,AOYAMACHO 4,,34.621138,135.61143
青山町五丁目,アオヤマチョウ 5,AOYAMACHO 5,,34.620557,135.614063
曙川東一丁目,アケガワヒガシ 1,AKEGAWAHIGASHI 1,,34.609545,135.625614
曙川東二丁目,アケガワヒガシ 2,AKEGAWAHIGASHI 2,,34.608705,135.625025
曙川東三丁目,アケガワヒガシ 3,AKEGAWAHIGASHI 3,,34.606671,135.625288
曙川東四丁目,アケガワヒガシ 4,AKEGAWAHIGASHI 4,,34.606516,135.626281
曙川東五丁目,アケガワヒガシ 5,AKEGAWAHIGASHI 5,,34.603766,135.625173
曙川東六丁目,アケガワヒガシ 6,AKEGAWAHIGASHI 6,,34.604479,135.624501
曙川東七丁目,アケガワヒガシ 7,AKEGAWAHIGASHI 7,,34.602773,135.622663
曙川東八丁目,アケガワヒガシ 8,AKEGAWAHIGASHI 8,,34.601545,135.622221
曙町一丁目,アケボノチョウ 1,AKEBONOCHO 1,,34.609624,135.609989
曙町二丁目,アケボノチョウ 2,AKEBONOCHO 2,,34.6087,135.609671
曙町三丁目,アケボノチョウ 3,AKEBONOCHO 3,,34.607192,135.612541
曙町四丁目,アケボノチョウ 4,AKEBONOCHO 4,,34.60638,135.611783
明美町一丁目,アケミチョウ 1,AKEMICHO 1,,34.621315,135.601689
明美町二丁目,アケミチョウ 2,AKEMICHO 2,,34.619274,135.601798
旭ヶ丘一丁目,アサヒガオカ 1,ASAHIGAOKA 1,,34.630263,135.611155
旭ヶ丘二丁目,アサヒガオカ 2,ASAHIGAOKA 2,,34.630159,135.612484
旭ヶ丘三丁目,アサヒガオカ 3,ASAHIGAOKA 3,,34.632172,135.611945
旭ヶ丘四丁目,アサヒガオカ 4,ASAHIGAOKA 4,,34.632847,135.608665
旭ヶ丘五丁目,アサヒガオカ 5,ASAHIGAOKA 5,,34.633253,135.61082
跡部北の町一丁目,アトベキタノチョウ 1,ATOBE KITANOCHO 1,,34.619328,135.587363
跡部北の町二丁目,アトベキタノチョウ 2,ATOBE KITANOCHO 2,,34.619625,135.58488
跡部北の町三丁目,アトベキタノチョウ 3,ATOBE KITANOCHO 3,,34.61988,135.583267
跡部本町一丁目,アトベホンマチ 1,ATOBE HOMMACHI 1,,34.617446,135.584425
跡部本町二丁目,アトベホンマチ 2,ATOBE HOMMACHI 2,,34.616453,135.583189
跡部本町三丁目,アトベホンマチ 3,ATOBE HOMMACHI 3,,34.616803,135.581904
跡部本町四丁目,アトベホンマチ 4,ATOBE HOMMACHI 4,,34.617064,135.580699
跡部南の町一丁目,アトベミナミノチョウ 1,ATOBE MINAMINOCHO 1,,34.614561,135.58113
跡部南の町二丁目,アトベミナミノチョウ 2,ATOBE MINAMINOCHO 2,,34.612889,135.581165
泉町一丁目,イズミチョウ 1,IZUMICHO 1,,34.645035,135.604388
泉町二丁目,イズミチョウ 2,IZUMICHO 2,,34.647553,135.604153
泉町三丁目,イズミチョウ 3,IZUMICHO 3,,34.649322,135.604102
植松町一丁目,ウエマツチョウ 1,UEMATSUCHO 1,,34.615504,135.599713
植松町二丁目,ウエマツチョウ 2,UEMATSUCHO 2,,34.614689,135.59901
植松町三丁目,ウエマツチョウ 3,UEMATSUCHO 3,,34.616673,135.597121
植松町四丁目,ウエマツチョウ 4,UEMATSUCHO 4,,34.61732,135.594692
植松町五丁目,ウエマツチョウ 5,UEMATSUCHO 5,,34.615487,135.593968
植松町六丁目,ウエマツチョウ 6,UEMATSUCHO 6,,34.614703,135.59671
植松町七丁目,ウエマツチョウ 7,UEMATSUCHO 7,,34.614327,135.594003
植松町八丁目,ウエマツチョウ 8,UEMATSUCHO 8,,34.613509,135.591385
老原一丁目,オイハラ 1,OIHARA 1,,34.607603,135.604286
老原二丁目,オイハラ 2,OIHARA 2,,34.609885,135.601895
老原三丁目,オイハラ 3,OIHARA 3,,34.60737,135.601827
老原四丁目,オイハラ 4,OIHARA 4,,34.604411,135.602994
老原五丁目,オイハラ 5,OIHARA 5,,34.609548,135.599382
老原六丁目,オイハラ 6,OIHARA 6,,34.606888,135.599321
老原七丁目,オイハラ 7,OIHARA 7,,34.60423,135.599283
老原八丁目,オイハラ 8,OIHARA 8,,34.607522,135.596486
老原九丁目,オイハラ 9,OIHARA 9,,34.604123,135.596243
太田一丁目,オオタ 1,OTA 1,,34.591496,135.594751
太田二丁目,オオタ 2,OTA 2,,34.591528,135.592142
太田三丁目,オオタ 3,OTA 3,,34.591225,135.58866
太田四丁目,オオタ 4,OTA 4,,34.589715,135.589415
太田五丁目,オオタ 5,OTA 5,,34.588675,135.593105
太田六丁目,オオタ 6,OTA 6,,34.588554,135.595963
太田七丁目,オオタ 7,OTA 7,,34.589565,135.600592
太田八丁目,オオタ 8,OTA 8,,34.586622,135.596677
太田九丁目,オオタ 9,OTA 9,,34.587816,135.588997
大竹一丁目,オオタケ 1,OTAKE 1,,34.637823,135.635496
大竹二丁目,オオタケ 2,OTAKE 2,,34.640271,135.635835
大竹三丁目,オオタケ 3,OTAKE 3,,34.637072,135.63916
大竹四丁目,オオタケ 4,OTAKE 4,,34.638453,135.638889
大竹五丁目,オオタケ 5,OTAKE 5,,34.639655,135.639346
大竹六丁目,オオタケ 6,OTAKE 6,,34.637123,135.643033
大竹七丁目,オオタケ 7,OTAKE 7,,34.639362,135.644181
大竹八丁目,オオタケ 8,OTAKE 8,,34.637347,135.645482
太田新町一丁目,オオタシンマチ 1,OTASHIMMACHI 1,,34.595704,135.586936
太田新町二丁目,オオタシンマチ 2,OTASHIMMACHI 2,,34.594545,135.591184
太田新町三丁目,オオタシンマチ 3,OTASHIMMACHI 3,,34.593407,135.589604
太田新町四丁目,オオタシンマチ 4,OTASHIMMACHI 4,,34.594216,135.595518
太田新町五丁目,オオタシンマチ 5,OTASHIMMACHI 5,,34.592242,135.596386
太田新町六丁目,オオタシンマチ 6,OTASHIMMACHI 6,,34.593977,135.599197
太田新町七丁目,オオタシンマチ 7,OTASHIMMACHI 7,,34.591561,135.599591
太田新町八丁目,オオタシンマチ 8,OTASHIMMACHI 8,,34.594097,135.602875
太田新町九丁目,オオタシンマチ 9,OTASHIMMACHI 9,,34.591525,135.603303
刑部一丁目,オサカベ 1,OSAKABE 1,,34.61779,135.619738
刑部二丁目,オサカベ 2,OSAKABE 2,,34.615819,135.619754
刑部三丁目,オサカベ 3,OSAKABE 3,,34.613293,135.618515
刑部四丁目,オサカベ 4,OSAKABE 4,,34.613156,135.620768
恩智北町一丁目,オンヂキタマチ 1,ONJI KITAMACHI 1,,34.612248,135.626818
恩智北町二丁目,オンヂキタマチ 2,ONJI KITAMACHI 2,,34.612008,135.629414
恩智北町三丁目,オンヂキタマチ 3,ONJI KITAMACHI 3,,34.611826,135.631755
恩智北町四丁目,オンヂキタマチ 4,ONJI KITAMACHI 4,,34.611593,135.634452
恩智中町一丁目,オンヂナカマチ 1,ONJI NAKAMACHI 1,,34.608676,135.626894
恩智中町二丁目,オンヂナカマチ 2,ONJI NAKAMACHI 2,,34.609231,135.630029
恩智中町三丁目,オンヂナカマチ 3,ONJI NAKAMACHI 3,,34.607204,135.629853
恩智中町四丁目,オンヂナカマチ 4,ONJI NAKAMACHI 4,,34.608366,135.634504
恩智中町五丁目,オンヂナカマチ 5,ONJI NAKAMACHI 5,,34.606518,135.635016
恩智南町一丁目,オンヂミナミマチ 1,ONJI MINAMIMACHI 1,,34.604514,135.626633
恩智南町二丁目,オンヂミナミマチ 2,ONJI MINAMIMACHI 2,,34.605735,135.629729
恩智南町三丁目,オンヂミナミマチ 3,ONJI MINAMIMACHI 3,,34.604024,135.629477
恩智南町四丁目,オンヂミナミマチ 4,ONJI MINAMIMACHI 4,,34.605187,135.633406
恩智南町五丁目,オンヂミナミマチ 5,ONJI MINAMIMACHI 5,,34.603904,135.6331
垣内一丁目,カイチ 1,KAICHI 1,,34.614687,135.630211
垣内二丁目,カイチ 2,KAICHI 2,,34.614762,135.632626
垣内三丁目,カイチ 3,KAICHI 3,,34.615178,135.634156
垣内四丁目,カイチ 4,KAICHI 4,,34.614432,135.636209
垣内五丁目,カイチ 5,KAICHI 5,,34.615908,135.637124
垣内六丁目,カイチ 6,KAICHI 6,,34.615446,135.639302
柏村町一丁目,カシムラチョウ 1,KASHIMURACHO 1,,34.614534,135.622576
柏村町二丁目,カシムラチョウ 2,KASHIMURACHO 2,,34.615286,135.624244
柏村町三丁目,カシムラチョウ 3,KASHIMURACHO 3,,34.610793,135.623365
柏村町四丁目,カシムラチョウ 4,KASHIMURACHO 4,,34.611813,135.624791
春日町一丁目,カスガチョウ 1,KASUGACHO 1,,34.618937,135.590517
春日町二丁目,カスガチョウ 2,KASUGACHO 2,,34.61733,135.593091
春日町三丁目,カスガチョウ 3,KASUGACHO 3,,34.617351,135.591774
春日町四丁目,カスガチョウ 4,KASUGACHO 4,,34.61738,135.590178
桂町一丁目,カツラチョウ 1,KATSURACHO 1,,34.644769,135.607261
桂町二丁目,カツラチョウ 2,KATSURACHO 2,,34.646191,135.607237
桂町三丁目,カツラチョウ 3,KATSURACHO 3,,34.646039,135.609892
桂町四丁目,カツラチョウ 4,KATSURACHO 4,,34.644423,135.610368
桂町五丁目,カツラチョウ 5,KATSURACHO 5,,34.644332,135.613768
桂町六丁目,カツラチョウ 6,KATSURACHO 6,,34.645611,135.612671
上尾町一丁目,カミオチョウ 1,KAMIOCHO 1,,34.635182,135.629336
上尾町二丁目,カミオチョウ 2,KAMIOCHO 2,,34.634754,135.630589
上尾町三丁目,カミオチョウ 3,KAMIOCHO 3,,34.634835,135.631781
上尾町四丁目,カミオチョウ 4,KAMIOCHO 4,,34.637825,135.629401
上尾町五丁目,カミオチョウ 5,KAMIOCHO 5,,34.638074,135.630501
上尾町六丁目,カミオチョウ 6,KAMIOCHO 6,,34.637839,135.632056
上尾町七丁目,カミオチョウ 7,KAMIOCHO 7,,34.639953,135.630607
上尾町八丁目,カミオチョウ 8,KAMIOCHO 8,,34.641468,135.629756
上尾町九丁目,カミオチョウ 9,KAMIOCHO 9,,34.642946,135.630106
上之島町北一丁目,カミノシマチョウキタ 1,KAMINOSHIMACHO KITA 1,,34.638007,135.620522
上之島町北二丁目,カミノシマチョウキタ 2,KAMINOSHIMACHO KITA 2,,34.637991,135.62239
上之島町北三丁目,カミノシマチョウキタ 3,KAMINOSHIMACHO KITA 3,,34.638,135.62423
上之島町北四丁目,カミノシマチョウキタ 4,KAMINOSHIMACHO KITA 4,,34.637971,135.625863
上之島町北五丁目,カミノシマチョウキタ 5,KAMINOSHIMACHO KITA 5,,34.637639,135.626882
上之島町北六丁目,カミノシマチョウキタ 6,KAMINOSHIMACHO KITA 6,,34.637921,135.628195
上之島町南一丁目,カミノシマチョウミナミ 1,KAMINOSHIMACHO MINAMI 1,,34.63503,135.621075
上之島町南二丁目,カミノシマチョウミナミ 2,KAMINOSHIMACHO MINAMI 2,,34.63504,135.622085
上之島町南三丁目,カミノシマチョウミナミ 3,KAMINOSHIMACHO MINAMI 3,,34.635013,135.623252
上之島町南四丁目,カミノシマチョウミナミ 4,KAMINOSHIMACHO MINAMI 4,,34.635025,135.624568
上之島町南五丁目,カミノシマチョウミナミ 5,KAMINOSHIMACHO MINAMI 5,,34.635018,135.625793
上之島町南六丁目,カミノシマチョウミナミ 6,KAMINOSHIMACHO MINAMI 6,,34.634943,135.62697
上之島町南七丁目,カミノシマチョウミナミ 7,KAMINOSHIMACHO MINAMI 7,,34.634861,135.628112
亀井町一丁目,カメイチョウ 1,KAMEICHO 1,,34.617426,135.579563
亀井町二丁目,カメイチョウ 2,KAMEICHO 2,,34.617733,135.578319
亀井町三丁目,カメイチョウ 3,KAMEICHO 3,,34.618011,135.577204
亀井町四丁目,カメイチョウ 4,KAMEICHO 4,,34.618339,135.575814
萱振町一丁目,カヤフリチョウ 1,KAYAFURICHO 1,,34.635181,135.605931
萱振町二丁目,カヤフリチョウ 2,KAYAFURICHO 2,,34.637947,135.606814
萱振町三丁目,カヤフリチョウ 3,KAYAFURICHO 3,,34.637369,135.604397
萱振町四丁目,カヤフリチョウ 4,KAYAFURICHO 4,,34.639576,135.60432
萱振町五丁目,カヤフリチョウ 5,KAYAFURICHO 5,,34.641752,135.606595
萱振町六丁目,カヤフリチョウ 6,KAYAFURICHO 6,,34.640855,135.604364
萱振町七丁目,カヤフリチョウ 7,KAYAFURICHO 7,,34.642405,135.604439
楽音寺一丁目,ガクオンジ 1,GAKUONJI 1,,34.642716,135.636219
楽音寺二丁目,ガクオンジ 2,GAKUONJI 2,,34.64111,135.640389
楽音寺三丁目,ガクオンジ 3,GAKUONJI 3,,34.642549,135.639101
楽音寺四丁目,ガクオンジ 4,GAKUONJI 4,,34.643656,135.639506
楽音寺五丁目,ガクオンジ 5,GAKUONJI 5,,34.643201,135.642269
楽音寺六丁目,ガクオンジ 6,GAKUONJI 6,,34.640869,135.644462
楽音寺七丁目,ガクオンジ 7,GAKUONJI 7,,34.643077,135.645054
北亀井町一丁目,キタカメイチョウ 1,KITAKAMEICHO 1,,34.619684,135.580116
北亀井町二丁目,キタカメイチョウ 2,KITAKAMEICHO 2,,34.619947,135.576731
北亀井町三丁目,キタカメイチョウ 3,KITAKAMEICHO 3,,34.621728,135.578408
北木の本一丁目,キタキノモト 1,KITAKINOMOTO 1,,34.607504,135.594292
北木の本二丁目,キタキノモト 2,KITAKINOMOTO 2,,34.608989,135.591768
北木の本三丁目,キタキノモト 3,KITAKINOMOTO 3,,34.607692,135.591802
北木の本四丁目,キタキノモト 4,KITAKINOMOTO 4,,34.606469,135.591768
北木の本五丁目,キタキノモト 5,KITAKINOMOTO 5,,34.608093,135.588623
北久宝寺一丁目,キタキュウホウジ 1,KITAKYUHOJI 1,,34.6314,135.588737
北久宝寺二丁目,キタキュウホウジ 2,KITAKYUHOJI 2,,34.631371,135.586198
北久宝寺三丁目,キタキュウホウジ 3,KITAKYUHOJI 3,,34.631377,135.583812
北本町一丁目,キタホンマチ 1,KITAHOMMACHI 1,,34.631622,135.600289
北本町二丁目,キタホンマチ 2,KITAHOMMACHI 2,,34.631712,135.602375
北本町三丁目,キタホンマチ 3,KITAHOMMACHI 3,,34.635797,135.603382
北本町四丁目,キタホンマチ 4,KITAHOMMACHI 4,,34.636327,135.602059
木の本一丁目,キノモト 1,KINOMOTO 1,,34.600331,135.587908
木の本二丁目,キノモト 2,KINOMOTO 2,,34.600001,135.586302
木の本三丁目,キノモト 3,KINOMOTO 3,,34.597598,135.587453
久宝園一丁目,キュウホウエン 1,KYUHOEN 1,,34.636357,135.589428
久宝園二丁目,キュウホウエン 2,KYUHOEN 2,,34.638854,135.589797
久宝園三丁目,キュウホウエン 3,KYUHOEN 3,,34.63836,135.587465
久宝寺一丁目,キュウホウジ 1,KYUHOJI 1,,34.626579,135.591813
久宝寺二丁目,キュウホウジ 2,KYUHOJI 2,,34.628875,135.591248
久宝寺三丁目,キュウホウジ 3,KYUHOJI 3,,34.62875,135.588197
久宝寺四丁目,キュウホウジ 4,KYUHOJI 4,,34.626242,135.5887
久宝寺五丁目,キュウホウジ 5,KYUHOJI 5,,34.626503,135.585376
久宝寺六丁目,キュウホウジ 6,KYUHOJI 6,,34.628614,135.585668
教興寺一丁目,キョウコウジ 1,KYOKOJI 1,,34.620684,135.632397
教興寺二丁目,キョウコウジ 2,KYOKOJI 2,,34.619293,135.632025
教興寺三丁目,キョウコウジ 3,KYOKOJI 3,,34.618203,135.63171
教興寺四丁目,キョウコウジ 4,KYOKOJI 4,,34.617324,135.631616
教興寺五丁目,キョウコウジ 5,KYOKOJI 5,,34.616183,135.631533
教興寺六丁目,キョウコウジ 6,KYOKOJI 6,,34.617412,135.635229
教興寺七丁目,キョウコウジ 7,KYOKOJI 7,,34.618738,135.634966
空港一丁目,クウコウ 1,KUKO 1,,34.599673,135.601429
空港二丁目,クウコウ 2,KUKO 2,,34.597394,135.596518
楠根町一丁目,クスネチョウ 1,KUSUNECHO 1,,34.640096,135.602266
楠根町二丁目,クスネチョウ 2,KUSUNECHO 2,,34.640046,135.600683
楠根町三丁目,クスネチョウ 3,KUSUNECHO 3,,34.640055,135.598863
楠根町四丁目,クスネチョウ 4,KUSUNECHO 4,,34.642564,135.601732
楠根町五丁目,クスネチョウ 5,KUSUNECHO 5,,34.64258,135.599255
黒谷一丁目,クロダニ 1,KURODANI 1,,34.620543,135.636096
黒谷二丁目,クロダニ 2,KURODANI 2,,34.619918,135.639502
黒谷三丁目,クロダニ 3,KURODANI 3,,34.618521,135.638911
黒谷四丁目,クロダニ 4,KURODANI 4,,34.617148,135.638458
黒谷五丁目,クロダニ 5,KURODANI 5,,34.617079,135.642263
黒谷六丁目,クロダニ 6,KURODANI 6,,34.61833,135.643344
神立一丁目,コウダチ 1,KODACHI 1,,34.632822,135.648316
神立二丁目,コウダチ 2,KODACHI 2,,34.63291,135.650821
神立三丁目,コウダチ 3,KODACHI 3,,34.634825,135.648404
神立四丁目,コウダチ 4,KODACHI 4,,34.636151,135.647756
神立五丁目,コウダチ 5,KODACHI 5,,34.635666,135.651009
神立六丁目,コウダチ 6,KODACHI 6,,34.638208,135.64798
光南町一丁目,コウナンチョウ 1,KONANCHO 1,,34.624713,135.59924
光南町二丁目,コウナンチョウ 2,KONANCHO 2,,34.622969,135.59933
郡川一丁目,コオリガワ 1,KORIGAWA 1,,34.623097,135.632971
郡川二丁目,コオリガワ 2,KORIGAWA 2,,34.623261,135.637693
郡川三丁目,コオリガワ 3,KORIGAWA 3,,34.62251,135.636122
郡川四丁目,コオリガワ 4,KORIGAWA 4,,34.621158,135.640286
郡川五丁目,コオリガワ 5,KORIGAWA 5,,34.622872,135.640248
郡川六丁目,コオリガワ 6,KORIGAWA 6,,34.621001,135.644721
小阪合町一丁目,コザカアイチョウ 1,KOZAKAAICHO 1,,34.627501,135.613033
小阪合町二丁目,コザカアイチョウ 2,KOZAKAAICHO 2,,34.626217,135.613634
小阪合町三丁目,コザカアイチョウ 3,KOZAKAAICHO 3,,34.626936,135.615633
小阪合町四丁目,コザカアイチョウ 4,KOZAKAAICHO 4,,34.626887,135.617166
小畑町一丁目,コハタチョウ 1,KOHATACHO 1,,34.642248,135.607801
小畑町二丁目,コハタチョウ 2,KOHATACHO 2,,34.642116,135.609567
小畑町三丁目,コハタチョウ 3,KOHATACHO 3,,34.642172,135.612094
小畑町四丁目,コハタチョウ 4,KOHATACHO 4,,34.642419,135.614308
幸町一丁目,サイワイチョウ 1,SAIWAICHO 1,,34.647118,135.606865
幸町二丁目,サイワイチョウ 2,SAIWAICHO 2,,34.64761,135.608791
幸町三丁目,サイワイチョウ 3,SAIWAICHO 3,,34.648128,135.606806
幸町四丁目,サイワイチョウ 4,SAIWAICHO 4,,34.649079,135.606862
幸町五丁目,サイワイチョウ 5,SAIWAICHO 5,,34.649512,135.608929
幸町六丁目,サイワイチョウ 6,SAIWAICHO 6,,34.650029,135.606676
栄町一丁目,サカエマチ 1,SAKAEMACHI 1,,34.624506,135.597143
栄町二丁目,サカエマチ 2,SAKAEMACHI 2,,34.622687,135.596721
桜ヶ丘一丁目,サクラガオカ 1,SAKURAGAOKA 1,,34.629581,135.608102
桜ヶ丘二丁目,サクラガオカ 2,SAKURAGAOKA 2,,34.629774,135.609848
桜ヶ丘三丁目,サクラガオカ 3,SAKURAGAOKA 3,,34.632352,135.607773
桜ヶ丘四丁目,サクラガオカ 4,SAKURAGAOKA 4,,34.63248,135.608557
佐堂町一丁目,サドウチョウ 1,SADOCHO 1,,34.633929,135.592922
佐堂町二丁目,サドウチョウ 2,SADOCHO 2,,34.635785,135.592392
佐堂町三丁目,サドウチョウ 3,SADOCHO 3,,34.635241,135.590556
志紀町一丁目,シキチョウ 1,SHIKICHO 1,,34.60284,135.61225
志紀町二丁目,シキチョウ 2,SHIKICHO 2,,34.600501,135.612752
志紀町三丁目,シキチョウ 3,SHIKICHO 3,,34.600629,135.615386
志紀町西一丁目,シキチョウニシ 1,SHIKICHO NISHI 1,,34.602912,135.608007
志紀町西二丁目,シキチョウニシ 2,SHIKICHO NISHI 2,,34.599857,135.608353
志紀町西三丁目,シキチョウニシ 3,SHIKICHO NISHI 3,,34.602981,135.609524
志紀町西四丁目,シキチョウニシ 4,SHIKICHO NISHI 4,,34.603948,135.610793
志紀町南一丁目,シキチョウミナミ 1,SHIKICHO MINAMI 1,,34.596747,135.617982
志紀町南二丁目,シキチョウミナミ 2,SHIKICHO MINAMI 2,,34.59721,135.61652
志紀町南三丁目,シキチョウミナミ 3,SHIKICHO MINAMI 3,,34.594393,135.617856
志紀町南四丁目,シキチョウミナミ 4,SHIKICHO MINAMI 4,,34.593947,135.615722
渋川町一丁目,シブカワチョウ 1,SHIBUKAWACHO 1,,34.624362,135.592568
渋川町二丁目,シブカワチョウ 2,SHIBUKAWACHO 2,,34.622557,135.592816
渋川町三丁目,シブカワチョウ 3,SHIBUKAWACHO 3,,34.621783,135.592506
渋川町四丁目,シブカワチョウ 4,SHIBUKAWACHO 4,,34.620474,135.592358
渋川町五丁目,シブカワチョウ 5,SHIBUKAWACHO 5,,34.619418,135.592493
渋川町六丁目,シブカワチョウ 6,SHIBUKAWACHO 6,,34.622216,135.589343
渋川町七丁目,シブカワチョウ 7,SHIBUKAWACHO 7,,34.620959,135.589427
清水町一丁目,シミズチョウ 1,SHIMIZUCHO 1,,34.624804,135.601512
清水町二丁目,シミズチョウ 2,SHIMIZUCHO 2,,34.623055,135.601606
新家町一丁目,シンケチョウ 1,SHINKECHO 1,,34.645082,135.59863
新家町二丁目,シンケチョウ 2,SHINKECHO 2,,34.645554,135.597395
新家町三丁目,シンケチョウ 3,SHINKECHO 3,,34.645551,135.59627
新家町四丁目,シンケチョウ 4,SHINKECHO 4,,34.64598,135.595233
新家町五丁目,シンケチョウ 5,SHINKECHO 5,,34.648695,135.598613
新家町六丁目,シンケチョウ 6,SHINKECHO 6,,34.64915,135.597452
新家町七丁目,シンケチョウ 7,SHINKECHO 7,,34.649136,135.59626
新家町八丁目,シンケチョウ 8,SHINKECHO 8,,34.649125,135.595055
神宮寺一丁目,ジングウジ 1,JINGUJI 1,,34.600362,135.622797
神宮寺二丁目,ジングウジ 2,JINGUJI 2,,34.601,135.625122
神宮寺三丁目,ジングウジ 3,JINGUJI 3,,34.601423,135.627707
神宮寺四丁目,ジングウジ 4,JINGUJI 4,,34.60145,135.630409
神宮寺五丁目,ジングウジ 5,JINGUJI 5,,34.601869,135.633095
神武町,ジンムチョウ,JIMMUCHO,,34.624391,135.580483
末広町一丁目,スエヒロチョウ 1,SUEHIROCHO 1,,34.630563,135.594042
末広町二丁目,スエヒロチョウ 2,SUEHIROCHO 2,,34.632138,135.594616
末広町三丁目,スエヒロチョウ 3,SUEHIROCHO 3,,34.632092,135.59279
末広町四丁目,スエヒロチョウ 4,SUEHIROCHO 4,,34.633831,135.590659
末広町五丁目,スエヒロチョウ 5,SUEHIROCHO 5,,34.635691,135.587751
荘内町一丁目,ソウナイチョウ 1,SONAICHO 1,,34.627173,135.607666
荘内町二丁目,ソウナイチョウ 2,SONAICHO 2,,34.627061,135.608859
太子堂一丁目,タイシドウ 1,TAISHIDO 1,,34.616875,135.588014
太子堂二丁目,タイシドウ 2,TAISHIDO 2,,34.616885,135.586608
太子堂三丁目,タイシドウ 3,TAISHIDO 3,,34.614052,135.587955
太子堂四丁目,タイシドウ 4,TAISHIDO 4,,34.614066,135.586075
太子堂五丁目,タイシドウ 5,TAISHIDO 5,,34.61485,135.583647
田井中一丁目,タイナカ 1,TAINAKA 1,,34.601962,135.60179
田井中二丁目,タイナカ 2,TAINAKA 2,,34.601967,135.60422
田井中三丁目,タイナカ 3,TAINAKA 3,,34.602942,135.606222
田井中四丁目,タイナカ 4,TAINAKA 4,,34.600091,135.604719
高砂町一丁目,タカサゴチョウ 1,TAKASAGOCHO 1,,34.648081,135.610777
高砂町二丁目,タカサゴチョウ 2,TAKASAGOCHO 2,,34.647454,135.612736
高砂町三丁目,タカサゴチョウ 3,TAKASAGOCHO 3,,34.649299,135.612339
高砂町四丁目,タカサゴチョウ 4,TAKASAGOCHO 4,,34.648104,135.614257
高砂町五丁目,タカサゴチョウ 5,TAKASAGOCHO 5,,34.648119,135.615473
高町,タカマチ,TAKAMACHI,,34.623616,135.594964
高美町一丁目,タカミチョウ 1,TAKAMICHO 1,,34.624459,135.608284
高美町二丁目,タカミチョウ 2,TAKAMICHO 2,,34.622452,135.608864
高美町三丁目,タカミチョウ 3,TAKAMICHO 3,,34.620206,135.60905
高美町四丁目,タカミチョウ 4,TAKAMICHO 4,,34.618089,135.60924
高美町五丁目,タカミチョウ 5,TAKAMICHO 5,,34.615866,135.609241
高美町六丁目,タカミチョウ 6,TAKAMICHO 6,,34.61342,135.609183
高美町七丁目,タカミチョウ 7,TAKAMICHO 7,,34.61135,135.60863
高安町北一丁目,タカヤスチョウキタ 1,TAKAYASUCHO KITA 1,,34.619243,135.626483
高安町北二丁目,タカヤスチョウキタ 2,TAKAYASUCHO KITA 2,,34.620163,135.626354
高安町北三丁目,タカヤスチョウキタ 3,TAKAYASUCHO KITA 3,,34.621217,135.626107
高安町北四丁目,タカヤスチョウキタ 4,TAKAYASUCHO KITA 4,,34.622515,135.630032
高安町北五丁目,タカヤスチョウキタ 5,TAKAYASUCHO KITA 5,,34.621126,135.629235
高安町北六丁目,タカヤスチョウキタ 6,TAKAYASUCHO KITA 6,,34.620168,135.629203
高安町北七丁目,タカヤスチョウキタ 7,TAKAYASUCHO KITA 7,,34.619131,135.629171
高安町南一丁目,タカヤスチョウミナミ 1,TAKAYASUCHO MINAMI 1,,34.618209,135.626282
高安町南二丁目,タカヤスチョウミナミ 2,TAKAYASUCHO MINAMI 2,,34.617319,135.626611
高安町南三丁目,タカヤスチョウミナミ 3,TAKAYASUCHO MINAMI 3,,34.616288,135.626746
高安町南四丁目,タカヤスチョウミナミ 4,TAKAYASUCHO MINAMI 4,,34.615285,135.62691
高安町南五丁目,タカヤスチョウミナミ 5,TAKAYASUCHO MINAMI 5,,34.614179,135.627028
高安町南六丁目,タカヤスチョウミナミ 6,TAKAYASUCHO MINAMI 6,,34.615275,135.628895
高安町南七丁目,タカヤスチョウミナミ 7,TAKAYASUCHO MINAMI 7,,34.617741,135.628999
竹渕一丁目,タケフチ 1,TAKEFUCHI 1,,34.619115,135.568929
竹渕二丁目,タケフチ 2,TAKEFUCHI 2,,34.615797,135.569762
竹渕三丁目,タケフチ 3,TAKEFUCHI 3,,34.616316,135.568513
竹渕四丁目,タケフチ 4,TAKEFUCHI 4,,34.617313,135.567002
竹渕五丁目,タケフチ 5,TAKEFUCHI 5,,34.619897,135.567197
竹渕西一丁目,タケフチニシ 1,TAKEFUCHINISHI 1,,34.620101,135.565634
竹渕西二丁目,タケフチニシ 2,TAKEFUCHINISHI 2,,34.617525,135.565187
竹渕西三丁目,タケフチニシ 3,TAKEFUCHINISHI 3,,34.617626,135.563153
竹渕西四丁目,タケフチニシ 4,TAKEFUCHINISHI 4,,34.619774,135.563494
竹渕西五丁目,タケフチニシ 5,TAKEFUCHINISHI 5,,34.621723,135.562868
竹渕東一丁目,タケフチヒガシ 1,TAKEFUCHIHIGASHI 1,,34.618669,135.571688
竹渕東二丁目,タケフチヒガシ 2,TAKEFUCHIHIGASHI 2,,34.615741,135.573282
竹渕東三丁目,タケフチヒガシ 3,TAKEFUCHIHIGASHI 3,,34.615791,135.572143
竹渕東四丁目,タケフチヒガシ 4,TAKEFUCHIHIGASHI 4,,34.615828,135.570963
千塚一丁目,チヅカ 1,CHIZUKA 1,,34.632385,135.63472
千塚二丁目,チヅカ 2,CHIZUKA 2,,34.632198,135.638585
千塚三丁目,チヅカ 3,CHIZUKA 3,,34.632137,135.643511
堤町一丁目,ツツミチョウ 1,TSUTSUMICHO 1,,34.634637,135.61553
堤町二丁目,ツツミチョウ 2,TSUTSUMICHO 2,,34.63651,135.615057
堤町三丁目,ツツミチョウ 3,TSUTSUMICHO 3,,34.637621,135.615218
天王寺屋一丁目,テンノウジヤ 1,TENNOJIYA 1,,34.608097,135.608099
天王寺屋二丁目,テンノウジヤ 2,TENNOJIYA 2,,34.604599,135.61213
天王寺屋三丁目,テンノウジヤ 3,TENNOJIYA 3,,34.603959,135.613659
天王寺屋四丁目,テンノウジヤ 4,TENNOJIYA 4,,34.605271,135.613945
天王寺屋五丁目,テンノウジヤ 5,TENNOJIYA 5,,34.603684,135.614943
天王寺屋六丁目,テンノウジヤ 6,TENNOJIYA 6,,34.601353,135.616631
天王寺屋七丁目,テンノウジヤ 7,TENNOJIYA 7,,34.600862,135.615947
中田一丁目,ナカタ 1,NAKATA 1,,34.618945,135.612819
中田二丁目,ナカタ 2,NAKATA 2,,34.619187,135.618262
中田三丁目,ナカタ 3,NAKATA 3,,34.617781,135.611489
中田四丁目,ナカタ 4,NAKATA 4,,34.617719,135.614058
中田五丁目,ナカタ 5,NAKATA 5,,34.617707,135.616583
長池町一丁目,ナガイケチョウ 1,NAGAIKECHO 1,,34.639096,135.608302
長池町二丁目,ナガイケチョウ 2,NAGAIKECHO 2,,34.638629,135.611349
長池町三丁目,ナガイケチョウ 3,NAGAIKECHO 3,,34.639976,135.610894
長池町四丁目,ナガイケチョウ 4,NAGAIKECHO 4,,34.639369,135.614959
長池町五丁目,ナガイケチョウ 5,NAGAIKECHO 5,,34.640378,135.614765
永畑町一丁目,ナガハタチョウ 1,NAGAHATACHO 1,,34.612485,135.598528
永畑町二丁目,ナガハタチョウ 2,NAGAHATACHO 2,,34.612761,135.595984
永畑町三丁目,ナガハタチョウ 3,NAGAHATACHO 3,,34.612931,135.593604
西木の本一丁目,ニシキノモト 1,NISHIKINOMOTO 1,,34.602652,135.583992
西木の本二丁目,ニシキノモト 2,NISHIKINOMOTO 2,,34.600842,135.584211
西木の本三丁目,ニシキノモト 3,NISHIKINOMOTO 3,,34.601149,135.582297
西木の本四丁目,ニシキノモト 4,NISHIKINOMOTO 4,,34.600006,135.581656
西久宝寺,ニシキュウホウジ,NISHIKYUHOJI,,34.629331,135.580189
西高安町一丁目,ニシタカヤスチョウ 1,NISHITAKAYASUCHO 1,,34.634834,135.633067
西高安町二丁目,ニシタカヤスチョウ 2,NISHITAKAYASUCHO 2,,34.637846,135.633341
西高安町三丁目,ニシタカヤスチョウ 3,NISHITAKAYASUCHO 3,,34.640308,135.633463
西高安町四丁目,ニシタカヤスチョウ 4,NISHITAKAYASUCHO 4,,34.642275,135.633613
西高安町五丁目,ニシタカヤスチョウ 5,NISHITAKAYASUCHO 5,,34.643964,135.633833
西山本町一丁目,ニシヤマモトチョウ 1,NISHIYAMAMOTOCHO 1,,34.628936,135.61487
西山本町二丁目,ニシヤマモトチョウ 2,NISHIYAMAMOTOCHO 2,,34.629062,135.617859
西山本町三丁目,ニシヤマモトチョウ 3,NISHIYAMAMOTOCHO 3,,34.631675,135.61374
西山本町四丁目,ニシヤマモトチョウ 4,NISHIYAMAMOTOCHO 4,,34.631654,135.614968
西山本町五丁目,ニシヤマモトチョウ 5,NISHIYAMAMOTOCHO 5,,34.631648,135.616203
西山本町六丁目,ニシヤマモトチョウ 6,NISHIYAMAMOTOCHO 6,,34.631702,135.617373
西山本町七丁目,ニシヤマモトチョウ 7,NISHIYAMAMOTOCHO 7,,34.631916,135.618531
西弓削一丁目,ニシユウゲ 1,NISHIYUGE 1,,34.595905,135.608285
西弓削二丁目,ニシユウゲ 2,NISHIYUGE 2,,34.594437,135.608163
西弓削三丁目,ニシユウゲ 3,NISHIYUGE 3,,34.591521,135.606876
沼一丁目,ヌマ 1,NUMA 1,,34.588105,135.602263
沼二丁目,ヌマ 2,NUMA 2,,34.586318,135.602585
沼三丁目,ヌマ 3,NUMA 3,,34.585121,135.603159
沼四丁目,ヌマ 4,NUMA 4,,34.58812,135.60682
服部川一丁目,ハットリガワ 1,HATTORIGAWA 1,,34.625922,135.633573
服部川二丁目,ハットリガワ 2,HATTORIGAWA 2,,34.625221,135.637055
服部川三丁目,ハットリガワ 3,HATTORIGAWA 3,,34.626519,135.637172
服部川四丁目,ハットリガワ 4,HATTORIGAWA 4,,34.625204,135.640506
服部川五丁目,ハットリガワ 5,HATTORIGAWA 5,,34.62794,135.636042
服部川六丁目,ハットリガワ 6,HATTORIGAWA 6,,34.627481,135.641843
服部川七丁目,ハットリガワ 7,HATTORIGAWA 7,,34.624424,135.642748
服部川八丁目,ハットリガワ 8,HATTORIGAWA 8,,34.624958,135.64521
服部川九丁目,ハットリガワ 9,HATTORIGAWA 9,,34.622625,135.644207
光町一丁目,ヒカリチョウ 1,HIKARICHO 1,,34.631809,135.603985
光町二丁目,ヒカリチョウ 2,HIKARICHO 2,,34.631276,135.605835
東老原一丁目,ヒガシオイハラ 1,HIGASHIOIHARA 1,,34.606819,135.606145
東老原二丁目,ヒガシオイハラ 2,HIGASHIOIHARA 2,,34.606435,135.608193
東久宝寺一丁目,ヒガシキュウホウジ 1,HIGASHIKYUHOJI 1,,34.626655,135.594525
東久宝寺二丁目,ヒガシキュウホウジ 2,HIGASHIKYUHOJI 2,,34.629495,135.592876
東久宝寺三丁目,ヒガシキュウホウジ 3,HIGASHIKYUHOJI 3,,34.631965,135.590763
東太子一丁目,ヒガシタイシ 1,HIGASHITAISHI 1,,34.616324,135.589378
東太子二丁目,ヒガシタイシ 2,HIGASHITAISHI 2,,34.614089,135.589906
東本町一丁目,ヒガシホンマチ 1,HIGASHIHOMMACHI 1,,34.626545,135.603438
東本町二丁目,ヒガシホンマチ 2,HIGASHIHOMMACHI 2,,34.627775,135.603031
東本町三丁目,ヒガシホンマチ 3,HIGASHIHOMMACHI 3,,34.62942,135.602806
東本町四丁目,ヒガシホンマチ 4,HIGASHIHOMMACHI 4,,34.627234,135.605245
東本町五丁目,ヒガシホンマチ 5,HIGASHIHOMMACHI 5,,34.627287,135.606459
東町一丁目,ヒガシマチ 1,HIGASHIMACHI 1,,34.627817,135.630607
東町二丁目,ヒガシマチ 2,HIGASHIMACHI 2,,34.630429,135.629092
東町三丁目,ヒガシマチ 3,HIGASHIMACHI 3,,34.630527,135.630357
東町四丁目,ヒガシマチ 4,HIGASHIMACHI 4,,34.630433,135.631566
東町五丁目,ヒガシマチ 5,HIGASHIMACHI 5,,34.630416,135.632661
東町六丁目,ヒガシマチ 6,HIGASHIMACHI 6,,34.632923,135.63107
東山本新町一丁目,ヒガシヤマモトシンマチ 1,HIGASHIYAMAMOTOSHIMMACHI 1,,34.626476,135.624479
東山本新町二丁目,ヒガシヤマモトシンマチ 2,HIGASHIYAMAMOTOSHIMMACHI 2,,34.625147,135.625138
東山本新町三丁目,ヒガシヤマモトシンマチ 3,HIGASHIYAMAMOTOSHIMMACHI 3,,34.625936,135.627584
東山本新町四丁目,ヒガシヤマモトシンマチ 4,HIGASHIYAMAMOTOSHIMMACHI 4,,34.624152,135.625322
東山本新町五丁目,ヒガシヤマモトシンマチ 5,HIGASHIYAMAMOTOSHIMMACHI 5,,34.623138,135.625601
東山本新町六丁目,ヒガシヤマモトシンマチ 6,HIGASHIYAMAMOTOSHIMMACHI 6,,34.622186,135.625785
東山本新町七丁目,ヒガシヤマモトシンマチ 7,HIGASHIYAMAMOTOSHIMMACHI 7,,34.623205,135.627921
東山本新町八丁目,ヒガシヤマモトシンマチ 8,HIGASHIYAMAMOTOSHIMMACHI 8,,34.624893,135.630148
東山本新町九丁目,ヒガシヤマモトシンマチ 9,HIGASHIYAMAMOTOSHIMMACHI 9,,34.626708,135.630419
東山本町一丁目,ヒガシヤマモトチョウ 1,HIGASHIYAMAMOTOCHO 1,,34.627955,135.623917
東山本町二丁目,ヒガシヤマモトチョウ 2,HIGASHIYAMAMOTOCHO 2,,34.629203,135.62407
東山本町三丁目,ヒガシヤマモトチョウ 3,HIGASHIYAMAMOTOCHO 3,,34.629631,135.622133
東山本町四丁目,ヒガシヤマモトチョウ 4,HIGASHIYAMAMOTOCHO 4,,34.630991,135.623496
東山本町五丁目,ヒガシヤマモトチョウ 5,HIGASHIYAMAMOTOCHO 5,,34.632507,135.623393
東山本町六丁目,ヒガシヤマモトチョウ 6,HIGASHIYAMAMOTOCHO 6,,34.628005,135.627346
東山本町七丁目,ヒガシヤマモトチョウ 7,HIGASHIYAMAMOTOCHO 7,,34.629551,135.626459
東山本町八丁目,ヒガシヤマモトチョウ 8,HIGASHIYAMAMOTOCHO 8,,34.632071,135.626253
東山本町九丁目,ヒガシヤマモトチョウ 9,HIGASHIYAMAMOTOCHO 9,,34.630987,135.627987
東弓削一丁目,ヒガシユウゲ 1,HIGASHIYUGE 1,,34.602844,135.616785
東弓削二丁目,ヒガシユウゲ 2,HIGASHIYUGE 2,,34.604717,135.618111
東弓削三丁目,ヒガシユウゲ 3,HIGASHIYUGE 3,,34.602613,135.618485
福栄町一丁目,フクエイチョウ 1,FUKUEICHO 1,,34.642003,135.625941
福栄町二丁目,フクエイチョウ 2,FUKUEICHO 2,,34.64163,135.627084
福栄町三丁目,フクエイチョウ 3,FUKUEICHO 3,,34.641197,135.628238
福栄町四丁目,フクエイチョウ 4,FUKUEICHO 4,,34.643493,135.627977
福万寺町一丁目,フクマンジチョウ 1,FUKUMANJICHO 1,,34.643412,135.61845
福万寺町二丁目,フクマンジチョウ 2,FUKUMANJICHO 2,,34.6435,135.620552
福万寺町三丁目,フクマンジチョウ 3,FUKUMANJICHO 3,,34.64494,135.61968
福万寺町四丁目,フクマンジチョウ 4,FUKUMANJICHO 4,,34.646002,135.619864
福万寺町五丁目,フクマンジチョウ 5,FUKUMANJICHO 5,,34.646881,135.619885
福万寺町六丁目,フクマンジチョウ 6,FUKUMANJICHO 6,,34.644984,135.622389
福万寺町七丁目,フクマンジチョウ 7,FUKUMANJICHO 7,,34.645023,135.623593
福万寺町八丁目,フクマンジチョウ 8,FUKUMANJICHO 8,,34.645064,135.62481
福万寺町北一丁目,フクマンジチョウキタ 1,FUKUMANJICHO KITA 1,,34.647964,135.619952
福万寺町北二丁目,フクマンジチョウキタ 2,FUKUMANJICHO KITA 2,,34.648924,135.620057
福万寺町北三丁目,フクマンジチョウキタ 3,FUKUMANJICHO KITA 3,,34.649933,135.620013
福万寺町北四丁目,フクマンジチョウキタ 4,FUKUMANJICHO KITA 4,,34.648929,135.622456
福万寺町北五丁目,フクマンジチョウキタ 5,FUKUMANJICHO KITA 5,,34.648599,135.623657
福万寺町北六丁目,フクマンジチョウキタ 6,FUKUMANJICHO KITA 6,,34.648882,135.624852
福万寺町南一丁目,フクマンジチョウミナミ 1,FUKUMANJICHO MINAMI 1,,34.641031,135.618473
福万寺町南二丁目,フクマンジチョウミナミ 2,FUKUMANJICHO MINAMI 2,,34.641017,135.619891
福万寺町南三丁目,フクマンジチョウミナミ 3,FUKUMANJICHO MINAMI 3,,34.640976,135.621071
福万寺町南四丁目,フクマンジチョウミナミ 4,FUKUMANJICHO MINAMI 4,,34.640968,135.622295
福万寺町南五丁目,フクマンジチョウミナミ 5,FUKUMANJICHO MINAMI 5,,34.641054,135.623481
福万寺町南六丁目,フクマンジチョウミナミ 6,FUKUMANJICHO MINAMI 6,,34.640948,135.624703
二俣一丁目,フタマタ 1,FUTAMATA 1,,34.598642,135.618972
二俣二丁目,フタマタ 2,FUTAMATA 2,,34.597722,135.620412
二俣三丁目,フタマタ 3,FUTAMATA 3,,34.597146,135.618648
本町一丁目,ホンマチ 1,HOMMACHI 1,,34.627277,135.600854
本町二丁目,ホンマチ 2,HOMMACHI 2,,34.626795,135.599161
本町三丁目,ホンマチ 3,HOMMACHI 3,,34.626788,135.59668
本町四丁目,ホンマチ 4,HOMMACHI 4,,34.628842,135.595578
本町五丁目,ホンマチ 5,HOMMACHI 5,,34.629456,135.598179
本町六丁目,ホンマチ 6,HOMMACHI 6,,34.631109,135.596552
本町七丁目,ホンマチ 7,HOMMACHI 7,,34.630179,135.600285
松山町一丁目,マツヤマチョウ 1,MATSUYAMACHO 1,,34.621366,135.603761
松山町二丁目,マツヤマチョウ 2,MATSUYAMACHO 2,,34.61935,135.60387
水越一丁目,ミズコシ 1,MIZUKOSHI 1,,34.634636,135.635036
水越二丁目,ミズコシ 2,MIZUKOSHI 2,,34.633704,135.638766
水越三丁目,ミズコシ 3,MIZUKOSHI 3,,34.634868,135.638903
水越四丁目,ミズコシ 4,MIZUKOSHI 4,,34.635765,135.639013
水越五丁目,ミズコシ 5,MIZUKOSHI 5,,34.633633,135.642857
水越六丁目,ミズコシ 6,MIZUKOSHI 6,,34.63517,135.643031
水越七丁目,ミズコシ 7,MIZUKOSHI 7,,34.633286,135.645764
水越八丁目,ミズコシ 8,MIZUKOSHI 8,,34.635018,135.6455
美園町一丁目,ミソノチョウ 1,MISONOCHO 1,,34.636424,135.593077
美園町二丁目,ミソノチョウ 2,MISONOCHO 2,,34.638677,135.595029
美園町三丁目,ミソノチョウ 3,MISONOCHO 3,,34.639162,135.593746
美園町四丁目,ミソノチョウ 4,MISONOCHO 4,,34.639617,135.59203
緑ヶ丘一丁目,ミドリガオカ 1,MIDORIGAOKA 1,,34.63574,135.608104
緑ヶ丘二丁目,ミドリガオカ 2,MIDORIGAOKA 2,,34.635235,135.60952
緑ヶ丘三丁目,ミドリガオカ 3,MIDORIGAOKA 3,,34.635173,135.610645
緑ヶ丘四丁目,ミドリガオカ 4,MIDORIGAOKA 4,,34.637152,135.610671
緑ヶ丘五丁目,ミドリガオカ 5,MIDORIGAOKA 5,,34.635154,135.612794
南植松町一丁目,ミナミウエマツチョウ 1,MINAMIUEMATSUCHO 1,,34.610444,135.597719
南植松町二丁目,ミナミウエマツチョウ 2,MINAMIUEMATSUCHO 2,,34.610655,135.595934
南植松町三丁目,ミナミウエマツチョウ 3,MINAMIUEMATSUCHO 3,,34.610754,135.594123
南植松町四丁目,ミナミウエマツチョウ 4,MINAMIUEMATSUCHO 4,,34.610871,135.592902
南植松町五丁目,ミナミウエマツチョウ 5,MINAMIUEMATSUCHO 5,,34.610953,135.59175
南亀井町一丁目,ミナミカメイチョウ 1,MINAMIKAMEICHO 1,,34.615623,135.578847
南亀井町二丁目,ミナミカメイチョウ 2,MINAMIKAMEICHO 2,,34.616499,135.576359
南亀井町三丁目,ミナミカメイチョウ 3,MINAMIKAMEICHO 3,,34.616139,135.574589
南亀井町四丁目,ミナミカメイチョウ 4,MINAMIKAMEICHO 4,,34.613342,135.578905
南亀井町五丁目,ミナミカメイチョウ 5,MINAMIKAMEICHO 5,,34.612923,135.577059
南木の本一丁目,ミナミキノモト 1,MINAMIKINOMOTO 1,,34.604089,135.593946
南木の本二丁目,ミナミキノモト 2,MINAMIKINOMOTO 2,,34.604319,135.591508
南木の本三丁目,ミナミキノモト 3,MINAMIKINOMOTO 3,,34.605368,135.588381
南木の本四丁目,ミナミキノモト 4,MINAMIKINOMOTO 4,,34.603104,135.58676
南木の本五丁目,ミナミキノモト 5,MINAMIKINOMOTO 5,,34.601884,135.591862
南木の本六丁目,ミナミキノモト 6,MINAMIKINOMOTO 6,,34.600122,135.590981
南木の本七丁目,ミナミキノモト 7,MINAMIKINOMOTO 7,,34.600518,135.589131
南木の本八丁目,ミナミキノモト 8,MINAMIKINOMOTO 8,,34.59787,135.589952
南木の本九丁目,ミナミキノモト 9,MINAMIKINOMOTO 9,,34.600667,135.593439
南久宝寺一丁目,ミナミキュウホウジ 1,MINAMIKYUHOJI 1,,34.624397,135.588199
南久宝寺二丁目,ミナミキュウホウジ 2,MINAMIKYUHOJI 2,,34.623449,135.587639
南久宝寺三丁目,ミナミキュウホウジ 3,MINAMIKYUHOJI 3,,34.622372,135.586325
南小阪合町一丁目,ミナミコザカアイチョウ 1,MINAMIKOZAKAAICHO 1,,34.624789,135.613019
南小阪合町二丁目,ミナミコザカアイチョウ 2,MINAMIKOZAKAAICHO 2,,34.62467,135.614964
南小阪合町三丁目,ミナミコザカアイチョウ 3,MINAMIKOZAKAAICHO 3,,34.62468,135.616984
南小阪合町四丁目,ミナミコザカアイチョウ 4,MINAMIKOZAKAAICHO 4,,34.622743,135.614897
南小阪合町五丁目,ミナミコザカアイチョウ 5,MINAMIKOZAKAAICHO 5,,34.622701,135.616559
南太子堂一丁目,ミナミタイシドウ 1,MINAMITAISHIDO 1,,34.611394,135.59059
南太子堂二丁目,ミナミタイシドウ 2,MINAMITAISHIDO 2,,34.611398,135.589368
南太子堂三丁目,ミナミタイシドウ 3,MINAMITAISHIDO 3,,34.611153,135.58775
南太子堂四丁目,ミナミタイシドウ 4,MINAMITAISHIDO 4,,34.61091,135.585743
南太子堂五丁目,ミナミタイシドウ 5,MINAMITAISHIDO 5,,34.61081,135.583824
南太子堂六丁目,ミナミタイシドウ 6,MINAMITAISHIDO 6,,34.6135,135.583852
南本町一丁目,ミナミホンマチ 1,MINAMIHOMMACHI 1,,34.624875,135.604791
南本町二丁目,ミナミホンマチ 2,MINAMIHOMMACHI 2,,34.623876,135.604812
南本町三丁目,ミナミホンマチ 3,MINAMIHOMMACHI 3,,34.623078,135.605784
南本町四丁目,ミナミホンマチ 4,MINAMIHOMMACHI 4,,34.621937,135.606351
南本町五丁目,ミナミホンマチ 5,MINAMIHOMMACHI 5,,34.6199,135.606481
南本町六丁目,ミナミホンマチ 6,MINAMIHOMMACHI 6,,34.618222,135.606565
南本町七丁目,ミナミホンマチ 7,MINAMIHOMMACHI 7,,34.616109,135.606692
南本町八丁目,ミナミホンマチ 8,MINAMIHOMMACHI 8,,34.613726,135.606795
南本町九丁目,ミナミホンマチ 9,MINAMIHOMMACHI 9,,34.611894,135.605809
都塚一丁目,ミヤコヅカ 1,MIYAKOZUKA 1,,34.607848,135.624121
都塚二丁目,ミヤコヅカ 2,MIYAKOZUKA 2,,34.606238,135.623484
都塚三丁目,ミヤコヅカ 3,MIYAKOZUKA 3,,34.604877,135.623758
都塚四丁目,ミヤコヅカ 4,MIYAKOZUKA 4,,34.60413,135.622238
宮町一丁目,ミヤマチ 1,MIYAMACHI 1,,34.632927,135.596825
宮町二丁目,ミヤマチ 2,MIYAMACHI 2,,34.633973,135.595104
宮町三丁目,ミヤマチ 3,MIYAMACHI 3,,34.636355,135.597492
宮町四丁目,ミヤマチ 4,MIYAMACHI 4,,34.636397,135.59628
宮町五丁目,ミヤマチ 5,MIYAMACHI 5,,34.641041,135.597436
宮町六丁目,ミヤマチ 6,MIYAMACHI 6,,34.641059,135.596345
八尾木一丁目,ヤオギ 1,YAOGI 1,,34.610399,135.611106
八尾木二丁目,ヤオギ 2,YAOGI 2,,34.610626,135.613352
八尾木三丁目,ヤオギ 3,YAOGI 3,,34.608735,135.613303
八尾木四丁目,ヤオギ 4,YAOGI 4,,34.61015,135.615508
八尾木五丁目,ヤオギ 5,YAOGI 5,,34.606872,135.615832
八尾木六丁目,ヤオギ 6,YAOGI 6,,34.60631,135.614757
八尾木北一丁目,ヤオギキタ 1,YAOGI KITA 1,,34.615527,135.611191
八尾木北二丁目,ヤオギキタ 2,YAOGI KITA 2,,34.615826,135.613894
八尾木北三丁目,ヤオギキタ 3,YAOGI KITA 3,,34.615738,135.616481
八尾木北四丁目,ヤオギキタ 4,YAOGI KITA 4,,34.61336,135.61135
八尾木北五丁目,ヤオギキタ 5,YAOGI KITA 5,,34.61331,135.61371
八尾木北六丁目,ヤオギキタ 6,YAOGI KITA 6,,34.613251,135.616374
八尾木東一丁目,ヤオギヒガシ 1,YAOGI HIGASHI 1,,34.610807,135.61754
八尾木東二丁目,ヤオギヒガシ 2,YAOGI HIGASHI 2,,34.608785,135.617568
八尾木東三丁目,ヤオギヒガシ 3,YAOGI HIGASHI 3,,34.606672,135.617912
安中町一丁目,ヤスナカチョウ 1,YASUNAKACHO 1,,34.62021,135.597677
安中町二丁目,ヤスナカチョウ 2,YASUNAKACHO 2,,34.620061,135.596388
安中町三丁目,ヤスナカチョウ 3,YASUNAKACHO 3,,34.619152,135.595258
安中町四丁目,ヤスナカチョウ 4,YASUNAKACHO 4,,34.617682,135.598216
安中町五丁目,ヤスナカチョウ 5,YASUNAKACHO 5,,34.616118,135.600543
安中町六丁目,ヤスナカチョウ 6,YASUNAKACHO 6,,34.617164,135.601542
安中町七丁目,ヤスナカチョウ 7,YASUNAKACHO 7,,34.617772,135.603965
安中町八丁目,ヤスナカチョウ 8,YASUNAKACHO 8,,34.615807,135.6039
安中町九丁目,ヤスナカチョウ 9,YASUNAKACHO 9,,34.614324,135.603402
山賀町一丁目,ヤマガチョウ 1,YAMAGACHO 1,,34.645111,135.60232
山賀町二丁目,ヤマガチョウ 2,YAMAGACHO 2,,34.644906,135.601165
山賀町三丁目,ヤマガチョウ 3,YAMAGACHO 3,,34.645074,135.599913
山賀町四丁目,ヤマガチョウ 4,YAMAGACHO 4,,34.648586,135.602265
山賀町五丁目,ヤマガチョウ 5,YAMAGACHO 5,,34.648612,135.601093
山賀町六丁目,ヤマガチョウ 6,YAMAGACHO 6,,34.648662,135.599875
山城町一丁目,ヤマシロチョウ 1,YAMASHIROCHO 1,,34.632461,135.598695
山城町二丁目,ヤマシロチョウ 2,YAMASHIROCHO 2,,34.633357,135.600367
山城町三丁目,ヤマシロチョウ 3,YAMASHIROCHO 3,,34.636315,135.601015
山城町四丁目,ヤマシロチョウ 4,YAMASHIROCHO 4,,34.636287,135.599911
山城町五丁目,ヤマシロチョウ 5,YAMASHIROCHO 5,,34.636342,135.598712
山本高安町一丁目,ヤマモトタカヤスチョウ 1,YAMAMOTOTAKAYASUCHO 1,,34.620932,135.623836
山本高安町二丁目,ヤマモトタカヤスチョウ 2,YAMAMOTOTAKAYASUCHO 2,,34.617608,135.62331
山本町一丁目,ヤマモトチョウ 1,YAMAMOTOCHO 1,,34.628088,135.619661
山本町二丁目,ヤマモトチョウ 2,YAMAMOTOCHO 2,,34.629738,135.620306
山本町三丁目,ヤマモトチョウ 3,YAMAMOTOCHO 3,,34.630843,135.620485
山本町四丁目,ヤマモトチョウ 4,YAMAMOTOCHO 4,,34.63205,135.620412
山本町五丁目,ヤマモトチョウ 5,YAMAMOTOCHO 5,,34.633537,135.619896
山本町北一丁目,ヤマモトチョウキタ 1,YAMAMOTOCHO KITA 1,,34.634554,135.619167
山本町北二丁目,ヤマモトチョウキタ 2,YAMAMOTOCHO KITA 2,,34.635617,135.618472
山本町北三丁目,ヤマモトチョウキタ 3,YAMAMOTOCHO KITA 3,,34.637405,135.618339
山本町北四丁目,ヤマモトチョウキタ 4,YAMAMOTOCHO KITA 4,,34.639104,135.617786
山本町北五丁目,ヤマモトチョウキタ 5,YAMAMOTOCHO KITA 5,,34.641168,135.61659
山本町北六丁目,ヤマモトチョウキタ 6,YAMAMOTOCHO KITA 6,,34.64348,135.616483
山本町北七丁目,ヤマモトチョウキタ 7,YAMAMOTOCHO KITA 7,,34.645565,135.616216
山本町北八丁目,ヤマモトチョウキタ 8,YAMAMOTOCHO KITA 8,,34.64731,135.617041
山本町南一丁目,ヤマモトチョウミナミ 1,YAMAMOTOCHO MINAMI 1,,34.626866,135.619119
山本町南二丁目,ヤマモトチョウミナミ 2,YAMAMOTOCHO MINAMI 2,,34.624208,135.618434
山本町南三丁目,ヤマモトチョウミナミ 3,YAMAMOTOCHO MINAMI 3,,34.624289,135.620132
山本町南四丁目,ヤマモトチョウミナミ 4,YAMAMOTOCHO MINAMI 4,,34.625995,135.621777
山本町南五丁目,ヤマモトチョウミナミ 5,YAMAMOTOCHO MINAMI 5,,34.622662,135.62223
山本町南六丁目,ヤマモトチョウミナミ 6,YAMAMOTOCHO MINAMI 6,,34.622634,135.620693
山本町南七丁目,ヤマモトチョウミナミ 7,YAMAMOTOCHO MINAMI 7,,34.620329,135.620316
山本町南八丁目,ヤマモトチョウミナミ 8,YAMAMOTOCHO MINAMI 8,,34.620728,135.616405
弓削町一丁目,ユウゲチョウ 1,YUGECHO 1,,34.599503,135.61317
弓削町二丁目,ユウゲチョウ 2,YUGECHO 2,,34.598027,135.611983
弓削町三丁目,ユウゲチョウ 3,YUGECHO 3,,34.598017,135.614844
弓削町南一丁目,ユウゲチョウミナミ 1,YUGECHOMINAMI 1,,34.595138,135.610252
弓削町南二丁目,ユウゲチョウミナミ 2,YUGECHOMINAMI 2,,34.594989,135.612358
弓削町南三丁目,ユウゲチョウミナミ 3,YUGECHOMINAMI 3,,34.595527,135.614029
陽光園一丁目,ヨウコウエン 1,YOKOEN 1,,34.62121,135.599421
陽光園二丁目,ヨウコウエン 2,YOKOEN 2,,34.618972,135.59947
龍華町一丁目,リュウゲチョウ 1,RYUGECHO 1,,34.620945,135.586193
龍華町二丁目,リュウゲチョウ 2,RYUGECHO 2,,34.622609,135.581545
若草町,ワカクサチョウ,WAKAKUSACHO,,34.627031,135.610487
若林町一丁目,ワカバヤシチョウ 1,WAKABAYASHICHO 1,,34.596524,135.581659
若林町二丁目,ワカバヤシチョウ 2,WAKABAYASHICHO 2,,34.594729,135.583616
若林町三丁目,ワカバヤシチョウ 3,WAKABAYASHICHO 3,,34.593162,135.580176
