name,name_kana,name_romaji,nickname,latitude,longitude
合場町,アイバチョウ,AIBACHO,,34.585892,135.810945
荒蒔町,アラマキチョウ,ARAMAKICHO,,34.597909,135.804787
石上町,イソノカミチョウ,ISONOKAMICHO,,34.613034,135.854541
櫟本町,イチノモトチョウ,ICHINOMOTOCHO,,34.619672,135.827452
稲葉町,イナバチョウ,INABACHO,,34.592319,135.804316
岩室町,イワムロチョウ,IWAMUROCHO,,34.593747,135.812111
岩屋町,イワヤチョウ,IWAYACHO,,34.617436,135.857826
内馬場町,ウチババチョウ,UCHIBABACHO,,34.593026,135.862855
庵治町,オウジチョウ,OJICHO,,34.581956,135.793285
乙木町,オトギチョウ,OTOGICHO,,34.582046,135.849938
海知町,カイチチョウ,KAICHICHO,,34.563769,135.820077
嘉幡町,カバタチョウ,KABATACHO,,34.589665,135.797859
上仁興町,カミニゴウチョウ,KAMINIGOCHO,,34.573531,135.894393
萱生町,カヨウチョウ,KAYOCHO,,34.570931,135.849252
川原城町,カワハラジョウチョウ,KAWAHARAJOCHO,,34.599518,135.834639
上総町,カンサチョウ,KANSACHO,,34.611787,135.820342
岸田町,キシダチョウ,KISHIDACHO,,34.565066,135.832589
喜殿町,キドノチョウ,KIDONOCHO,,34.608837,135.815309
九条町,クジョウチョウ,KUJOCHO,,34.581534,135.821236
蔵之庄町,クラノショウチョウ,KURANOSHOCHO,,34.63263,135.826598
御経野町,ゴキョウノチョウ,GOKYONOCHO,,34.592613,135.838622
小島町,コジマチョウ,KOJIMACHO,,34.584539,135.802646
小田中町,コダナカチョウ,KODANAKACHO,,34.610092,135.826051
指柳町,サシヤナギチョウ,SASHIYANAGICHO,,34.604535,135.825512
佐保庄町,サホノショウチョウ,SAHONOSHOCHO,,34.57626,135.844765
三昧田町,サンマイデンチョウ,SAMMAIDENCHO,,34.580928,135.838148
渋谷町,シブタニチョウ,SHIBUTANICHO,,34.552489,135.854741
下仁興町,シモニゴウチョウ,SHIMONIGOCHO,,34.581103,135.884782
成願寺町,ジョウガンジチョウ,JOGANJICHO,,34.569385,135.841751
小路町,ショウジチョウ,SHOJICHO,,34.603675,135.807121
杉本町,スギモトチョウ,SUGIMOTOCHO,,34.601706,135.815434
前栽町,センザイチョウ,SENZAICHO,,34.601808,135.819802
園原町,ソノハラチョウ,SONOHARACHO,,34.585177,135.852852
杣之内町,ソマノウチチョウ,SOMANOCHICHO,,34.591928,135.850883
田井庄町,タイノショウチョウ,TAINOSHOCHO,,34.598497,135.825574
滝本町,タキモトチョウ,TAKIMOTOCHO,,34.598395,135.871681
竹之内町,タケノウチチョウ,TAKENOCHICHO,,34.578019,135.849749
田町,タチョウ,TACHO,,34.589244,135.830684
田部町,タベチョウ,TABECHO,,34.607304,135.829955
丹波市町,タンバイチチョウ,TAMBAICHICHO,,34.594829,135.83252
苣原町,チシャワラチョウ,CHISHAWARACHO,,34.585328,135.897486
遠田町,トオダチョウ,TODACHO,,34.558382,135.823578
富堂町,トミドウチョウ,TOMIDOCHO,,34.595596,135.819836
豊井町,トヨイチョウ,TOYOICHO,,34.604656,135.856789
豊田町,トヨダチョウ,TOYODACHO,,34.606904,135.849703
長滝町,ナガタキチョウ,NAGATAKICHO,,34.595182,135.888744
中町,ナカチョウ,NAKACHO,,34.605119,135.799362
中之庄町,ナカノショウチョウ,NAKANOSHOCHO,,34.635081,135.841535
永原町,ナガハラチョウ,NAGAHARACHO,,34.581034,135.829754
中山町,ナカヤマチョウ,NAKAYAMACHO,,34.565002,135.847544
長柄町,ナガラチョウ,NAGARACHO,,34.572022,135.828362
楢町,ナラチョウ,NARACHO,,34.624916,135.828293
新泉町,ニイズミチョウ,NIIZUMICHO,,34.569039,135.834526
二階堂上ノ庄町,ニカイドウカミノショウチョウ,NIKAIDO KAMINOSHOCHO,,34.598804,135.799351
二階堂北菅田町,ニカイドウキタスガタチョウ,NIKAIDO KITASUGATACHO,,34.599176,135.792971
二階堂南菅田町,ニカイドウミナミスガタチョウ,NIKAIDO MINAMISUGATACHO,,34.595028,135.792562
西井戸堂町,ニシイドウドウチョウ,NISHIIDODOCHO,,34.58589,135.816656
西長柄町,ニシナガラチョウ,NISHINAGARACHO,,34.57192,135.821896
檜垣町,ヒガイチョウ,HIGAICHO,,34.555693,135.82877
東井戸堂町,ヒガシイドウドウチョウ,HIGASHIIDODOCHO,,34.589918,135.822208
備前町,ビゼンチョウ,BIZENCHO,,34.572817,135.815728
兵庫町,ヒョウゴチョウ,HYOGOCHO,,34.573332,135.836528
平等坊町,ビョウドウボウチョウ,BYODOBOCHO,,34.599667,135.812174
福住町,フクスミチョウ,FUKUSUMICHO,,34.61232,135.914051
福知堂町,フクチドウチョウ,FUKUCHIDOCHO,,34.579133,135.834292
藤井町,フジイチョウ,FUJIICHO,,34.564366,135.881127
布留町,フルチョウ,FURUCHO,,34.599353,135.848117
別所町,ベッショチョウ,BESSHOCHO,,34.609785,135.836398
勾田町,マガタチョウ,MAGATACHO,,34.589717,135.838151
三島町,ミシマチョウ,MISHIMACHO,,34.601441,135.841117
南六条町,ミナミロクジョウチョウ,MINAMIROKUJOCHO,,34.608718,135.803447
武蔵町,ムサシチョウ,MUSASHICHO,,34.565523,135.814967
守目堂町,モリメドウチョウ,MORIMEDOCHO,,34.595222,135.837805
森本町,モリモトチョウ,MORIMOTOCHO,,34.631631,135.835111
柳本町,ヤナギモトチョウ,YANAGIMOTOCHO,,34.555738,135.847709
山田町,ヤマダチョウ,YAMADACHO,,34.628658,135.929874
吉田町,ヨシダチョウ,YOSHIDACHO,,34.577984,135.810427
和爾町,ワニチョウ,WANICHO,,34.628448,135.842366
