name,name_kana,name_romaji,nickname,latitude,longitude
有木,アラキ,ARAKI,,36.235391,133.320986
飯美,イイビ,IIBI,,36.301187,133.334704
池田,イケダ,IKEDA,,36.226403,133.30834
伊後,イゴ,IGO,,36.321549,133.266268
犬来,イヌグ,INUGU,,36.219012,133.366251
今津,イマヅ,IMAZU,,36.183715,133.304846
卯敷,ウズキ,UZUKI,,36.274847,133.361173
大久,オオク,OKU,,36.257627,133.361197
釜,カマ,KAMA,,36.233478,133.370164
上西,カミニシ,KAMINISHI,,36.235742,133.265782
加茂,カモ,KAMO,,36.189315,133.28268
元屋,ガンヤ,GANYA,,36.302602,133.315184
北方,キタガタ,KITAGATA,,36.272227,133.196145
久見,クミ,KUMI,,36.31611,133.242126
蔵田,クラタ,KURATA,,36.253611,133.190009
小路,コウジ,KOJI,,36.265085,133.257661
郡,コオリ,KORI,,36.279462,133.265182
栄町,サカエマチ,SAKAEMACHI,,36.215099,133.329847
下西,シモニシ,SHIMONISHI,,36.2074,133.310029
城北町,ジョウホクマチ,JOHOKUMACHI,,36.212736,133.319507
代,シロ,SHIRO,,36.305413,133.225098
蛸木,タクギ,TAKUGI,,36.177605,133.262905
津戸,ツド,TSUDO,,36.180296,133.246599
都万,ツマ,TSUMA,,36.213151,133.243236
東郷,トウゴウ,TOGO,,36.232244,133.340843
中町,ナカマチ,NAKAMACHI,,36.205758,133.334121
中村,ナカムラ,NAKAMURA,,36.294806,133.289607
那久,ナグ,NAGU,,36.228154,133.212801
那久路,ナグチ,NAGUCHI,,36.261997,133.239435
苗代田,ナワシロダ,NAWASHIRODA,,36.268317,133.230511
西田,ニシダ,NISHIDA,,36.202648,133.296214
西町,ニシマチ,NISHIMACHI,,36.209335,133.325652
西村,ニシムラ,NISHIMURA,,36.328764,133.288027
原田,ハラダ,HARADA,,36.249011,133.29653
東町,ヒガシマチ,HIGASHIMACHI,,36.208657,133.334786
布施,フセ,FUSE,,36.2773,133.332977
平,ヘイ,HEI,,36.218445,133.297933
岬町,ミサキマチ,MISAKIMACHI,,36.184316,133.325982
湊,ミナト,MINATO,,36.319201,133.294109
港町,ミナトマチ,MINATOMACHI,,36.204478,133.32692
南方,ミナミガタ,MINAMIGATA,,36.270141,133.216678
山田,ヤマダ,YAMADA,,36.295867,133.261626
油井,ユイ,YUI,,36.23927,133.204009
飯田,イイダ,IIDA,,36.218857,133.354455
