name,name_kana,name_romaji,nickname,latitude,longitude
藍畑,アイハタ,AIHATA,,34.099208,134.438628
石井,イシイ,ISHII,,34.065302,134.446602
浦庄,ウラショウ,URASHO,,34.066913,134.414588
高川原,タカガワラ,TAKAGAWARA,,34.080584,134.445787
高原,タカハラ,TAKAHARA,,34.083226,134.414166
