name,name_kana,name_romaji,nickname,latitude,longitude
阿方,アガタ,AGATA,,34.067445,132.966444
朝倉上,アサクラカミ,ASAKURAKAMI,,33.971933,133.008027
朝倉北,アサクラキタ,ASAKURAKITA,,33.993194,133.014454
朝倉下,アサクラシモ,ASAKURASHIMO,,34.001753,133.014371
朝倉南,アサクラミナミオツ,ASAKURAMINAMI OTSU,,33.989148,133.03035
旭町一丁目,アサヒマチ 1,ASAHIMACHI 1,,34.063744,132.999794
旭町二丁目,アサヒマチ 2,ASAHIMACHI 2,,34.062487,133.00123
旭町三丁目,アサヒマチ 3,ASAHIMACHI 3,,34.06101,133.002238
旭町四丁目,アサヒマチ 4,ASAHIMACHI 4,,34.059294,133.003813
旭町五丁目,アサヒマチ 5,ASAHIMACHI 5,,34.057286,133.005172
五十嵐,イカナシ,IKANASHI,,34.030621,132.983636
いこいの丘,イコイノオカ,IKOINOKA,,34.070253,132.978572
石井町一丁目,イシイチョウ 1,ISHIICHO 1,,34.076301,132.988283
石井町二丁目,イシイチョウ 2,ISHIICHO 2,,34.079513,132.986852
石井町三丁目,イシイチョウ 3,ISHIICHO 3,,34.082305,132.986971
石井町四丁目,イシイチョウ 4,ISHIICHO 4,,34.084415,132.986241
石井町五丁目,イシイチョウ 5,ISHIICHO 5,,34.079977,132.980332
石橋町一丁目,イシバシチョウ 1,ISHIBASHICHO 1,,34.046668,133.003018
石橋町二丁目,イシバシチョウ 2,ISHIBASHICHO 2,,34.045076,133.003563
泉川町一丁目,イズミガワチョウ 1,IZUMIGAWACHO 1,,34.057516,132.997028
泉川町二丁目,イズミガワチョウ 2,IZUMIGAWACHO 2,,34.054662,132.992789
今治村,イマバリムラ,IMABARIMURA,,34.022239,133.093952
内堀一丁目,ウチボリ 1,UCHIBORI 1,,34.103784,132.96803
内堀二丁目,ウチボリ 2,UCHIBORI 2,,34.102948,132.965212
内堀三丁目,ウチボリ 3,UCHIBORI 3,,34.101566,132.962002
馬越,ウマゴエチョウ,UMAGOECHO,,34.062119,132.98112
馬越町一丁目,ウマゴエチョウ 1,UMAGOECHO 1,,34.055721,132.983855
馬越町二丁目,ウマゴエチョウ 2,UMAGOECHO 2,,34.058998,132.982658
馬越町三丁目,ウマゴエチョウ 3,UMAGOECHO 3,,34.057659,132.980851
馬越町四丁目,ウマゴエチョウ 4,UMAGOECHO 4,,34.055246,132.981332
馬島,ウマシマ,UMASHIMA,,34.117553,132.992708
枝堀町一丁目,エダボリチョウ 1,EDABORICHO 1,,34.061724,133.008675
枝堀町二丁目,エダボリチョウ 2,EDABORICHO 2,,34.060502,133.009992
枝堀町三丁目,エダボリチョウ 3,EDABORICHO 3,,34.058506,133.010454
恵美須町一丁目,エビスチョウ 1,EBISUCHO 1,,34.067381,133.005218
恵美須町二丁目,エビスチョウ 2,EBISUCHO 2,,34.065859,133.006464
恵美須町三丁目,エビスチョウ 3,EBISUCHO 3,,34.066105,133.008449
延喜,エンギ,ENGI,,34.07329,132.958493
大新田町一丁目,オオシンデンチョウ 1,OSHINDENCHO 1,,34.08283,132.994296
大新田町二丁目,オオシンデンチョウ 2,OSHINDENCHO 2,,34.078516,132.993904
大新田町三丁目,オオシンデンチョウ 3,OSHINDENCHO 3,,34.079411,132.992779
大新田町四丁目,オオシンデンチョウ 4,OSHINDENCHO 4,,34.082828,132.992578
大新田町五丁目,オオシンデンチョウ 5,OSHINDENCHO 5,,34.080186,132.990399
大西町大井浜,オオニシチョウオオイハマ,ONISHICHO OIHAMA,,34.0635,132.923462
大西町九王,オオニシチョウクオウ,ONISHICHO KUO,,34.084067,132.926907
大西町紺原,オオニシチョウコンバラ,ONISHICHO KOMBARA,,34.067114,132.938228
大西町新町,オオニシチョウシンマチ,ONISHICHO SHIMMACHI,,34.065189,132.93073
大西町別府,オオニシチョウベフ,ONISHICHO BEFU,,34.058588,132.895185
大西町星浦,オオニシチョウホシノウラ,ONISHICHO HOSHINORA,,34.049739,132.901623
大西町宮脇,オオニシチョウミヤワキ,ONISHICHO MIYAWAKI,,34.052585,132.929187
大西町山之内,オオニシチョウヤマノウチ,ONISHICHO YAMANOCHI,,34.035657,132.909219
大西町脇,オオニシチョウワキ,ONISHICHO WAKI,,34.055476,132.915426
大浜町一丁目,オオハマチョウ 1,OHAMACHO 1,,34.096148,132.983253
大浜町二丁目,オオハマチョウ 2,OHAMACHO 2,,34.098195,132.981818
大浜町三丁目,オオハマチョウ 3,OHAMACHO 3,,34.10051,132.980712
大三島町明日,オオミシマチョウアケビ,OMISHIMACHO AKEBI,,34.260029,133.007765
大三島町台,オオミシマチョウウテナ,OMISHIMACHO UTENA,,34.229008,133.005092
大三島町浦戸,オオミシマチョウウラド,OMISHIMACHO URADO,,34.217697,132.958711
大三島町大見,オオミシマチョウオオミ,OMISHIMACHO OMI,,34.264114,132.989086
大三島町口総,オオミシマチョウクチスボ,OMISHIMACHO KUCHISUBO,,34.216005,132.971626
大三島町野々江,オオミシマチョウノノエ,OMISHIMACHO NONOE,,34.21503,132.997318
大三島町肥海,オオミシマチョウヒガイ,OMISHIMACHO HIGAI,,34.273994,132.998095
大三島町宮浦,オオミシマチョウミヤウラ,OMISHIMACHO MIYAURA,,34.239033,133.025373
大三島町宗方,オオミシマチョウムナガタ,OMISHIMACHO MUNAGATA,,34.201649,132.95964
風早町一丁目,カザハヤチョウ 1,KAZAHAYACHO 1,,34.069007,133.003394
風早町二丁目,カザハヤチョウ 2,KAZAHAYACHO 2,,34.06979,133.002706
風早町三丁目,カザハヤチョウ 3,KAZAHAYACHO 3,,34.070746,133.00192
風早町四丁目,カザハヤチョウ 4,KAZAHAYACHO 4,,34.07209,133.000802
片原町一丁目,カタハラチョウ 1,KATAHARACHO 1,,34.069063,133.005676
片原町二丁目,カタハラチョウ 2,KATAHARACHO 2,,34.070639,133.004004
片原町三丁目,カタハラチョウ 3,KATAHARACHO 3,,34.071596,133.00303
片原町四丁目,カタハラチョウ 4,KATAHARACHO 4,,34.072593,133.00216
片原町五丁目,カタハラチョウ 5,KATAHARACHO 5,,34.071995,133.003592
片山一丁目,カタヤマ 1,KATAYAMA 1,,34.054743,132.978966
片山二丁目,カタヤマ 2,KATAYAMA 2,,34.052016,132.982058
片山三丁目,カタヤマ 3,KATAYAMA 3,,34.05087,132.985173
片山四丁目,カタヤマ 4,KATAYAMA 4,,34.049094,132.986422
河南町一丁目,カナンチョウ 1,KANANCHO 1,,34.051351,132.994738
河南町二丁目,カナンチョウ 2,KANANCHO 2,,34.048916,132.994171
河南町三丁目,カナンチョウ 3,KANANCHO 3,,34.049935,132.991628
鐘場町一丁目,カネバチョウ 1,KANEBACHO 1,,34.084919,132.991208
鐘場町二丁目,カネバチョウ 2,KANEBACHO 2,,34.0842,132.989227
上浦町甘崎,カミウラチョウアマザキ,KAMIURACHO AMAZAKI,,34.242044,133.041052
上浦町井口,カミウラチョウイノクチ,KAMIURACHO INOKUCHI,,34.262214,133.032107
上浦町盛,カミウラチョウサカリ,KAMIURACHO SAKARI,,34.288275,133.015129
上浦町瀬戸,カミウラチョウセト,KAMIURACHO SETO,,34.221949,133.047066
上徳,カミトク,KAMITOKU,,34.036732,133.014342
上徳一丁目,カミトク 1,KAMITOKU 1,,34.043615,133.015501
唐子台西一丁目,カラコダイニシ 1,KARAKODAINISHI 1,,34.033827,133.02559
唐子台西二丁目,カラコダイニシ 2,KARAKODAINISHI 2,,34.032165,133.025844
唐子台西三丁目,カラコダイニシ 3,KARAKODAINISHI 3,,34.030273,133.026014
唐子台東一丁目,カラコダイヒガシ 1,KARAKODAIHIGASHI 1,,34.032881,133.028424
唐子台東二丁目,カラコダイヒガシ 2,KARAKODAIHIGASHI 2,,34.030599,133.028421
唐子台東三丁目,カラコダイヒガシ 3,KARAKODAIHIGASHI 3,,34.028458,133.029383
神宮,カンノミヤ,KANNOMIYA,,34.051169,132.954931
祇園町一丁目,ギオンチョウ 1,GIONCHO 1,,34.055947,133.007714
祇園町二丁目,ギオンチョウ 2,GIONCHO 2,,34.05493,133.005615
祇園町三丁目,ギオンチョウ 3,GIONCHO 3,,34.053997,133.003475
菊間町池原,キクマチョウイケノハラ,KIKUMACHO IKENOHARA,,34.036049,132.862892
菊間町川上,キクマチョウカワカミ,KIKUMACHO KAWAKAMI,,34.011936,132.866332
菊間町河之内,キクマチョウカワノウチ,KIKUMACHO KAWANOCHI,,34.012666,132.881883
菊間町高田,キクマチョウコウダ,KIKUMACHO KODA,,34.019424,132.846243
菊間町佐方,キクマチョウサガタ,KIKUMACHO SAGATA,,34.047604,132.886606
菊間町種,キクマチョウタネ,KIKUMACHO TANE,,34.041023,132.871958
菊間町田之尻,キクマチョウタノシリ,KIKUMACHO TANOSHIRI,,34.018543,132.815362
菊間町長坂,キクマチョウナガサカ,KIKUMACHO NAGASAKA,,34.024155,132.834506
菊間町中川,キクマチョウナカノカワ,KIKUMACHO NAKANOKAWA,,34.003824,132.858575
菊間町西山,キクマチョウニシヤマ,KIKUMACHO NISHIYAMA,,34.008269,132.832451
菊間町浜,キクマチョウハマ,KIKUMACHO HAMA,,34.036417,132.847936
菊間町松尾,キクマチョウマツオ,KIKUMACHO MATSUO,,34.020776,132.8697
北高下町一丁目,キタコウゲチョウ 1,KITAKOGECHO 1,,34.054301,133.014409
北高下町二丁目,キタコウゲチョウ 2,KITAKOGECHO 2,,34.05244,133.012266
北高下町三丁目,キタコウゲチョウ 3,KITAKOGECHO 3,,34.050983,133.0108
北高下町四丁目,キタコウゲチョウ 4,KITAKOGECHO 4,,34.049721,133.009244
北鳥生町一丁目,キタトリウチョウ 1,KITATORIUCHO 1,,34.056517,133.011944
北鳥生町二丁目,キタトリウチョウ 2,KITATORIUCHO 2,,34.054919,133.008973
北鳥生町三丁目,キタトリウチョウ 3,KITATORIUCHO 3,,34.053655,133.007255
北鳥生町四丁目,キタトリウチョウ 4,KITATORIUCHO 4,,34.05194,133.005303
北鳥生町五丁目,キタトリウチョウ 5,KITATORIUCHO 5,,34.049862,133.003177
北浜町,キタハマチョウ,KITAHAMACHO,,34.077674,132.997974
北日吉町一丁目,キタヒヨシチョウ 1,KITAHIYOSHICHO 1,,34.064505,132.991031
北日吉町二丁目,キタヒヨシチョウ 2,KITAHIYOSHICHO 2,,34.061639,132.987193
北日吉町三丁目,キタヒヨシチョウ 3,KITAHIYOSHICHO 3,,34.05937,132.985746
北宝来町一丁目,キタホウライチョウ 1,KITAHORAICHO 1,,34.064123,132.995396
北宝来町二丁目,キタホウライチョウ 2,KITAHORAICHO 2,,34.065407,132.994125
北宝来町三丁目,キタホウライチョウ 3,KITAHORAICHO 3,,34.066592,132.992724
北宝来町四丁目,キタホウライチョウ 4,KITAHORAICHO 4,,34.067698,132.991471
喜田村,キタムラ,KITAMURA,,34.039383,133.018398
喜田村一丁目,キタムラ 1,KITAMURA 1,,34.045455,133.018533
喜田村二丁目,キタムラ 2,KITAMURA 2,,34.047487,133.019627
喜田村三丁目,キタムラ 3,KITAMURA 3,,34.04869,133.020893
喜田村四丁目,キタムラ 4,KITAMURA 4,,34.048444,133.0236
喜田村五丁目,キタムラ 5,KITAMURA 5,,34.045095,133.025114
喜田村六丁目,キタムラ 6,KITAMURA 6,,34.044306,133.022631
喜田村七丁目,キタムラ 7,KITAMURA 7,,34.042783,133.020258
喜田村八丁目,キタムラ 8,KITAMURA 8,,34.040899,133.018976
衣干町一丁目,キヌボシチョウ 1,KINUBOSHICHO 1,,34.050233,133.017143
衣干町二丁目,キヌボシチョウ 2,KINUBOSHICHO 2,,34.049383,133.017687
衣干町三丁目,キヌボシチョウ 3,KINUBOSHICHO 3,,34.047891,133.015378
衣干町四丁目,キヌボシチョウ 4,KINUBOSHICHO 4,,34.045804,133.01305
共栄町一丁目,キョウエイチョウ 1,KYOEICHO 1,,34.067322,133.000524
共栄町二丁目,キョウエイチョウ 2,KYOEICHO 2,,34.068144,132.999834
共栄町三丁目,キョウエイチョウ 3,KYOEICHO 3,,34.069021,132.999097
共栄町四丁目,キョウエイチョウ 4,KYOEICHO 4,,34.070339,132.998055
共栄町五丁目,キョウエイチョウ 5,KYOEICHO 5,,34.071638,132.997275
蔵敷町一丁目,クラシキチョウ 1,KURASHIKICHO 1,,34.058469,132.999739
蔵敷町二丁目,クラシキチョウ 2,KURASHIKICHO 2,,34.056601,133.001376
クリエイティブヒルズ,クリエイティブヒルズ,KURIEITEIBUHIRUZU,,34.049244,132.967167
来島,クルシマ,KURUSHIMA,,34.125389,132.979247
鯉池町一丁目,コイケチョウ 1,KOIKECHO 1,,34.052946,132.987634
鯉池町二丁目,コイケチョウ 2,KOIKECHO 2,,34.052473,132.989083
鯉池町三丁目,コイケチョウ 3,KOIKECHO 3,,34.0513,132.990003
小泉一丁目,コイズミ 1,KOIZUMI 1,,34.050479,132.974899
小泉二丁目,コイズミ 2,KOIZUMI 2,,34.049728,132.977022
小泉三丁目,コイズミ 3,KOIZUMI 3,,34.048483,132.978943
小泉四丁目,コイズミ 4,KOIZUMI 4,,34.04657,132.980044
小泉五丁目,コイズミ 5,KOIZUMI 5,,34.045631,132.983181
郷桜井一丁目,ゴウザクライ 1,GOZAKURAI 1,,34.018869,133.031498
郷桜井二丁目,ゴウザクライ 2,GOZAKURAI 2,,34.012047,133.036228
郷桜井三丁目,ゴウザクライ 3,GOZAKURAI 3,,34.014106,133.037238
郷桜井四丁目,ゴウザクライ 4,GOZAKURAI 4,,34.013855,133.039753
広紹寺町一丁目,コウジョウジチョウ 1,KOJOJICHO 1,,34.054153,133.001016
広紹寺町二丁目,コウジョウジチョウ 2,KOJOJICHO 2,,34.052035,133.002326
郷新屋敷町一丁目,ゴウシンヤシキチョウ 1,GOSHINYASHIKICHO 1,,34.044242,133.001803
郷新屋敷町二丁目,ゴウシンヤシキチョウ 2,GOSHINYASHIKICHO 2,,34.042657,133.003986
郷新屋敷町三丁目,ゴウシンヤシキチョウ 3,GOSHINYASHIKICHO 3,,34.041307,133.002228
郷新屋敷町四丁目,ゴウシンヤシキチョウ 4,GOSHINYASHIKICHO 4,,34.042977,133.000152
郷新屋敷町五丁目,ゴウシンヤシキチョウ 5,GOSHINYASHIKICHO 5,,34.040818,133.000123
高地町一丁目,コウチチョウ 1,KOCHICHO 1,,34.071103,132.983802
高地町二丁目,コウチチョウ 2,KOCHICHO 2,,34.075734,132.976221
郷本町一丁目,ゴウホンチョウ 1,GOHONCHO 1,,34.048052,132.996979
郷本町二丁目,ゴウホンチョウ 2,GOHONCHO 2,,34.046835,132.995041
郷本町三丁目,ゴウホンチョウ 3,GOHONCHO 3,,34.046103,132.992464
小浦町二丁目,コウラチョウ 2,KORACHO 2,,34.111722,132.974534
郷六ヶ内町一丁目, 1, 1,,34.046078,132.999519
郷六ヶ内町二丁目, 2, 2,,34.0446,132.997979
郷六ヶ内町三丁目, 3, 3,,34.04338,132.996768
黄金町一丁目,コガネチョウ 1,KOGANECHO 1,,34.066169,133.002584
黄金町二丁目,コガネチョウ 2,KOGANECHO 2,,34.064434,133.004375
黄金町三丁目,コガネチョウ 3,KOGANECHO 3,,34.062591,133.00491
黄金町四丁目,コガネチョウ 4,KOGANECHO 4,,34.060817,133.007163
黄金町五丁目,コガネチョウ 5,KOGANECHO 5,,34.059533,133.008375
黄金町六丁目,コガネチョウ 6,KOGANECHO 6,,34.057733,133.008548
国分,コクブ,KOKUBU,,34.029098,133.015824
国分一丁目,コクブ 1,KOKUBU 1,,34.031752,133.022762
国分二丁目,コクブ 2,KOKUBU 2,,34.031597,133.019575
国分三丁目,コクブ 3,KOKUBU 3,,34.027731,133.019983
国分四丁目,コクブ 4,KOKUBU 4,,34.02653,133.027037
国分五丁目,コクブ 5,KOKUBU 5,,34.02578,133.03098
国分六丁目,コクブ 6,KOKUBU 6,,34.023707,133.02509
国分七丁目,コクブ 7,KOKUBU 7,,34.024489,133.019714
米屋町一丁目,コメヤマチ 1,KOMEYAMACHI 1,,34.068273,133.002199
米屋町二丁目,コメヤマチ 2,KOMEYAMACHI 2,,34.069112,133.001477
米屋町三丁目,コメヤマチ 3,KOMEYAMACHI 3,,34.070034,133.00075
米屋町四丁目,コメヤマチ 4,KOMEYAMACHI 4,,34.071359,132.999642
古谷,コヤ,KOYA,,34.004965,132.990102
栄町一丁目,サカエマチ 1,SAKAEMACHI 1,,34.067681,133.001246
栄町二丁目,サカエマチ 2,SAKAEMACHI 2,,34.068534,133.000548
栄町三丁目,サカエマチ 3,SAKAEMACHI 3,,34.069425,132.999786
栄町四丁目,サカエマチ 4,SAKAEMACHI 4,,34.070819,132.998591
桜井,サクライ,SAKURAI,,34.004348,133.049499
桜井一丁目,サクライ 1,SAKURAI 1,,34.024301,133.040887
桜井二丁目,サクライ 2,SAKURAI 2,,34.022157,133.035943
桜井三丁目,サクライ 3,SAKURAI 3,,34.020627,133.031938
桜井四丁目,サクライ 4,SAKURAI 4,,34.018522,133.03838
桜井五丁目,サクライ 5,SAKURAI 5,,34.021485,133.041981
桜井六丁目,サクライ 6,SAKURAI 6,,34.018657,133.043872
桜井団地一丁目,サクライダンチ 1,SAKURAIDANCHI 1,,34.027123,133.017066
桜井団地二丁目,サクライダンチ 2,SAKURAIDANCHI 2,,34.026008,133.016142
桜井団地三丁目,サクライダンチ 3,SAKURAIDANCHI 3,,34.025114,133.015538
桜井団地四丁目,サクライダンチ 4,SAKURAIDANCHI 4,,34.023821,133.014885
桜井団地五丁目,サクライダンチ 5,SAKURAIDANCHI 5,,34.023718,133.013501
地堀一丁目,ジボリ 1,JIBORI 1,,34.105346,132.965755
地堀二丁目,ジボリ 2,JIBORI 2,,34.104544,132.964435
地堀三丁目,ジボリ 3,JIBORI 3,,34.105819,132.963705
地堀四丁目,ジボリ 4,JIBORI 4,,34.104831,132.9628
地堀五丁目,ジボリ 5,JIBORI 5,,34.104023,132.961947
地堀六丁目,ジボリ 6,JIBORI 6,,34.103017,132.960446
しまなみの杜,シマナミノモリ,SHIMANAMINOMORI,,34.071585,132.971549
しまなみヒルズ,シマナミヒルズ,SHIMANAMIHIRUZU,,34.069274,132.971902
末広町一丁目,スエヒロチョウ 1,SUEHIROCHO 1,,34.065511,133.001605
末広町二丁目,スエヒロチョウ 2,SUEHIROCHO 2,,34.063954,133.002881
末広町三丁目,スエヒロチョウ 3,SUEHIROCHO 3,,34.062071,133.00406
末広町四丁目,スエヒロチョウ 4,SUEHIROCHO 4,,34.060151,133.00581
関前大下,セキゼンオオゲ,SEKIZEN OGE,,34.192192,132.925127
関前岡村,セキゼンオカムラ,SEKIZEN OKAMURA,,34.187489,132.877259
関前小大下,セキゼンコオゲ,SEKIZEN KOGE,,34.189904,132.901628
蒼社町一丁目,ソウシャチョウ 1,SOSHACHO 1,,34.055497,132.997286
蒼社町二丁目,ソウシャチョウ 2,SOSHACHO 2,,34.053435,132.9938
杣田,ソマダ,SOMADA,,34.09065,132.956483
大正町一丁目,タイショウチョウ 1,TAISHOCHO 1,,34.066814,132.9996
大正町二丁目,タイショウチョウ 2,TAISHOCHO 2,,34.068221,132.998475
大正町三丁目,タイショウチョウ 3,TAISHOCHO 3,,34.069994,132.996769
大正町四丁目,タイショウチョウ 4,TAISHOCHO 4,,34.070955,132.995981
大正町五丁目,タイショウチョウ 5,TAISHOCHO 5,,34.071952,132.995506
大正町六丁目,タイショウチョウ 6,TAISHOCHO 6,,34.073373,132.994567
大正町七丁目,タイショウチョウ 7,TAISHOCHO 7,,34.074882,132.993335
高市,タカイチ,TAKAICHI,,34.025404,133.00985
高橋,タカハシ,TAKAHASHI,,34.036697,132.967233
高橋ふれあいの丘,タカハシフレアイノオカ,TAKAHASHIFUREAINOKA,,34.040843,132.958921
高部,タカベ,TAKABE,,34.095635,132.969063
宅間,タクマ,TAKUMA,,34.077466,132.942137
立花町一丁目,タチバナチョウ 1,TACHIBANACHO 1,,34.053055,132.997457
立花町二丁目,タチバナチョウ 2,TACHIBANACHO 2,,34.051384,132.998474
立花町三丁目,タチバナチョウ 3,TACHIBANACHO 3,,34.049964,132.999896
立花町四丁目,タチバナチョウ 4,TACHIBANACHO 4,,34.048347,133.001237
玉川町大野,タマガワチョウオオノ,TAMAGAWACHO ONO,,34.022825,132.943507
玉川町鬼原,タマガワチョウオニバラ,TAMAGAWACHO ONIBARA,,33.997617,132.943899
玉川町葛谷,タマガワチョウカズラタニ,TAMAGAWACHO KAZURATANI,,34.00818,132.89886
玉川町桂,タマガワチョウカツラ,TAMAGAWACHO KATSURA,,34.010437,132.927383
玉川町木地,タマガワチョウキジ,TAMAGAWACHO KIJI,,33.936752,132.960744
玉川町高野,タマガワチョウコウヤ,TAMAGAWACHO KOYA,,34.012162,132.947799
玉川町小鴨部,タマガワチョウコカンベ,TAMAGAWACHO KOKAMBE,,34.014087,132.966533
玉川町三反地,タマガワチョウサンダンジ,TAMAGAWACHO SANDANJI,,34.017599,132.939696
玉川町摺木,タマガワチョウスルギ,TAMAGAWACHO SURUGI,,34.029166,132.938857
玉川町長谷,タマガワチョウナガタニ,TAMAGAWACHO NAGATANI,,34.004702,132.93343
玉川町中村,タマガワチョウナカムラ,TAMAGAWACHO NAKAMURA,,34.020335,132.953072
玉川町鍋地,タマガワチョウナベジ,TAMAGAWACHO NABEJI,,34.023914,132.919267
玉川町鈍川,タマガワチョウニブカワ,TAMAGAWACHO NIBUKAWA,,33.978095,132.948289
玉川町畑寺,タマガワチョウハタデラ,TAMAGAWACHO HATADERA,,34.001107,132.955412
玉川町別所,タマガワチョウベッショ,TAMAGAWACHO BESSHO,,34.017358,132.975659
玉川町法界寺,タマガワチョウホウカイジ,TAMAGAWACHO HOKAIJI,,34.032688,132.949432
玉川町御厩,タマガワチョウミマヤ,TAMAGAWACHO MIMAYA,,34.012718,132.912474
玉川町八幡,タマガワチョウヤワタ,TAMAGAWACHO YAWATA,,34.02794,132.977714
玉川町與和木,タマガワチョウヨワギ,TAMAGAWACHO YOWAGI,,34.033293,132.92785
玉川町龍岡上,タマガワチョウリュウオカカミ,TAMAGAWACHO RYUOKAKAMI,,33.947679,132.917215
玉川町龍岡下,タマガワチョウリュウオカシモ,TAMAGAWACHO RYUOKASHIMO,,33.9933,132.909232
旦,ダン,DAN,,34.015021,133.026161
近見町一丁目,チカミチョウ 1,CHIKAMICHO 1,,34.090563,132.985589
近見町二丁目,チカミチョウ 2,CHIKAMICHO 2,,34.087933,132.985326
近見町三丁目,チカミチョウ 3,CHIKAMICHO 3,,34.092511,132.981478
近見町四丁目,チカミチョウ 4,CHIKAMICHO 4,,34.088573,132.980953
近見町五丁目,チカミチョウ 5,CHIKAMICHO 5,,34.087819,132.975464
辻堂一丁目,ツジドウ 1,TSUJIDO 1,,34.040496,133.008736
辻堂二丁目,ツジドウ 2,TSUJIDO 2,,34.040304,133.006078
辻堂三丁目,ツジドウ 3,TSUJIDO 3,,34.038995,133.005224
辻堂四丁目,ツジドウ 4,TSUJIDO 4,,34.037972,133.00398
土橋町一丁目,ツチバシチョウ 1,TSUCHIBASHICHO 1,,34.0481,133.006481
土橋町二丁目,ツチバシチョウ 2,TSUCHIBASHICHO 2,,34.046578,133.004812
天保山町一丁目,テンポウザンチョウ 1,TEMPOZANCHO 1,,34.068833,133.008993
天保山町二丁目,テンポウザンチョウ 2,TEMPOZANCHO 2,,34.066316,133.010986
天保山町三丁目,テンポウザンチョウ 3,TEMPOZANCHO 3,,34.064584,133.012864
天保山町四丁目,テンポウザンチョウ 4,TEMPOZANCHO 4,,34.064886,133.015092
天保山町五丁目,テンポウザンチョウ 5,TEMPOZANCHO 5,,34.062958,133.016291
天保山町六丁目,テンポウザンチョウ 6,TEMPOZANCHO 6,,34.060585,133.019061
通町一丁目,トオリチョウ 1,TORICHO 1,,34.066886,133.003865
通町二丁目,トオリチョウ 2,TORICHO 2,,34.065305,133.005135
通町三丁目,トオリチョウ 3,TORICHO 3,,34.063484,133.007384
常盤町一丁目,トキワチョウ 1,TOKIWACHO 1,,34.068632,133.004559
常盤町二丁目,トキワチョウ 2,TOKIWACHO 2,,34.06745,133.002287
常盤町三丁目,トキワチョウ 3,TOKIWACHO 3,,34.066268,133.000227
常盤町四丁目,トキワチョウ 4,TOKIWACHO 4,,34.063824,132.997761
常盤町五丁目,トキワチョウ 5,TOKIWACHO 5,,34.06096,132.994766
常盤町六丁目,トキワチョウ 6,TOKIWACHO 6,,34.058102,132.991179
常盤町七丁目,トキワチョウ 7,TOKIWACHO 7,,34.055931,132.988937
常盤町八丁目,トキワチョウ 8,TOKIWACHO 8,,34.054135,132.986602
徳重,トクシゲ,TOKUSHIGE,,34.036394,132.985403
富田新港一丁目,トミタシンコウ 1,TOMITASHINKO 1,,34.049259,133.029882
富田新港二丁目,トミタシンコウ 2,TOMITASHINKO 2,,34.047285,133.027272
長沢,ナガサワ,NAGASAWA,,33.999056,133.039937
中寺,ナカデラ,NAKADERA,,34.037716,132.991148
中浜町一丁目,ナカバマチョウ 1,NAKABAMACHO 1,,34.069242,133.00398
中浜町二丁目,ナカバマチョウ 2,NAKABAMACHO 2,,34.070202,133.003167
中浜町三丁目,ナカバマチョウ 3,NAKABAMACHO 3,,34.071158,133.002472
中浜町四丁目,ナカバマチョウ 4,NAKABAMACHO 4,,34.07233,133.001445
中日吉町一丁目,ナカヒヨシチョウ 1,NAKAHIYOSHICHO 1,,34.062072,132.992226
中日吉町二丁目,ナカヒヨシチョウ 2,NAKAHIYOSHICHO 2,,34.059723,132.990223
中日吉町三丁目,ナカヒヨシチョウ 3,NAKAHIYOSHICHO 3,,34.057254,132.986967
中堀一丁目,ナカボリ 1,NAKABORI 1,,34.100997,132.966075
中堀二丁目,ナカボリ 2,NAKABORI 2,,34.099889,132.963399
中堀三丁目,ナカボリ 3,NAKABORI 3,,34.100864,132.959788
中堀四丁目,ナカボリ 4,NAKABORI 4,,34.100703,132.957991
波方町大浦,ナミカタチョウオオウラ,NAMIKATACHO OURA,,34.113951,132.963879
波方町岡,ナミカタチョウオカ,NAMIKATACHO OKA,,34.110418,132.930705
波方町小部,ナミカタチョウオベ,NAMIKATACHO OBE,,34.102454,132.929789
波方町郷,ナミカタチョウゴウ,NAMIKATACHO GO,,34.108409,132.960254
波方町波方,ナミカタチョウナミカタ,NAMIKATACHO NAMIKATA,,34.124868,132.948135
波方町西浦,ナミカタチョウニシウラ,NAMIKATACHO NISHIURA,,34.129969,132.941307
波方町樋口,ナミカタチョウヒノクチ,NAMIKATACHO HINOKUCHI,,34.096523,132.943191
波方町馬刀潟,ナミカタチョウマテガタ,NAMIKATACHO MATEGATA,,34.114599,132.922625
波方町宮崎,ナミカタチョウミヤザキ,NAMIKATACHO MIYAZAKI,,34.115241,132.904989
波方町森上,ナミカタチョウモリアゲ,NAMIKATACHO MORIAGE,,34.119077,132.932931
波方町養老,ナミカタチョウヨウロウ,NAMIKATACHO YORO,,34.108913,132.943133
にぎわい広場,ニギワイヒロバ,NIGIWAIHIROBA,,34.044275,132.962099
新谷,ニヤ,NIYA,,34.020049,132.988614
登畑,ノボリバタ,NOBORIBATA,,34.01972,133.016694
野間,ノマ,NOMA,,34.056388,132.944093
拝志,ハイシ,HAISHI,,34.040737,133.026185
伯方町有津,ハカタチョウアロウヅ,HAKATACHO AROZU,,34.203033,133.088204
伯方町伊方,ハカタチョウイカタ,HAKATACHO IKATA,,34.221683,133.07466
伯方町叶浦,ハカタチョウカノウラ,HAKATACHO KANORA,,34.208379,133.079126
伯方町北浦,ハカタチョウキタウラ,HAKATACHO KITAURA,,34.227039,133.097078
伯方町木浦,ハカタチョウキノウラ,HAKATACHO KINORA,,34.206212,133.111833
波止浜,ハシハマ,HASHIHAMA,,34.103644,132.971287
波止浜一丁目,ハシハマ 1,HASHIHAMA 1,,34.106266,132.967892
波止浜二丁目,ハシハマ 2,HASHIHAMA 2,,34.107837,132.966174
波止浜三丁目,ハシハマ 3,HASHIHAMA 3,,34.109229,132.967404
波止浜四丁目,ハシハマ 4,HASHIHAMA 4,,34.111454,132.96713
八町西一丁目,ハッチョウニシ 1,HATCHONISHI 1,,34.047495,132.988554
八町西二丁目,ハッチョウニシ 2,HATCHONISHI 2,,34.046586,132.989801
八町西三丁目,ハッチョウニシ 3,HATCHONISHI 3,,34.044384,132.990084
八町西四丁目,ハッチョウニシ 4,HATCHONISHI 4,,34.043133,132.994431
八町西五丁目,ハッチョウニシ 5,HATCHONISHI 5,,34.042089,132.992591
八町東一丁目,ハッチョウヒガシ 1,HATCHOHIGASHI 1,,34.041066,132.997024
八町東二丁目,ハッチョウヒガシ 2,HATCHOHIGASHI 2,,34.040137,132.995266
八町東三丁目,ハッチョウヒガシ 3,HATCHOHIGASHI 3,,34.037748,132.998154
八町東四丁目,ハッチョウヒガシ 4,HATCHOHIGASHI 4,,34.03928,132.999488
八町東五丁目,ハッチョウヒガシ 5,HATCHOHIGASHI 5,,34.037065,133.002573
八町東六丁目,ハッチョウヒガシ 6,HATCHOHIGASHI 6,,34.035213,133.001548
東鳥生町一丁目,ヒガシトリウチョウ 1,HIGASHITORIUCHO 1,,34.057951,133.017398
東鳥生町二丁目,ヒガシトリウチョウ 2,HIGASHITORIUCHO 2,,34.055549,133.018087
東鳥生町三丁目,ヒガシトリウチョウ 3,HIGASHITORIUCHO 3,,34.054096,133.018311
東鳥生町四丁目,ヒガシトリウチョウ 4,HIGASHITORIUCHO 4,,34.052193,133.019993
東鳥生町五丁目,ヒガシトリウチョウ 5,HIGASHITORIUCHO 5,,34.055899,133.022713
東村,ヒガシムラ,HIGASHIMURA,,34.038185,133.019991
東村一丁目,ヒガシムラ 1,HIGASHIMURA 1,,34.043233,133.028504
東村二丁目,ヒガシムラ 2,HIGASHIMURA 2,,34.041429,133.030725
東村三丁目,ヒガシムラ 3,HIGASHIMURA 3,,34.039889,133.033195
東村四丁目,ヒガシムラ 4,HIGASHIMURA 4,,34.038113,133.028162
東村五丁目,ヒガシムラ 5,HIGASHIMURA 5,,34.038859,133.023267
東村南一丁目,ヒガシムラミナミ 1,HIGASHIMURAMINAMI 1,,34.036434,133.03311
東村南二丁目,ヒガシムラミナミ 2,HIGASHIMURAMINAMI 2,,34.035748,133.027432
東門町一丁目,ヒガシモンチョウ 1,HIGASHIMONCHO 1,,34.064795,133.010133
東門町二丁目,ヒガシモンチョウ 2,HIGASHIMONCHO 2,,34.063319,133.011364
東門町三丁目,ヒガシモンチョウ 3,HIGASHIMONCHO 3,,34.061544,133.012025
東門町四丁目,ヒガシモンチョウ 4,HIGASHIMONCHO 4,,34.059604,133.013318
東門町五丁目,ヒガシモンチョウ 5,HIGASHIMONCHO 5,,34.061825,133.015016
東門町六丁目,ヒガシモンチョウ 6,HIGASHIMONCHO 6,,34.060343,133.016784
古国分一丁目,フルコクブ 1,FURUKOKUBU 1,,34.03121,133.03729
古国分二丁目,フルコクブ 2,FURUKOKUBU 2,,34.03207,133.032933
古国分三丁目,フルコクブ 3,FURUKOKUBU 3,,34.026752,133.035132
別宮町一丁目,ベックチョウ 1,BEKKUCHO 1,,34.066671,132.998065
別宮町二丁目,ベックチョウ 2,BEKKUCHO 2,,34.068068,132.997114
別宮町三丁目,ベックチョウ 3,BEKKUCHO 3,,34.069014,132.995528
別宮町四丁目,ベックチョウ 4,BEKKUCHO 4,,34.070503,132.993998
別宮町五丁目,ベックチョウ 5,BEKKUCHO 5,,34.071528,132.99197
別宮町六丁目,ベックチョウ 6,BEKKUCHO 6,,34.072762,132.992829
別宮町七丁目,ベックチョウ 7,BEKKUCHO 7,,34.07484,132.990744
別宮町八丁目,ベックチョウ 8,BEKKUCHO 8,,34.073033,132.9898
別宮町九丁目,ベックチョウ 9,BEKKUCHO 9,,34.070818,132.989317
別名,ベツミョウ,BETSUMYO,,34.044394,132.974477
本町一丁目,ホンマチ 1,HOMMACHI 1,,34.068585,133.00284
本町二丁目,ホンマチ 2,HOMMACHI 2,,34.069463,133.002097
本町三丁目,ホンマチ 3,HOMMACHI 3,,34.070373,133.001353
本町四丁目,ホンマチ 4,HOMMACHI 4,,34.071668,133.000221
本町五丁目,ホンマチ 5,HOMMACHI 5,,34.073323,132.998639
本町六丁目,ホンマチ 6,HOMMACHI 6,,34.075663,132.996776
本町七丁目,ホンマチ 7,HOMMACHI 7,,34.07767,132.995789
孫兵衛作,マゴベエサク,MAGOBEESAKU,,33.986108,133.050179
町谷,マチヤ,MACHIYA,,34.019203,133.001519
松木,マツギ,MATSUGI,,34.031383,133.003467
松本町一丁目,マツモトチョウ 1,MATSUMOTOCHO 1,,34.065078,133.000801
松本町二丁目,マツモトチョウ 2,MATSUMOTOCHO 2,,34.063403,133.002032
松本町三丁目,マツモトチョウ 3,MATSUMOTOCHO 3,,34.061566,133.00351
松本町四丁目,マツモトチョウ 4,MATSUMOTOCHO 4,,34.059664,133.004876
松本町五丁目,マツモトチョウ 5,MATSUMOTOCHO 5,,34.058546,133.006426
美須賀町一丁目,ミスカチョウ 1,MISUKACHO 1,,34.064291,133.008763
美須賀町二丁目,ミスカチョウ 2,MISUKACHO 2,,34.06247,133.00995
美須賀町三丁目,ミスカチョウ 3,MISUKACHO 3,,34.06101,133.011265
美須賀町四丁目,ミスカチョウ 4,MISUKACHO 4,,34.059108,133.012
湊町一丁目,ミナトチョウ 1,MINATOCHO 1,,34.086956,132.992262
湊町二丁目,ミナトチョウ 2,MINATOCHO 2,,34.091261,132.989332
南高下町一丁目,ミナミコウゲチョウ 1,MINAMIKOGECHO 1,,34.052134,133.015203
南高下町二丁目,ミナミコウゲチョウ 2,MINAMIKOGECHO 2,,34.050931,133.015979
南高下町三丁目,ミナミコウゲチョウ 3,MINAMIKOGECHO 3,,34.04933,133.013106
南高下町四丁目,ミナミコウゲチョウ 4,MINAMIKOGECHO 4,,34.047935,133.011125
南大門町一丁目,ミナミダイモンチョウ 1,MINAMIDAIMONCHO 1,,34.065272,132.997035
南大門町二丁目,ミナミダイモンチョウ 2,MINAMIDAIMONCHO 2,,34.066587,132.995554
南大門町三丁目,ミナミダイモンチョウ 3,MINAMIDAIMONCHO 3,,34.067809,132.993999
南大門町四丁目,ミナミダイモンチョウ 4,MINAMIDAIMONCHO 4,,34.069485,132.992278
南鳥生町一丁目,ミナミトリウチョウ 1,MINAMITORIUCHO 1,,34.055269,133.012598
南鳥生町二丁目,ミナミトリウチョウ 2,MINAMITORIUCHO 2,,34.053767,133.010425
南鳥生町三丁目,ミナミトリウチョウ 3,MINAMITORIUCHO 3,,34.052344,133.009034
南鳥生町四丁目,ミナミトリウチョウ 4,MINAMITORIUCHO 4,,34.050594,133.006951
南日吉町一丁目,ミナミヒヨシチョウ 1,MINAMIHIYOSHICHO 1,,34.059425,132.996082
南日吉町二丁目,ミナミヒヨシチョウ 2,MINAMIHIYOSHICHO 2,,34.057309,132.993421
南日吉町三丁目,ミナミヒヨシチョウ 3,MINAMIHIYOSHICHO 3,,34.054793,132.990888
南宝来町一丁目,ミナミホウライチョウ 1,MINAMIHORAICHO 1,,34.06138,132.9979
南宝来町二丁目,ミナミホウライチョウ 2,MINAMIHORAICHO 2,,34.059999,133.000801
南宝来町三丁目,ミナミホウライチョウ 3,MINAMIHORAICHO 3,,34.058545,133.0026
美保町一丁目,ミホチョウ 1,MIHOCHO 1,,34.073406,133.000702
美保町二丁目,ミホチョウ 2,MIHOCHO 2,,34.074035,133.000388
美保町三丁目,ミホチョウ 3,MIHOCHO 3,,34.075037,132.999557
宮ヶ崎,,,,34.014382,133.011501
宮窪町四阪島,ミヤクボチョウシサカジマ,MIYAKUBOCHO SHISAKAJIMA,,34.107576,133.187313
宮窪町友浦,ミヤクボチョウトモウラ,MIYAKUBOCHO TOMORA,,34.160669,133.086398
宮窪町早川,ミヤクボチョウハヤカワ,MIYAKUBOCHO HAYAKAWA,,34.187983,133.04194
宮窪町宮窪,ミヤクボチョウミヤクボ,MIYAKUBOCHO MIYAKUBO,,34.169471,133.070385
宮窪町余所国,ミヤクボチョウヨソクニ,MIYAKUBOCHO YOSOKUNI,,34.185449,133.057805
宮下町一丁目,ミヤシタチョウ 1,MIYASHITACHO 1,,34.068459,132.98826
宮下町二丁目,ミヤシタチョウ 2,MIYASHITACHO 2,,34.066346,132.988327
宮下町三丁目,ミヤシタチョウ 3,MIYASHITACHO 3,,34.067827,132.985607
室屋町一丁目,ムロヤチョウ 1,MUROYACHO 1,,34.067976,133.001733
室屋町二丁目,ムロヤチョウ 2,MUROYACHO 2,,34.068843,133.000839
室屋町三丁目,ムロヤチョウ 3,MUROYACHO 3,,34.069745,133.000165
室屋町四丁目,ムロヤチョウ 4,MUROYACHO 4,,34.071017,132.999132
室屋町五丁目,ムロヤチョウ 5,MUROYACHO 5,,34.072794,132.997048
室屋町六丁目,ムロヤチョウ 6,MUROYACHO 6,,34.074453,132.995479
室屋町七丁目,ムロヤチョウ 7,MUROYACHO 7,,34.076484,132.994582
矢田,ヤタ,YATA,,34.050479,132.963303
山方町一丁目,ヤマカタチョウ 1,YAMAKATACHO 1,,34.066118,132.981856
山方町二丁目,ヤマカタチョウ 2,YAMAKATACHO 2,,34.062363,132.98361
山口,ヤマグチ,YAMAGUCHI,,34.002614,133.002218
山路,ヤマジ,YAMAJI,,34.060421,132.975967
山路町一丁目,ヤマジチョウ 1,YAMAJICHO 1,,34.059682,132.978092
湯ノ浦,ユノウラ,YUNORA,,33.995589,133.052914
横田町一丁目,ヨコタチョウ 1,YOKOTACHO 1,,34.046186,133.009331
横田町二丁目,ヨコタチョウ 2,YOKOTACHO 2,,34.04407,133.011124
横田町三丁目,ヨコタチョウ 3,YOKOTACHO 3,,34.04248,133.009362
横田町四丁目,ヨコタチョウ 4,YOKOTACHO 4,,34.043979,133.007259
吉海町幸新田,ヨシウミチョウサイワイシンデン,YOSHIUMICHO SAIWAISHINDEN,,34.145972,133.039805
吉海町正味,ヨシウミチョウショウミ,YOSHIUMICHO SHOMI,,34.114799,133.017708
吉海町田浦,ヨシウミチョウタノウラ,YOSHIUMICHO TANORA,,34.185814,133.031858
吉海町津島,ヨシウミチョウツシマ,YOSHIUMICHO TSUSHIMA,,34.152985,133.000623
吉海町泊,ヨシウミチョウトマリ,YOSHIUMICHO TOMARI,,34.172208,133.041672
吉海町名駒,ヨシウミチョウナゴマ,YOSHIUMICHO NAGOMA,,34.112473,133.026209
吉海町仁江,ヨシウミチョウニエ,YOSHIUMICHO NIE,,34.147059,133.059687
吉海町福田,ヨシウミチョウフクダ,YOSHIUMICHO FUKUDA,,34.156853,133.047325
吉海町臥間,ヨシウミチョウフスマ,YOSHIUMICHO FUSUMA,,34.129776,133.021537
吉海町南浦,ヨシウミチョウミナミウラ,YOSHIUMICHO MINAMIURA,,34.115056,133.03771
吉海町名,ヨシウミチョウナゴマ,YOSHIUMICHO NAGOMA,,34.127746,133.039263
吉海町椋名,ヨシウミチョウムクナ,YOSHIUMICHO MUKUNA,,34.136702,133.022445
吉海町八幡,ヨシウミチョウヤワタ,YOSHIUMICHO YAWATA,,34.144023,133.044017
四村,ヨムラ,YOMURA,,34.034855,132.981697
吉海町本庄,ヨシウミチョウホンジョウ,YOSHIUMICHO HONJO,,34.145938,133.029357
小浦町一丁目,コウラチョウ 1,KORACHO 1,,34.109682,132.972517
砂場町二丁目,スナバチョウ 2,SUNABACHO 2,,34.110533,132.977767
砂場町一丁目,スナバチョウ 1,SUNABACHO 1,,34.104196,132.978451
馬越,ウマゴエチョウ,UMAGOECHO,二番耕地,34.062125,132.981443
古谷,コヤ,KOYA,甲,34.008946,133.004267
町谷,マチヤ,MACHIYA,大坪,34.028644,133.006203
山口,ヤマグチ,YAMAGUCHI,甲,34.006364,133.006485
朝倉下,アサクラシモ,ASAKURASHIMO,乙,34.000759,133.007248
朝倉南,アサクラミナミオツ,ASAKURAMINAMI OTSU,甲,33.989102,133.015299
朝倉北,アサクラキタ,ASAKURAKITA,甲,33.997741,133.016938
朝倉下,アサクラシモ,ASAKURASHIMO,甲,33.998327,133.018505
朝倉南,アサクラミナミオツ,ASAKURAMINAMI OTSU,乙,33.994448,133.027491
