name,name_kana,name_romaji,nickname,latitude,longitude
有田,アリタ,ARITA,,33.544417,130.222544
有田中央一丁目,アリタチュウオウ 1,ARITACHUO 1,,33.546107,130.210782
有田中央二丁目,アリタチュウオウ 2,ARITACHUO 2,,33.546693,130.214856
飯原,イイバル,IIBARU,,33.502543,130.213128
池田,イケダ,IKEDA,,33.562667,130.235335
井田,イタ,ITA,,33.547874,130.235005
板持,イタモチ,ITAMOCHI,,33.574673,130.228139
板持一丁目,イタモチ 1,ITAMOCHI 1,,33.571315,130.231441
板持二丁目,イタモチ 2,ITAMOCHI 2,,33.574435,130.232282
岩本,イワモト,IWAMOTO,,33.551015,130.173512
井原,イワラ,IWARA,,33.519892,130.248756
浦志,ウラシ,URASHI,,33.566696,130.207466
浦志一丁目,ウラシ 1,URASHI 1,,33.561154,130.212058
浦志二丁目,ウラシ 2,URASHI 2,,33.563085,130.210986
浦志三丁目,ウラシ 3,URASHI 3,,33.565111,130.210779
潤,ウルウ,URU,,33.56848,130.214345
潤一丁目,ウルウ 1,URU 1,,33.560167,130.218243
潤二丁目,ウルウ 2,URU 2,,33.562524,130.217478
潤三丁目,ウルウ 3,URU 3,,33.564782,130.216613
潤四丁目,ウルウ 4,URU 4,,33.566767,130.215204
王丸,オウマル,OMARU,,33.519597,130.28137
大浦,オオウラ,OURA,,33.546834,130.192231
荻浦,オギノウラ,OGINORA,,33.553123,130.186014
加布里,カフリ,KAFURI,,33.546371,130.164877
神在,カミアリ,KAMIARI,,33.541082,130.174972
川付,カワツキ,KAWATSUKI,,33.502853,130.18712
川原,カワバル,KAWABARU,,33.507382,130.274784
蔵持,クラモチ,KURAMOCHI,,33.537302,130.223302
高来寺,コウライジ,KORAIJI,,33.5547,130.247612
香力,コウリキ,KORIKI,,33.526893,130.214772
志登,シト,SHITO,,33.570548,130.221398
篠原,シノワラ,SHINOWARA,,33.555492,130.215075
篠原西一丁目,シノワラニシ 1,SHINOWARANISHI 1,,33.550923,130.204038
篠原西二丁目,シノワラニシ 2,SHINOWARANISHI 2,,33.550212,130.208114
篠原西三丁目,シノワラニシ 3,SHINOWARANISHI 3,,33.548051,130.20887
篠原東一丁目,シノワラヒガシ 1,SHINOWARAHIGASHI 1,,33.552925,130.209776
篠原東二丁目,シノワラヒガシ 2,SHINOWARAHIGASHI 2,,33.551452,130.211386
篠原東三丁目,シノワラヒガシ 3,SHINOWARAHIGASHI 3,,33.551184,130.215827
志摩井田原,シマイダハラ,SHIMA IDAHARA,,33.592769,130.185578
志摩稲留,シマイナドメ,SHIMA INADOME,,33.59116,130.173174
志摩稲葉,シマイナバ,SHIMA INABA,,33.574334,130.185013
志摩岐志,シマキシ,SHIMA KISHI,,33.578086,130.127209
志摩久家,シマクガ,SHIMA KUGA,,33.557347,130.140596
志摩芥屋,シマケヤ,SHIMA KEYA,,33.58041,130.104763
志摩小金丸,シマコガネマル,SHIMA KOGANEMARU,,33.585759,130.160947
志摩小富士,シマコフジ,SHIMA KOFUJI,,33.564222,130.170987
志摩桜井,シマサクライ,SHIMA SAKURAI,,33.620101,130.190956
志摩新町,シマシンマチ,SHIMA SHIMMACHI,,33.57171,130.134287
志摩津和崎,シマツワザキ,SHIMA TSUWAZAKI,,33.578898,130.190192
志摩西貝塚,シマニシカイヅカ,SHIMA NISHIKAIZUKA,,33.578883,130.141427
志摩野北,シマノギタ,SHIMA NOGITA,,33.614485,130.169574
志摩初,シマハツ,SHIMA HATSU,,33.58233,130.179352
志摩馬場,シマババ,SHIMA BABA,,33.593165,130.207589
志摩東貝塚,シマヒガシカイヅカ,SHIMA HIGASHIKAIZUKA,,33.579124,130.14995
志摩姫島,シマヒメシマ,SHIMA HIMESHIMA,,33.57009,130.048938
志摩船越,シマフナコシ,SHIMA FUNAKOSHI,,33.554001,130.120437
志摩松隈,シママツグマ,SHIMA MATSUGUMA,,33.589229,130.198361
志摩御床,シマミトコ,SHIMA MITOKO,,33.567883,130.145292
志摩師吉,シマモロヨシ,SHIMA MOROYOSHI,,33.573615,130.173474
志摩吉田,シマヨシダ,SHIMA YOSHIDA,,33.603278,130.184869
白糸,シライト,SHIRAITO,,33.481179,130.176451
新田,シンデン,SHINDEN,,33.56888,130.194927
瑞梅寺,ズイバイジ,ZUIBAIJI,,33.496024,130.250396
末永,スエナガ,SUENAGA,,33.52701,130.275472
瀬戸,セト,SETO,,33.509287,130.182989
曽根,ソネ,SONE,,33.537234,130.231079
大門,ダイモン,DAIMON,,33.549453,130.247636
高上,タカウエ,TAKAUE,,33.517665,130.23082
高祖,タカス,TAKASU,,33.539845,130.266292
高田,タカタ,TAKATA,,33.566633,130.236566
高田一丁目,タカタ 1,TAKATA 1,,33.567471,130.233685
高田二丁目,タカタ 2,TAKATA 2,,33.569422,130.231567
高田三丁目,タカタ 3,TAKATA 3,,33.574505,130.234963
高田四丁目,タカタ 4,TAKATA 4,,33.572049,130.237292
高田五丁目,タカタ 5,TAKATA 5,,33.569317,130.237473
多久,タク,TAKU,,33.543054,130.194529
千早新田,チハヤシンデン,CHIHAYASHINDEN,,33.553524,130.171395
泊,トマリ,TOMARI,,33.578154,130.213011
富,トミ,TOMI,,33.538558,130.208883
長野,ナガノ,NAGANO,,33.495425,130.198435
西堂,ニシノドウ,NISHINODO,,33.519904,130.260463
二丈一貴山,ニジョウイキサン,NIJO IKISAN,,33.489135,130.141286
二丈石崎,ニジョウイシザキ,NIJO ISHIZAKI,,33.519489,130.162785
二丈片山,ニジョウカタヤマ,NIJO KATAYAMA,,33.526196,130.15085
二丈上深江,ニジョウカミフカエ,NIJO KAMIFUKAE,,33.513285,130.157292
二丈鹿家,ニジョウシカカ,NIJO SHIKAKA,,33.482425,130.056456
二丈武,ニジョウタケ,NIJO TAKE,,33.527642,130.169521
二丈田中,ニジョウタナカ,NIJO TANAKA,,33.536533,130.166204
二丈長石,ニジョウナガイシ,NIJO NAGAISHI,,33.50455,130.166273
二丈浜窪,ニジョウハマクボ,NIJO HAMAKUBO,,33.537976,130.157638
二丈波呂,ニジョウハロ,NIJO HARO,,33.506048,130.174286
二丈深江,ニジョウフカエ,NIJO FUKAE,,33.506658,130.135552
二丈福井,ニジョウフクイ,NIJO FUKUI,,33.495394,130.104097
二丈松末,ニジョウマスエ,NIJO MASUE,,33.529084,130.142948
二丈松国,ニジョウマツクニ,NIJO MATSUKUNI,,33.520064,130.177505
二丈満吉,ニジョウミツヨシ,NIJO MITSUYOSHI,,33.501838,130.158632
二丈吉井,ニジョウヨシイ,NIJO YOSHII,,33.487896,130.078077
波多江,ハタエ,HATAE,,33.556435,130.226488
波多江駅北一丁目,ハタエエキキタ 1,HATAEEKIKITA 1,,33.56384,130.222758
波多江駅北二丁目,ハタエエキキタ 2,HATAEEKIKITA 2,,33.566321,130.223366
波多江駅北三丁目,ハタエエキキタ 3,HATAEEKIKITA 3,,33.566844,130.226786
波多江駅北四丁目,ハタエエキキタ 4,HATAEEKIKITA 4,,33.565073,130.2282
波多江駅南一丁目,ハタエエキミナミ 1,HATAEEKIMINAMI 1,,33.563457,130.227387
波多江駅南二丁目,ハタエエキミナミ 2,HATAEEKIMINAMI 2,,33.562509,130.229576
東,ヒガシ,HIGASHI,,33.530799,130.186352
本,ホン,HON,,33.52308,130.199877
前原,マエバル,MAEBARU,,33.56011,130.18819
前原駅南一丁目,マエバルエキミナミ 1,MAEBARUEKIMINAMI 1,,33.555047,130.194602
前原駅南二丁目,マエバルエキミナミ 2,MAEBARUEKIMINAMI 2,,33.554622,130.200742
前原駅南三丁目,マエバルエキミナミ 3,MAEBARUEKIMINAMI 3,,33.555523,130.203494
前原北一丁目,マエバルキタ 1,MAEBARUKITA 1,,33.562671,130.196332
前原北二丁目,マエバルキタ 2,MAEBARUKITA 2,,33.564008,130.194221
前原北三丁目,マエバルキタ 3,MAEBARUKITA 3,,33.565258,130.19936
前原北四丁目,マエバルキタ 4,MAEBARUKITA 4,,33.563403,130.199745
前原中央一丁目,マエバルチュウオウ 1,MAEBARUCHUO 1,,33.558218,130.203037
前原中央二丁目,マエバルチュウオウ 2,MAEBARUCHUO 2,,33.558696,130.20042
前原中央三丁目,マエバルチュウオウ 3,MAEBARUCHUO 3,,33.560945,130.2002
前原西一丁目,マエバルニシ 1,MAEBARUNISHI 1,,33.557095,130.195265
前原西二丁目,マエバルニシ 2,MAEBARUNISHI 2,,33.556932,130.191474
前原西三丁目,マエバルニシ 3,MAEBARUNISHI 3,,33.559757,130.193256
前原西四丁目,マエバルニシ 4,MAEBARUNISHI 4,,33.560776,130.196027
前原西五丁目,マエバルニシ 5,MAEBARUNISHI 5,,33.562876,130.19295
前原東一丁目,マエバルヒガシ 1,MAEBARUHIGASHI 1,,33.559475,130.206963
前原東二丁目,マエバルヒガシ 2,MAEBARUHIGASHI 2,,33.56194,130.205276
前原東三丁目,マエバルヒガシ 3,MAEBARUHIGASHI 3,,33.56427,130.203098
前原南一丁目,マエバルミナミ 1,MAEBARUMINAMI 1,,33.556542,130.206487
前原南二丁目,マエバルミナミ 2,MAEBARUMINAMI 2,,33.556945,130.210286
三雲,ミクモ,MIKUMO,,33.539247,130.240656
三坂,ミサカ,MISAKA,,33.520749,130.224152
美咲が丘一丁目,ミサキガオカ 1,MISAKIGAOKA 1,,33.549427,130.188221
美咲が丘二丁目,ミサキガオカ 2,MISAKIGAOKA 2,,33.54854,130.191621
美咲が丘三丁目,ミサキガオカ 3,MISAKIGAOKA 3,,33.546905,130.186817
美咲が丘四丁目,ミサキガオカ 4,MISAKIGAOKA 4,,33.548642,130.186272
南風台一丁目,ミナカゼダイ 1,MINAKAZEDAI 1,,33.553326,130.194528
南風台二丁目,ミナカゼダイ 2,MINAKAZEDAI 2,,33.551933,130.195151
南風台三丁目,ミナカゼダイ 3,MINAKAZEDAI 3,,33.549917,130.195658
南風台四丁目,ミナカゼダイ 4,MINAKAZEDAI 4,,33.550315,130.198477
南風台五丁目,ミナカゼダイ 5,MINAKAZEDAI 5,,33.551647,130.199149
南風台六丁目,ミナカゼダイ 6,MINAKAZEDAI 6,,33.550001,130.200565
南風台七丁目,ミナカゼダイ 7,MINAKAZEDAI 7,,33.547463,130.195798
南風台八丁目,ミナカゼダイ 8,MINAKAZEDAI 8,,33.549371,130.193581
八島,ヤシマ,YASHIMA,,33.529794,130.225379
山北,ヤマギタ,YAMAGITA,,33.514528,130.237148
油比,ユビ,YUBI,,33.577866,130.19814
雷山,ライザン,RAIZAN,,33.496589,130.228404
伊都の杜一丁目,イトノモリ 1,ITONOMORI 1,,33.559523,130.213209
伊都の杜三丁目,イトノモリ 3,ITONOMORI 3,,33.557321,130.213713
伊都の杜二丁目,イトノモリ 2,ITONOMORI 2,,33.558734,130.215841
志摩津和崎,シマツワザキ,SHIMA TSUWAZAKI,宮ノ元,33.580093,130.186385
