name,name_kana,name_romaji,nickname,latitude,longitude
大字乙犬,,,,33.615605,130.507212
大字尾仲,,,,33.619326,130.515656
大字金出,,,,33.632424,130.545538
大字篠栗,,,,33.622748,130.568817
大字高田,,,,33.636222,130.534888
大字田中,,,,33.626718,130.518996
大字津波黒,,,,33.631763,130.518312
大字内住,,,,33.610407,130.586419
大字萩尾,,,,33.653685,130.560375
大字若杉,,,,33.607004,130.524221
大字和田,,,,33.630377,130.503742
大字津波黒,,,大浦,33.637874,130.513485
